<?xml version="1.0" encoding="UTF-8"?><kml xmlns="http://www.opengis.net/kml/2.2"><Document>
<Style id="hideLabel"><LabelStyle><scale>0</scale></LabelStyle></Style>
<Placemark><name>devinSTAPLES</name><description>Back in the states after 5 months of expat fun. (@ Hawaii International Airport) http://t.co/yXdUJnLj
Fri, 18 Nov 2011 17:03:33 +0000</description><styleUrl>#hideLabel</styleUrl>
<Point><coordinates>-157.923400,21.332900,0</coordinates></Point></Placemark>
<Placemark><name>mansara1</name><description>I'm at Honolulu International Airport (HNL) (300 Rodgers Blvd, off H1, Honolulu) w/ 7 others http://t.co/xVp4R7QW
Fri, 18 Nov 2011 17:39:51 +0000</description><styleUrl>#hideLabel</styleUrl>
<Point><coordinates>-157.926667,21.315833,0</coordinates></Point></Placemark>
<Placemark><name>abaggy</name><description>I'm at Honolulu International Airport (HNL) (300 Rodgers Blvd, off H1, Honolulu) w/ 5 others http://t.co/spzqen0O
Fri, 18 Nov 2011 18:30:10 +0000</description><styleUrl>#hideLabel</styleUrl>
<Point><coordinates>-157.926667,21.315833,0</coordinates></Point></Placemark>
<Placemark><name>tommy_nezy</name><description>I'm at Honolulu International Airport (HNL) (300 Rodgers Blvd, off H1, Honolulu) w/ 8 others http://t.co/GsyqOaqx
Fri, 18 Nov 2011 19:53:48 +0000</description><styleUrl>#hideLabel</styleUrl>
<Point><coordinates>-157.926667,21.315833,0</coordinates></Point></Placemark>
<Placemark><name>NathanPayne</name><description>Off to The St. Regis Princeville Resort in Kauai. (@ Honolulu International Airport (HNL) w/ 9 others) http://t.co/r9zhJfzl
Fri, 18 Nov 2011 20:59:48 +0000</description><styleUrl>#hideLabel</styleUrl>
<Point><coordinates>-157.920000,21.331200,0</coordinates></Point></Placemark>
<Placemark><name>yoonjaC</name><description>I'm at Honolulu International Airport (HNL) (300 Rodgers Blvd, off H1, Honolulu) w/ 10 others http://t.co/HrIInz2j
Fri, 18 Nov 2011 21:11:16 +0000</description><styleUrl>#hideLabel</styleUrl>
<Point><coordinates>-157.926667,21.315833,0</coordinates></Point></Placemark>
<Placemark><name>CHOSHH</name><description>If I was you..I wouldn't yawn like that again #assbreath
Fri, 18 Nov 2011 21:34:04 +0000</description><styleUrl>#hideLabel</styleUrl>
<Point><coordinates>-157.922600,21.329800,0</coordinates></Point></Placemark>
<Placemark><name>CHOSHH</name><description>@SUPAFLYKiO the question should be..who's ass was it..lmao #ACKWARD
Fri, 18 Nov 2011 21:57:24 +0000</description><styleUrl>#hideLabel</styleUrl>
<Point><coordinates>-157.928900,21.328500,0</coordinates></Point></Placemark>
<Placemark><name>puunui</name><description>Maui bound (@ Honolulu International Airport (HNL) w/ 17 others) http://t.co/hRoXd3Nv
Fri, 18 Nov 2011 23:01:26 +0000</description><styleUrl>#hideLabel</styleUrl>
<Point><coordinates>-157.920000,21.331200,0</coordinates></Point></Placemark>
<Placemark><name>MarkSherwin</name><description>Ma'Holla atcha boy! (@ Honolulu International Airport (HNL) w/ 20 others) [pic]: http://t.co/656BzuyO
Fri, 18 Nov 2011 23:06:53 +0000</description><styleUrl>#hideLabel</styleUrl>
<Point><coordinates>-157.920000,21.331200,0</coordinates></Point></Placemark>
<Placemark><name>Jensays_</name><description>California girl (@ Honolulu International Airport (HNL) w/ 17 others) http://t.co/DV555vHE
Sat, 19 Nov 2011 00:03:52 +0000</description><styleUrl>#hideLabel</styleUrl>
<Point><coordinates>-157.920000,21.331200,0</coordinates></Point></Placemark>
<Placemark><name>Bradkast</name><description>I just ousted Tom W. as the mayor of Mamala Bay Golf Club on @foursquare! http://t.co/Sq0xmsau
Sat, 19 Nov 2011 00:38:00 +0000</description><styleUrl>#hideLabel</styleUrl>
<Point><coordinates>-157.934400,21.316500,0</coordinates></Point></Placemark>
<Placemark><name>toddbarnhart</name><description>I'm at Honolulu International Airport (HNL) (300 Rodgers Blvd, off H1, Honolulu) w/ 13 others http://t.co/cGfcZQeW
Sat, 19 Nov 2011 04:55:02 +0000</description><styleUrl>#hideLabel</styleUrl>
<Point><coordinates>-157.926667,21.315833,0</coordinates></Point></Placemark>
<Placemark><name>McRiscka</name><description>Quick layover. :) (@ Honolulu International Airport (HNL) w/ 9 others) http://t.co/QT0NfICY
Sat, 19 Nov 2011 07:16:55 +0000</description><styleUrl>#hideLabel</styleUrl>
<Point><coordinates>-157.920000,21.331200,0</coordinates></Point></Placemark>
<Placemark><name>mansara1</name><description>I just became the mayor of Gate 20 on @foursquare! http://t.co/g966Uife
Sat, 19 Nov 2011 17:44:55 +0000</description><styleUrl>#hideLabel</styleUrl>
<Point><coordinates>-157.920400,21.329500,0</coordinates></Point></Placemark>
<Placemark><name>mansara1</name><description>I just became the mayor of LeSportsac on @foursquare! http://t.co/jTblGYF7
Sat, 19 Nov 2011 17:44:38 +0000</description><styleUrl>#hideLabel</styleUrl>
<Point><coordinates>-157.921600,21.331200,0</coordinates></Point></Placemark>
<Placemark><name>nishimurin</name><description>I'm at Honolulu International Airport (HNL) (300 Rodgers Blvd, off H1, Honolulu) w/ 5 others http://t.co/ehte34iS
Sat, 19 Nov 2011 19:22:41 +0000</description><styleUrl>#hideLabel</styleUrl>
<Point><coordinates>-157.926667,21.315833,0</coordinates></Point></Placemark>
<Placemark><name>tom_go</name><description>I'm at Honolulu International Airport (HNL) (300 Rodgers Blvd, off H1, Honolulu) w/ 4 others http://t.co/HjxGTfOd
Sat, 19 Nov 2011 19:31:27 +0000</description><styleUrl>#hideLabel</styleUrl>
<Point><coordinates>-157.926667,21.315833,0</coordinates></Point></Placemark>
<Placemark><name>mikenafil2az</name><description>Maui you're next! (@ Honolulu International Airport (HNL) w/ 10 others) http://t.co/hBe8EJKQ
Sat, 19 Nov 2011 21:43:18 +0000</description><styleUrl>#hideLabel</styleUrl>
<Point><coordinates>-157.920000,21.331200,0</coordinates></Point></Placemark>
<Placemark><name>Corndiggity</name><description>I'm at Honolulu International Airport (HNL) (300 Rodgers Blvd, off H1, Honolulu) w/ 12 others http://t.co/T8spxIWz
Sat, 19 Nov 2011 21:56:42 +0000</description><styleUrl>#hideLabel</styleUrl>
<Point><coordinates>-157.926667,21.315833,0</coordinates></Point></Placemark>
<Placemark><name>h3mby</name><description>Lots of sad people  @ Honolulu International Airport (HNL) http://t.co/y2YDh1bm
Sat, 19 Nov 2011 22:54:12 +0000</description><styleUrl>#hideLabel</styleUrl>
<Point><coordinates>-157.920000,21.331200,0</coordinates></Point></Placemark>
<Placemark><name>DiprimaDelight</name><description>@AmyMicheeellle @sam_smith92 yes! We will all Skype add me it's just Danielle Diprima
Sat, 19 Nov 2011 22:53:42 +0000</description><styleUrl>#hideLabel</styleUrl>
<Point><coordinates>-157.920400,21.329100,0</coordinates></Point></Placemark>
<Placemark><name>DiprimaDelight</name><description>5 more hours... Hung over on a plane #winning
Sat, 19 Nov 2011 23:11:22 +0000</description><styleUrl>#hideLabel</styleUrl>
<Point><coordinates>-157.920400,21.329000,0</coordinates></Point></Placemark>
<Placemark><name>DiprimaDelight</name><description>Now I remember why I'm so hung over!! @SaraGruden thx #Pinterest for the idea! http://t.co/yhdAAzt5
Sat, 19 Nov 2011 23:30:09 +0000</description><styleUrl>#hideLabel</styleUrl>
<Point><coordinates>-157.916400,21.327900,0</coordinates></Point></Placemark>
<Placemark><name>lockemichelle</name><description>HNL - SEA.  Leaving Shave Ice for mainland snow.  :( (@ Honolulu International Airport (HNL) w/ @h3mby) http://t.co/jov9poUI
Sat, 19 Nov 2011 23:29:27 +0000</description><styleUrl>#hideLabel</styleUrl>
<Point><coordinates>-157.920000,21.331200,0</coordinates></Point></Placemark>
<Placemark><name>sanpil</name><description>@AlaskaAir's Craig made it up for the delay with a sincere apology speech.
Sat, 19 Nov 2011 23:33:40 +0000</description><styleUrl>#hideLabel</styleUrl>
<Point><coordinates>-157.920400,21.330200,0</coordinates></Point></Placemark>
<Placemark><name>h3mby</name><description>Old lady said &quot;go lahaina chicken!&quot; so we did. Solid.   @ Lahaina Chicken http://t.co/hcgBd7rY
Sat, 19 Nov 2011 23:41:22 +0000</description><styleUrl>#hideLabel</styleUrl>
<Point><coordinates>-157.920300,21.329600,0</coordinates></Point></Placemark>
<Placemark><name>physh</name><description>#boarding HA12
Sat, 19 Nov 2011 23:40:31 +0000</description><styleUrl>#hideLabel</styleUrl>
<Point><coordinates>-157.925200,21.329200,0</coordinates></Point></Placemark>
<Placemark><name>h3mby</name><description>Mr Alaska man about to take us home. Not my favorite person right now.   @ Honolulu International Airport (HNL) http://t.co/LDw2cf03
Sat, 19 Nov 2011 23:46:27 +0000</description><styleUrl>#hideLabel</styleUrl>
<Point><coordinates>-157.920000,21.331200,0</coordinates></Point></Placemark>
<Placemark><name>jah_illest</name><description>I'm at Honolulu International Airport (HNL) (300 Rodgers Blvd, off H1, Honolulu) w/ 21 others http://t.co/MoZVZalB
Sun, 20 Nov 2011 00:30:16 +0000</description><styleUrl>#hideLabel</styleUrl>
<Point><coordinates>-157.926667,21.315833,0</coordinates></Point></Placemark>
<Placemark><name>ThorParrish513</name><description>That was a long 8 hr 50 min flight
Sun, 20 Nov 2011 00:41:10 +0000</description><styleUrl>#hideLabel</styleUrl>
<Point><coordinates>-157.924300,21.327300,0</coordinates></Point></Placemark>
<Placemark><name>mbensussen</name><description>Everyone back home talking about SNOW? STFU and move to Hawaii. Nothing but SUNSHINE and 82 degrees!
Sun, 20 Nov 2011 01:28:44 +0000</description><styleUrl>#hideLabel</styleUrl>
<Point><coordinates>-157.924400,21.333400,0</coordinates></Point></Placemark>
<Placemark><name>mbensussen</name><description>Wow @washcaps are fuckin up! &quot;Maple Leafs score on the PP at 19:30 of the 2nd to take a 6-1 lead&quot; #CapsLeafs
Sun, 20 Nov 2011 01:52:50 +0000</description><styleUrl>#hideLabel</styleUrl>
<Point><coordinates>-157.924400,21.333400,0</coordinates></Point></Placemark>
<Placemark><name>retrodirective</name><description>I'm at Honolulu International Airport (HNL) (300 Rodgers Blvd, off H1, Honolulu) w/ 17 others http://t.co/wKTjPgge
Sun, 20 Nov 2011 02:32:23 +0000</description><styleUrl>#hideLabel</styleUrl>
<Point><coordinates>-157.926667,21.315833,0</coordinates></Point></Placemark>
<Placemark><name>bwhitener</name><description>Made it... Hells ya! (@ Honolulu International Airport (HNL) w/ 19 others) http://t.co/EIucUZsw
Sun, 20 Nov 2011 02:36:24 +0000</description><styleUrl>#hideLabel</styleUrl>
<Point><coordinates>-157.920000,21.331200,0</coordinates></Point></Placemark>
<Placemark><name>sborch6587</name><description>I'm at Honolulu International Airport (HNL) (300 Rodgers Blvd, off H1, Honolulu) w/ 18 others http://t.co/SjxPWyCr
Sun, 20 Nov 2011 03:02:51 +0000</description><styleUrl>#hideLabel</styleUrl>
<Point><coordinates>-157.926667,21.315833,0</coordinates></Point></Placemark>
<Placemark><name>lmosinski</name><description>I'm at Honolulu International Airport (HNL) (300 Rodgers Blvd, off H1, Honolulu) w/ 19 others http://t.co/XAfr6XNj
Sun, 20 Nov 2011 03:38:53 +0000</description><styleUrl>#hideLabel</styleUrl>
<Point><coordinates>-157.926667,21.315833,0</coordinates></Point></Placemark>
<Placemark><name>JGaspard</name><description>Not one for toilet tweeting, but the stall next to me just sounded like an audio clip of a shuttle launch...wow #notevenmad
Sun, 20 Nov 2011 05:58:00 +0000</description><styleUrl>#hideLabel</styleUrl>
<Point><coordinates>-157.920300,21.329700,0</coordinates></Point></Placemark>
<Placemark><name>skittlesness</name><description>Lol what's HNI? (@ American Airlines Check-in Counter HNl) http://t.co/Prym8Ax4
Sun, 20 Nov 2011 06:00:58 +0000</description><styleUrl>#hideLabel</styleUrl>
<Point><coordinates>-157.920600,21.331300,0</coordinates></Point></Placemark>
<Placemark><name>Lauraog</name><description>The day's horizon.   @ Honolulu International Airport (HNL) http://t.co/rdwJEFdR
Sun, 20 Nov 2011 06:13:46 +0000</description><styleUrl>#hideLabel</styleUrl>
<Point><coordinates>-157.920000,21.331200,0</coordinates></Point></Placemark>
<Placemark><name>jeneps</name><description>Final leg of the trip. Press charter is taking off from Honolulu!
Sun, 20 Nov 2011 06:29:56 +0000</description><styleUrl>#hideLabel</styleUrl>
<Point><coordinates>-157.919500,21.329900,0</coordinates></Point></Placemark>
<Placemark><name>jeneps</name><description>Meanwhile, AF1 is landing in DC. That and off the record POTUS visit mean I should've traded with @davidnakamura
Sun, 20 Nov 2011 06:31:27 +0000</description><styleUrl>#hideLabel</styleUrl>
<Point><coordinates>-157.921200,21.327900,0</coordinates></Point></Placemark>
<Placemark><name>jfew</name><description>I'm at Honolulu International Airport (HNL) (300 Rodgers Blvd, off H1, Honolulu) w/ 10 others http://t.co/HUsmqrTQ
Sun, 20 Nov 2011 07:06:17 +0000</description><styleUrl>#hideLabel</styleUrl>
<Point><coordinates>-157.926667,21.315833,0</coordinates></Point></Placemark>
<Placemark><name>neilbrian</name><description>I'm at Honolulu International Airport (HNL) (300 Rodgers Blvd, off H1, Honolulu) w/ 17 others http://t.co/3CEqF2hM
Sun, 20 Nov 2011 07:31:39 +0000</description><styleUrl>#hideLabel</styleUrl>
<Point><coordinates>-157.926667,21.315833,0</coordinates></Point></Placemark>
<Placemark><name>skittlesness</name><description>I hopped on the plane for LAX with my dreams and my dinosaur jacket.... (@ Gate 18) http://t.co/tWY8nMeJ
Sun, 20 Nov 2011 07:37:30 +0000</description><styleUrl>#hideLabel</styleUrl>
<Point><coordinates>-157.920300,21.329200,0</coordinates></Point></Placemark>
<Placemark><name>wangbus</name><description>I'm at Honolulu International Airport (HNL) (300 Rodgers Blvd, off H1, Honolulu) w/ 16 others http://t.co/xjcEMfIt
Sun, 20 Nov 2011 07:46:56 +0000</description><styleUrl>#hideLabel</styleUrl>
<Point><coordinates>-157.926667,21.315833,0</coordinates></Point></Placemark>
<Placemark><name>Kai_Lenny</name><description>It is great to be home in Hawaii again! So stoked I got to go to Fiji and score some waves the last day! #blessed
Sun, 20 Nov 2011 18:14:23 +0000</description><styleUrl>#hideLabel</styleUrl>
<Point><coordinates>-157.924600,21.333400,0</coordinates></Point></Placemark>
<Placemark><name>zkiraly</name><description>I'm at Honolulu International Airport (HNL) (300 Rodgers Blvd, off H1, Honolulu) w/ 2 others http://t.co/3UDvT0i0
Sun, 20 Nov 2011 21:56:41 +0000</description><styleUrl>#hideLabel</styleUrl>
<Point><coordinates>-157.926667,21.315833,0</coordinates></Point></Placemark>
<Placemark><name>nerdseyeview</name><description>all these JAL lines make me wish my next stop was Tokyo.   @ Honolulu International Airport (HNL) http://t.co/KkbXfQdm
Sun, 20 Nov 2011 22:10:16 +0000</description><styleUrl>#hideLabel</styleUrl>
<Point><coordinates>-157.920000,21.331200,0</coordinates></Point></Placemark>
<Placemark><name>duplexcomplex</name><description>I'm at Honolulu International Airport (HNL) (300 Rodgers Blvd, off H1, Honolulu) w/ 4 others http://t.co/XcTP7hC2
Sun, 20 Nov 2011 22:08:59 +0000</description><styleUrl>#hideLabel</styleUrl>
<Point><coordinates>-157.926667,21.315833,0</coordinates></Point></Placemark>
<Placemark><name>bs</name><description>I always forget how amazing it is here. (@ Honolulu International Airport (HNL) w/ 8 others) [pic]: http://t.co/ziAsyiDh
Sun, 20 Nov 2011 22:44:02 +0000</description><styleUrl>#hideLabel</styleUrl>
<Point><coordinates>-157.920000,21.331200,0</coordinates></Point></Placemark>
<Placemark><name>csima</name><description>I'm at Honolulu International Airport (HNL) (300 Rodgers Blvd, off H1, Honolulu) w/ 7 others http://t.co/ZKz3WXkC
Sun, 20 Nov 2011 22:59:32 +0000</description><styleUrl>#hideLabel</styleUrl>
<Point><coordinates>-157.926667,21.315833,0</coordinates></Point></Placemark>
<Placemark><name>ha767flygirl</name><description>I'm at Honolulu International Airport (HNL) (300 Rodgers Blvd, off H1, Honolulu) w/ 12 others http://t.co/hgsJICWZ
Sun, 20 Nov 2011 23:29:47 +0000</description><styleUrl>#hideLabel</styleUrl>
<Point><coordinates>-157.926667,21.315833,0</coordinates></Point></Placemark>
<Placemark><name>el_chico_dorado</name><description>Mahalo :'-( (@ Honolulu International Airport (HNL) w/ 14 others) http://t.co/2cyliSlJ
Mon, 21 Nov 2011 00:16:33 +0000</description><styleUrl>#hideLabel</styleUrl>
<Point><coordinates>-157.920000,21.331200,0</coordinates></Point></Placemark>
<Placemark><name>Inkobject</name><description>I'm at Honolulu International Airport (HNL) (300 Rodgers Blvd, off H1, Honolulu) w/ 15 others http://t.co/5saYSbU2
Mon, 21 Nov 2011 00:26:27 +0000</description><styleUrl>#hideLabel</styleUrl>
<Point><coordinates>-157.926667,21.315833,0</coordinates></Point></Placemark>
<Placemark><name>goldentimes</name><description>I'm at Honolulu International Airport (HNL) (300 Rodgers Blvd, off H1, Honolulu) w/ 16 others http://t.co/b2b3jkca
Mon, 21 Nov 2011 01:24:49 +0000</description><styleUrl>#hideLabel</styleUrl>
<Point><coordinates>-157.926667,21.315833,0</coordinates></Point></Placemark>
<Placemark><name>TalofaKatoya</name><description>@NotesfromaG omg u went to LA, when why how! Ooooo fun, I'm tryna go to the Bowl Game this december if uw makes it #GoBabyK
Mon, 21 Nov 2011 01:34:28 +0000</description><styleUrl>#hideLabel</styleUrl>
<Point><coordinates>-157.920000,21.329500,0</coordinates></Point></Placemark>
<Placemark><name>TalofaKatoya</name><description>@NotesfromaG lmao yes that's my soldier man mr baby K . Can't wait to hear! Idk when it is, bowl game is after season in december
Mon, 21 Nov 2011 01:41:46 +0000</description><styleUrl>#hideLabel</styleUrl>
<Point><coordinates>-157.920000,21.329500,0</coordinates></Point></Placemark>
<Placemark><name>TalofaKatoya</name><description>So they just told told every one to immediately depart from plane and take all belongs lmao I'm stuck in hawaii grrrrrr
Mon, 21 Nov 2011 01:52:24 +0000</description><styleUrl>#hideLabel</styleUrl>
<Point><coordinates>-157.919800,21.329600,0</coordinates></Point></Placemark>
<Placemark><name>TheRealDKawano</name><description>I'm at Honolulu International Airport (HNL) (300 Rodgers Blvd, off H1, Honolulu) w/ 12 others http://t.co/KxA8ThqY
Mon, 21 Nov 2011 03:18:02 +0000</description><styleUrl>#hideLabel</styleUrl>
<Point><coordinates>-157.926667,21.315833,0</coordinates></Point></Placemark>
<Placemark><name>joscie</name><description>I'm at Honolulu International Airport (HNL) (300 Rodgers Blvd, off H1, Honolulu) w/ 12 others http://t.co/MBiTymKb
Mon, 21 Nov 2011 03:29:57 +0000</description><styleUrl>#hideLabel</styleUrl>
<Point><coordinates>-157.926667,21.315833,0</coordinates></Point></Placemark>
<Placemark><name>TalofaKatoya</name><description>@NotesfromaG there fixn r fuckn plane and were about to reboard n 30mins wtf I don't wanna go on the &quot;fixed&quot; plane
Mon, 21 Nov 2011 04:02:28 +0000</description><styleUrl>#hideLabel</styleUrl>
<Point><coordinates>-157.920500,21.329300,0</coordinates></Point></Placemark>
<Placemark><name>TalofaKatoya</name><description>@NotesfromaG pay about a G more umm no I'm good, rent is due next week lmao
Mon, 21 Nov 2011 04:12:03 +0000</description><styleUrl>#hideLabel</styleUrl>
<Point><coordinates>-157.920500,21.329300,0</coordinates></Point></Placemark>
<Placemark><name>derekokada</name><description>All packed up and ready to go to Maui! (@ Honolulu International Airport (HNL) w/ 9 others) [pic]: http://t.co/Z6jNfZN6
Mon, 21 Nov 2011 04:21:43 +0000</description><styleUrl>#hideLabel</styleUrl>
<Point><coordinates>-157.920000,21.331200,0</coordinates></Point></Placemark>
<Placemark><name>TalofaKatoya</name><description>&quot;@NotesfromaG: ahahaha we got sugar daddy's for that.... @TalofaKatoya&quot; &lt; it aint trickn if u got it
Mon, 21 Nov 2011 04:34:26 +0000</description><styleUrl>#hideLabel</styleUrl>
<Point><coordinates>-157.920500,21.329300,0</coordinates></Point></Placemark>
<Placemark><name>DblCups_N_Cash</name><description>Jus now listened to that wale ambition I give it a 81 it ain't better than that j cole
Mon, 21 Nov 2011 04:49:47 +0000</description><styleUrl>#hideLabel</styleUrl>
<Point><coordinates>-157.924100,21.332500,0</coordinates></Point></Placemark>
<Placemark><name>NathanPayne</name><description>I'm at Honolulu International Airport (HNL) (300 Rodgers Blvd, off H1, Honolulu) w/ 11 others http://t.co/E8evmzYz
Mon, 21 Nov 2011 05:06:56 +0000</description><styleUrl>#hideLabel</styleUrl>
<Point><coordinates>-157.926667,21.315833,0</coordinates></Point></Placemark>
<Placemark><name>ohitskevinc</name><description>I'm at Honolulu International Airport (HNL) (300 Rodgers Blvd, off H1, Honolulu) w/ 10 others http://t.co/Ny04ZA2S
Mon, 21 Nov 2011 05:21:11 +0000</description><styleUrl>#hideLabel</styleUrl>
<Point><coordinates>-157.926667,21.315833,0</coordinates></Point></Placemark>
<Placemark><name>NathanPayne</name><description>Long layover... (@ Delta Sky Club Crown Room Lounge) http://t.co/Aga6NxLz
Mon, 21 Nov 2011 05:37:24 +0000</description><styleUrl>#hideLabel</styleUrl>
<Point><coordinates>-157.920100,21.331000,0</coordinates></Point></Placemark>
<Placemark><name>DblCups_N_Cash</name><description>@ForTheCancers PDA &lt;&lt;&lt;&lt;&lt;
Mon, 21 Nov 2011 06:21:50 +0000</description><styleUrl>#hideLabel</styleUrl>
<Point><coordinates>-157.924600,21.332600,0</coordinates></Point></Placemark>
<Placemark><name>NathanPayne</name><description>Wo
Mon, 21 Nov 2011 06:44:21 +0000</description><styleUrl>#hideLabel</styleUrl>
<Point><coordinates>-157.920100,21.330900,0</coordinates></Point></Placemark>
<Placemark><name>DCtravelgirl</name><description>@Business_Ben arrives! :) (@ Honolulu International Airport (HNL) w/ 6 others) http://t.co/mJMOZq3I
Mon, 21 Nov 2011 08:10:31 +0000</description><styleUrl>#hideLabel</styleUrl>
<Point><coordinates>-157.920000,21.331200,0</coordinates></Point></Placemark>
<Placemark><name>fukawo</name><description>I'm at Honolulu International Airport (HNL) (300 Rodgers Blvd, off H1, Honolulu) w/ 8 others [pic]: http://t.co/qLgUP13v
Mon, 21 Nov 2011 17:06:20 +0000</description><styleUrl>#hideLabel</styleUrl>
<Point><coordinates>-157.926667,21.315833,0</coordinates></Point></Placemark>
<Placemark><name>drew_kendall</name><description>I'm at Honolulu International Airport (HNL) (300 Rodgers Blvd, off H1, Honolulu) w/ 9 others http://t.co/aP1bG9aG
Mon, 21 Nov 2011 18:15:54 +0000</description><styleUrl>#hideLabel</styleUrl>
<Point><coordinates>-157.926667,21.315833,0</coordinates></Point></Placemark>
<Placemark><name>finem_lauda</name><description>I'm at Honolulu International Airport (HNL) (300 Rodgers Blvd, off H1, Honolulu) w/ 10 others http://t.co/fVaEIuD5
Mon, 21 Nov 2011 18:16:46 +0000</description><styleUrl>#hideLabel</styleUrl>
<Point><coordinates>-157.926667,21.315833,0</coordinates></Point></Placemark>
<Placemark><name>DeborahValledor</name><description>Luggage to the max (@ Honolulu International Airport Gate 10) [pic]: http://t.co/OHbZWg8h
Mon, 21 Nov 2011 20:32:19 +0000</description><styleUrl>#hideLabel</styleUrl>
<Point><coordinates>-157.915600,21.328800,0</coordinates></Point></Placemark>
<Placemark><name>DeborahValledor</name><description>I just ousted GQ J. as the mayor of Honolulu International Airport Gate 10 on @foursquare! http://t.co/DPNxsVOB
Mon, 21 Nov 2011 20:32:16 +0000</description><styleUrl>#hideLabel</styleUrl>
<Point><coordinates>-157.915300,21.328800,0</coordinates></Point></Placemark>
<Placemark><name>DeborahValledor</name><description>All bags checked...49.6 pounds my heaviest!  Yee haa!! (@ Honolulu International Airport Gate 10) [pic]: http://t.co/gPTWiykg
Mon, 21 Nov 2011 20:44:31 +0000</description><styleUrl>#hideLabel</styleUrl>
<Point><coordinates>-157.915600,21.328800,0</coordinates></Point></Placemark>
<Placemark><name>DeborahValledor</name><description>Quick shot of espresso (@ Starbucks (HNL) Lobby 6) [pic]: http://t.co/BrldNCX5
Mon, 21 Nov 2011 20:56:36 +0000</description><styleUrl>#hideLabel</styleUrl>
<Point><coordinates>-157.919600,21.332500,0</coordinates></Point></Placemark>
<Placemark><name>blackmarkt</name><description>I'm at Honolulu International Airport (HNL) (300 Rodgers Blvd, off H1, Honolulu) w/ 11 others http://t.co/OtTKSpSg
Mon, 21 Nov 2011 22:32:02 +0000</description><styleUrl>#hideLabel</styleUrl>
<Point><coordinates>-157.926667,21.315833,0</coordinates></Point></Placemark>
<Placemark><name>DeborahValledor</name><description>Boarding...:-((. We will be back (@ Gate 18) [pic]: http://t.co/SGg3DsnH
Mon, 21 Nov 2011 22:58:25 +0000</description><styleUrl>#hideLabel</styleUrl>
<Point><coordinates>-157.920300,21.329200,0</coordinates></Point></Placemark>
<Placemark><name>austenito</name><description>@sleeptwodream ready for stuffing?
Mon, 21 Nov 2011 23:03:19 +0000</description><styleUrl>#hideLabel</styleUrl>
<Point><coordinates>-157.911100,21.320600,0</coordinates></Point></Placemark>
<Placemark><name>windmiller</name><description>Yeah, that pepper spray thing hasn't worked so well at keeping the crowds at bay at Davis, eh??  http://t.co/Ag7kUiuZ
Tue, 22 Nov 2011 00:19:55 +0000</description><styleUrl>#hideLabel</styleUrl>
<Point><coordinates>-157.921800,21.332300,0</coordinates></Point></Placemark>
<Placemark><name>TravelingAggies</name><description>One more leg to go! Yeah Hawaii!! (@ Honolulu International Airport (HNL) w/ 13 others) http://t.co/qn2FNuUe
Tue, 22 Nov 2011 01:30:25 +0000</description><styleUrl>#hideLabel</styleUrl>
<Point><coordinates>-157.920000,21.331200,0</coordinates></Point></Placemark>
<Placemark><name>verticalgeo</name><description>At the Honolulu Airport waiting for the bus to the hotel (@ Honolulu International Airport (HNL) w/ 12 others) http://t.co/S5GDigNa
Tue, 22 Nov 2011 02:52:19 +0000</description><styleUrl>#hideLabel</styleUrl>
<Point><coordinates>-157.920000,21.331200,0</coordinates></Point></Placemark>
<Placemark><name>loraleigharvey</name><description>Going home to thee hubster @haolegabe :) (@ Honolulu International Airport-Interisland Terminal) http://t.co/yLaGyN1V
Tue, 22 Nov 2011 03:02:23 +0000</description><styleUrl>#hideLabel</styleUrl>
<Point><coordinates>-157.924300,21.333400,0</coordinates></Point></Placemark>
<Placemark><name>CHOSHH</name><description>@MAR_LEH_NAH lol I saw that coming..ia fa skinty girl!
Tue, 22 Nov 2011 04:11:38 +0000</description><styleUrl>#hideLabel</styleUrl>
<Point><coordinates>-157.924100,21.329200,0</coordinates></Point></Placemark>
<Placemark><name>CHOSHH</name><description>@MAR_LEH_NAH I sho am..26 is about to push back
Tue, 22 Nov 2011 04:15:42 +0000</description><styleUrl>#hideLabel</styleUrl>
<Point><coordinates>-157.924100,21.329200,0</coordinates></Point></Placemark>
<Placemark><name>theniggajerm</name><description>@timhatestwitt3r wish you could be here mang!
Tue, 22 Nov 2011 06:48:35 +0000</description><styleUrl>#hideLabel</styleUrl>
<Point><coordinates>-157.920300,21.332700,0</coordinates></Point></Placemark>
<Placemark><name>sarahkalia</name><description>I'm at Honolulu International Airport (HNL) (300 Rodgers Blvd, off H1, Honolulu) w/ 8 others http://t.co/SPTLKWDH
Tue, 22 Nov 2011 06:51:09 +0000</description><styleUrl>#hideLabel</styleUrl>
<Point><coordinates>-157.926667,21.315833,0</coordinates></Point></Placemark>
<Placemark><name>ultrahealer</name><description>Aloha Hawaii. Mahalo nui for the good times. (@ Honolulu International Airport (HNL) w/ 7 others) http://t.co/Oh0Itkx2
Tue, 22 Nov 2011 06:50:33 +0000</description><styleUrl>#hideLabel</styleUrl>
<Point><coordinates>-157.920000,21.331200,0</coordinates></Point></Placemark>
<Placemark><name>dunnscout</name><description>&quot;stank pussy smelling like cool ranch Doritos&quot;
Tue, 22 Nov 2011 07:12:35 +0000</description><styleUrl>#hideLabel</styleUrl>
<Point><coordinates>-157.920600,21.330400,0</coordinates></Point></Placemark>
<Placemark><name>dunnscout</name><description>Digging this new Lateef the Truthspeaker album.  #quannum
Tue, 22 Nov 2011 07:25:48 +0000</description><styleUrl>#hideLabel</styleUrl>
<Point><coordinates>-157.920400,21.330500,0</coordinates></Point></Placemark>
<Placemark><name>ultrahealer</name><description>Uh, that's duct tape, and, um, is that a hole in the plane? We might be on the news tomorrow when we fall out of th... http://t.co/pueCHY7a
Tue, 22 Nov 2011 08:28:55 +0000</description><styleUrl>#hideLabel</styleUrl>
<Point><coordinates>-157.919900,21.332000,0</coordinates></Point></Placemark>
<Placemark><name>jeremy14c</name><description>Back to LA I go! (@ Honolulu International Airport (HNL) w/ 7 others) http://t.co/1W5sBsrK
Tue, 22 Nov 2011 16:55:40 +0000</description><styleUrl>#hideLabel</styleUrl>
<Point><coordinates>-157.920000,21.331200,0</coordinates></Point></Placemark>
<Placemark><name>nzii</name><description>I'm at Honolulu International Airport (HNL) (300 Rodgers Blvd, off H1, Honolulu) w/ 10 others http://t.co/Vj9LRK3j
Tue, 22 Nov 2011 18:59:19 +0000</description><styleUrl>#hideLabel</styleUrl>
<Point><coordinates>-157.926667,21.315833,0</coordinates></Point></Placemark>
<Placemark><name>katieminkus</name><description>I'm at Honolulu International Airport (HNL) (300 Rodgers Blvd, off H1, Honolulu) w/ 14 others http://t.co/jlhtYA92
Wed, 23 Nov 2011 00:17:21 +0000</description><styleUrl>#hideLabel</styleUrl>
<Point><coordinates>-157.926667,21.315833,0</coordinates></Point></Placemark>
<Placemark><name>katieminkus</name><description>My HNL office.... #happyBIC @hawaiilife (@ Stinger Ray's w/ 2 others) http://t.co/P4HEGs9g
Wed, 23 Nov 2011 01:29:17 +0000</description><styleUrl>#hideLabel</styleUrl>
<Point><coordinates>-157.924500,21.333500,0</coordinates></Point></Placemark>
<Placemark><name>JuanCraveri</name><description>I'm at Honolulu International Airport (HNL) (300 Rodgers Blvd, off H1, Honolulu) w/ 10 others http://t.co/093M0ltj
Wed, 23 Nov 2011 01:39:57 +0000</description><styleUrl>#hideLabel</styleUrl>
<Point><coordinates>-157.926667,21.315833,0</coordinates></Point></Placemark>
<Placemark><name>tommy_nezy</name><description>I'm at Honolulu International Airport (HNL) (300 Rodgers Blvd, off H1, Honolulu) w/ 11 others http://t.co/XJmotz0r
Wed, 23 Nov 2011 02:03:58 +0000</description><styleUrl>#hideLabel</styleUrl>
<Point><coordinates>-157.926667,21.315833,0</coordinates></Point></Placemark>
<Placemark><name>jrogol</name><description>I'm at Honolulu International Airport (HNL) (300 Rodgers Blvd, off H1, Honolulu) w/ 8 others http://t.co/MCTXXb0Z
Wed, 23 Nov 2011 02:48:20 +0000</description><styleUrl>#hideLabel</styleUrl>
<Point><coordinates>-157.926667,21.315833,0</coordinates></Point></Placemark>
<Placemark><name>shwaiutah</name><description>@Harmonwrites Only Mountain View, CA but would if I was deployed to Afghanistan. (being in the Army and all)
Wed, 23 Nov 2011 04:00:34 +0000</description><styleUrl>#hideLabel</styleUrl>
<Point><coordinates>-157.914200,21.327200,0</coordinates></Point></Placemark>
<Placemark><name>NicholasJ1G</name><description>@Honolulu airport waiting to fly back to Kono.
Wed, 23 Nov 2011 04:22:15 +0000</description><styleUrl>#hideLabel</styleUrl>
<Point><coordinates>-157.924400,21.332900,0</coordinates></Point></Placemark>
<Placemark><name>_LibrasLoveMe</name><description>I don't know what time it is in Maryland, but happy 1 year anniversary to Mychell and Trevor! @chellyjae hope you have many more :)
Wed, 23 Nov 2011 05:05:42 +0000</description><styleUrl>#hideLabel</styleUrl>
<Point><coordinates>-157.921700,21.330700,0</coordinates></Point></Placemark>
<Placemark><name>_LibrasLoveMe</name><description>Its humid as shit over here!
Wed, 23 Nov 2011 05:09:23 +0000</description><styleUrl>#hideLabel</styleUrl>
<Point><coordinates>-157.921700,21.330700,0</coordinates></Point></Placemark>
<Placemark><name>_LibrasLoveMe</name><description>My outside view :)
Wed, 23 Nov 2011 05:12:29 +0000</description><styleUrl>#hideLabel</styleUrl>
<Point><coordinates>-157.920200,21.330400,0</coordinates></Point></Placemark>
<Placemark><name>Darlene126</name><description>I'm at Honolulu International Airport (HNL) (300 Rodgers Blvd, off H1, Honolulu) w/ 10 others http://t.co/IdaHCcfG
Wed, 23 Nov 2011 05:24:39 +0000</description><styleUrl>#hideLabel</styleUrl>
<Point><coordinates>-157.926667,21.315833,0</coordinates></Point></Placemark>
<Placemark><name>Lesliergoo</name><description>I'm at Honolulu International Airport (HNL) (300 Rodgers Blvd, off H1, Honolulu) w/ 9 others http://t.co/rZzKBlQV
Wed, 23 Nov 2011 05:39:06 +0000</description><styleUrl>#hideLabel</styleUrl>
<Point><coordinates>-157.926667,21.315833,0</coordinates></Point></Placemark>
<Placemark><name>Lauraog</name><description>Lei stand   @ Honolulu International Airport (HNL) http://t.co/n062SL0W
Wed, 23 Nov 2011 05:56:13 +0000</description><styleUrl>#hideLabel</styleUrl>
<Point><coordinates>-157.920000,21.331200,0</coordinates></Point></Placemark>
<Placemark><name>Brennanloghry</name><description>Waitin to get on this plane back to the mainland..
Wed, 23 Nov 2011 07:51:40 +0000</description><styleUrl>#hideLabel</styleUrl>
<Point><coordinates>-157.920200,21.330000,0</coordinates></Point></Placemark>
<Placemark><name>gravyontherice</name><description>I'm at Honolulu International Airport (HNL) (300 Rodgers Blvd, off H1, Honolulu) w/ 13 others http://t.co/Xjw2m6lB
Wed, 23 Nov 2011 08:28:09 +0000</description><styleUrl>#hideLabel</styleUrl>
<Point><coordinates>-157.926667,21.315833,0</coordinates></Point></Placemark>
<Placemark><name>lauralove808</name><description>K'den -I go. (@ Honolulu International Airport Commuter Terminal) http://t.co/de6UWq6k
Wed, 23 Nov 2011 08:27:13 +0000</description><styleUrl>#hideLabel</styleUrl>
<Point><coordinates>-157.923700,21.332600,0</coordinates></Point></Placemark>
<Placemark><name>BoPrat</name><description>I'm at Honolulu International Airport (HNL) (300 Rodgers Blvd, off H1, Honolulu) w/ 12 others http://t.co/BM2SqMOi
Wed, 23 Nov 2011 08:52:08 +0000</description><styleUrl>#hideLabel</styleUrl>
<Point><coordinates>-157.926667,21.315833,0</coordinates></Point></Placemark>
<Placemark><name>RickNakama</name><description>I'm at Honolulu International Airport (HNL) (300 Rodgers Blvd, off H1, Honolulu) w/ 3 others http://t.co/QKAMk1xz
Wed, 23 Nov 2011 16:19:41 +0000</description><styleUrl>#hideLabel</styleUrl>
<Point><coordinates>-157.926667,21.315833,0</coordinates></Point></Placemark>
<Placemark><name>geraldinelrx</name><description>Mahalo Hawaii for the amazing times. Sad to leave but pumped for Melbourne! Off we go. http://t.co/q9aQ5GtA
Wed, 23 Nov 2011 16:41:14 +0000</description><styleUrl>#hideLabel</styleUrl>
<Point><coordinates>-157.920000,21.331200,0</coordinates></Point></Placemark>
<Placemark><name>Blake79</name><description>I'm at Honolulu International Airport (HNL) (300 Rodgers Blvd, off H1, Honolulu) w/ 7 others http://t.co/MxCMSFjt
Wed, 23 Nov 2011 17:37:59 +0000</description><styleUrl>#hideLabel</styleUrl>
<Point><coordinates>-157.926667,21.315833,0</coordinates></Point></Placemark>
<Placemark><name>tirayurindray</name><description>I'm at Honolulu International Airport (HNL) (300 Rodgers Blvd, off H1, Honolulu) w/ 7 others http://t.co/cAh0i6mc
Wed, 23 Nov 2011 19:01:27 +0000</description><styleUrl>#hideLabel</styleUrl>
<Point><coordinates>-157.926667,21.315833,0</coordinates></Point></Placemark>
<Placemark><name>lifeinparadise</name><description>Just landed.. (@ Honolulu International Airport (HNL) w/ 8 others) http://t.co/WVliLJj6
Wed, 23 Nov 2011 19:31:35 +0000</description><styleUrl>#hideLabel</styleUrl>
<Point><coordinates>-157.920000,21.331200,0</coordinates></Point></Placemark>
<Placemark><name>korokoroad</name><description>I'm at Honolulu International Airport (HNL) (300 Rodgers Blvd, off H1, Honolulu) w/ 8 others http://t.co/EMHi1YOJ
Wed, 23 Nov 2011 20:56:45 +0000</description><styleUrl>#hideLabel</styleUrl>
<Point><coordinates>-157.926667,21.315833,0</coordinates></Point></Placemark>
<Placemark><name>ritchie808</name><description>I'm at Honolulu International Airport (HNL) (300 Rodgers Blvd, off H1, Honolulu) w/ 10 others http://t.co/KSIFUSke
Wed, 23 Nov 2011 21:16:47 +0000</description><styleUrl>#hideLabel</styleUrl>
<Point><coordinates>-157.926667,21.315833,0</coordinates></Point></Placemark>
<Placemark><name>jbsoileau</name><description>I'm at Honolulu International Airport (HNL) (300 Rodgers Blvd, off H1, Honolulu) w/ 11 others http://t.co/OHAp3qjj
Wed, 23 Nov 2011 22:12:11 +0000</description><styleUrl>#hideLabel</styleUrl>
<Point><coordinates>-157.926667,21.315833,0</coordinates></Point></Placemark>
<Placemark><name>JojoSFO</name><description>I'm at Honolulu International Airport (HNL) (300 Rodgers Blvd, off H1, Honolulu) w/ 12 others http://t.co/rscWZtZa
Wed, 23 Nov 2011 22:14:24 +0000</description><styleUrl>#hideLabel</styleUrl>
<Point><coordinates>-157.926667,21.315833,0</coordinates></Point></Placemark>
<Placemark><name>devsathe</name><description>Aloha Hawaii!!! Excited!! (@ Honolulu International Airport (HNL) w/ 13 others) http://t.co/UqaDSddg
Wed, 23 Nov 2011 22:17:15 +0000</description><styleUrl>#hideLabel</styleUrl>
<Point><coordinates>-157.920000,21.331200,0</coordinates></Point></Placemark>
<Placemark><name>SMSPTC</name><description>I'm at Honolulu International Airport (HNL) (300 Rodgers Blvd, off H1, Honolulu) w/ 15 others http://t.co/unTFNbTy
Wed, 23 Nov 2011 22:20:49 +0000</description><styleUrl>#hideLabel</styleUrl>
<Point><coordinates>-157.926667,21.315833,0</coordinates></Point></Placemark>
<Placemark><name>kemorimo</name><description>Came here to attend a wedding party. Paradise! (@ Honolulu International Airport (HNL) w/ 21 others) http://t.co/bUUPzRXC
Wed, 23 Nov 2011 22:49:31 +0000</description><styleUrl>#hideLabel</styleUrl>
<Point><coordinates>-157.920000,21.331200,0</coordinates></Point></Placemark>
<Placemark><name>CoombsvilleGirl</name><description>I'm at Honolulu International Airport (HNL) (300 Rodgers Blvd, off H1, Honolulu) w/ 20 others http://t.co/4FgLMHWP
Wed, 23 Nov 2011 22:49:10 +0000</description><styleUrl>#hideLabel</styleUrl>
<Point><coordinates>-157.926667,21.315833,0</coordinates></Point></Placemark>
<Placemark><name>kenji_25</name><description>I'm at Honolulu International Airport (HNL) (300 Rodgers Blvd, off H1, Honolulu) w/ 23 others http://t.co/yXZWUVU7
Wed, 23 Nov 2011 22:50:33 +0000</description><styleUrl>#hideLabel</styleUrl>
<Point><coordinates>-157.926667,21.315833,0</coordinates></Point></Placemark>
<Placemark><name>rsflady</name><description>Time to hit the spa! (@ Honolulu International Airport-Interisland Terminal w/ 2 others) http://t.co/d4ZY24rH
Wed, 23 Nov 2011 23:06:18 +0000</description><styleUrl>#hideLabel</styleUrl>
<Point><coordinates>-157.924300,21.333400,0</coordinates></Point></Placemark>
<Placemark><name>rsflady</name><description>Aha! Vacation time! (@ Honolulu International Airport (HNL) w/ 24 others) http://t.co/Fizn7U0E
Wed, 23 Nov 2011 23:07:42 +0000</description><styleUrl>#hideLabel</styleUrl>
<Point><coordinates>-157.920000,21.331200,0</coordinates></Point></Placemark>
<Placemark><name>bobthedj</name><description>I'm at Honolulu International Airport (HNL) (300 Rodgers Blvd, off H1, Honolulu) w/ 24 others http://t.co/sHTTsXuX
Wed, 23 Nov 2011 23:09:33 +0000</description><styleUrl>#hideLabel</styleUrl>
<Point><coordinates>-157.926667,21.315833,0</coordinates></Point></Placemark>
<Placemark><name>rsflady</name><description>Wow it's warm #Hawaii oh yea
Wed, 23 Nov 2011 23:10:57 +0000</description><styleUrl>#hideLabel</styleUrl>
<Point><coordinates>-157.920300,21.329800,0</coordinates></Point></Placemark>
<Placemark><name>Adepalma03</name><description>@Tamara2good he's getting Starbucks then coming to get u!
Wed, 23 Nov 2011 23:24:04 +0000</description><styleUrl>#hideLabel</styleUrl>
<Point><coordinates>-157.917600,21.331300,0</coordinates></Point></Placemark>
<Placemark><name>bs</name><description>Goodbye Bennyville. I'll miss you. (@ Honolulu International Airport-Interisland Terminal w/ 2 others) http://t.co/3UQWEeI0
Wed, 23 Nov 2011 23:28:18 +0000</description><styleUrl>#hideLabel</styleUrl>
<Point><coordinates>-157.924300,21.333400,0</coordinates></Point></Placemark>
<Placemark><name>arlandmac</name><description>Flight is delayed.  Get to spend a couple more hours in the land of aloha
Wed, 23 Nov 2011 23:35:32 +0000</description><styleUrl>#hideLabel</styleUrl>
<Point><coordinates>-157.933600,21.330000,0</coordinates></Point></Placemark>
<Placemark><name>arlandmac</name><description>@iahthlete thanks pare!
Wed, 23 Nov 2011 23:42:16 +0000</description><styleUrl>#hideLabel</styleUrl>
<Point><coordinates>-157.933600,21.330000,0</coordinates></Point></Placemark>
<Placemark><name>arlandmac</name><description>@Speedyfc thanks pare!  U racing 226?
Wed, 23 Nov 2011 23:41:43 +0000</description><styleUrl>#hideLabel</styleUrl>
<Point><coordinates>-157.933600,21.330000,0</coordinates></Point></Placemark>
<Placemark><name>XtheruinerX</name><description>http://t.co/ZzPdo71E #sofuckinggood #NWHC
Wed, 23 Nov 2011 23:44:54 +0000</description><styleUrl>#hideLabel</styleUrl>
<Point><coordinates>-157.924500,21.332900,0</coordinates></Point></Placemark>
<Placemark><name>arlandmac</name><description>@Speedyfc thanks pare but I faded toward the end need to work on my swim also.  Cold water is tough!
Wed, 23 Nov 2011 23:48:37 +0000</description><styleUrl>#hideLabel</styleUrl>
<Point><coordinates>-157.933600,21.330000,0</coordinates></Point></Placemark>
<Placemark><name>arlandmac</name><description>@BondJake thanks mate will be In touch re our Tri team
Wed, 23 Nov 2011 23:50:01 +0000</description><styleUrl>#hideLabel</styleUrl>
<Point><coordinates>-157.933600,21.330000,0</coordinates></Point></Placemark>
<Placemark><name>arlandmac</name><description>@anikarina I shall return!  Good luck on your labour!
Wed, 23 Nov 2011 23:49:13 +0000</description><styleUrl>#hideLabel</styleUrl>
<Point><coordinates>-157.933600,21.330000,0</coordinates></Point></Placemark>
<Placemark><name>arlandmac</name><description>@AthleteOctane thanks guys!  And thanks for hosting me in AZ!
Wed, 23 Nov 2011 23:51:39 +0000</description><styleUrl>#hideLabel</styleUrl>
<Point><coordinates>-157.933600,21.330000,0</coordinates></Point></Placemark>
<Placemark><name>XtheruinerX</name><description>I think @modernxmike would have loved the video selection made available on the plane.
Wed, 23 Nov 2011 23:54:40 +0000</description><styleUrl>#hideLabel</styleUrl>
<Point><coordinates>-157.924500,21.332700,0</coordinates></Point></Placemark>
<Placemark><name>Adepalma03</name><description>Wheels up! #5hours
Wed, 23 Nov 2011 23:56:54 +0000</description><styleUrl>#hideLabel</styleUrl>
<Point><coordinates>-157.914300,21.325800,0</coordinates></Point></Placemark>
<Placemark><name>vinceamatuzzi</name><description>HAWAII! (@ Honolulu International Airport (HNL) w/ @aislinnvictoria) http://t.co/YkY7G2EQ
Thu, 24 Nov 2011 00:37:30 +0000</description><styleUrl>#hideLabel</styleUrl>
<Point><coordinates>-157.920000,21.331200,0</coordinates></Point></Placemark>
<Placemark><name>SteffysGirl</name><description>So much to do and so much to take in. Good thing we have 5 awesome days #JustCallMeKunu
Thu, 24 Nov 2011 01:05:05 +0000</description><styleUrl>#hideLabel</styleUrl>
<Point><coordinates>-157.914100,21.325900,0</coordinates></Point></Placemark>
<Placemark><name>katsuandcurry</name><description>Homeward bound! Hilo here I come! (@ Honolulu International Airport-Interisland Terminal w/ 3 others) http://t.co/etzBnbJ1
Thu, 24 Nov 2011 02:06:53 +0000</description><styleUrl>#hideLabel</styleUrl>
<Point><coordinates>-157.924300,21.333400,0</coordinates></Point></Placemark>
<Placemark><name>CHOSHH</name><description>@MissezJonez my big bruh..text from ur new fika..I deleted it on accident
Thu, 24 Nov 2011 02:14:38 +0000</description><styleUrl>#hideLabel</styleUrl>
<Point><coordinates>-157.924500,21.332800,0</coordinates></Point></Placemark>
<Placemark><name>CHOSHH</name><description>Wow she came to work look'n like she just got #mobbed with the ugly stick
Thu, 24 Nov 2011 02:18:21 +0000</description><styleUrl>#hideLabel</styleUrl>
<Point><coordinates>-157.924500,21.332800,0</coordinates></Point></Placemark>
<Placemark><name>eaners</name><description>I'm at Honolulu International Airport (HNL) (300 Rodgers Blvd, off H1, Honolulu) w/ 15 others http://t.co/yzQ6foLd
Thu, 24 Nov 2011 03:35:58 +0000</description><styleUrl>#hideLabel</styleUrl>
<Point><coordinates>-157.926667,21.315833,0</coordinates></Point></Placemark>
<Placemark><name>maragaav</name><description>ALOHA!!!! :) (@ Honolulu International Airport (HNL) w/ 15 others) http://t.co/1qgcMWTu
Thu, 24 Nov 2011 04:04:06 +0000</description><styleUrl>#hideLabel</styleUrl>
<Point><coordinates>-157.920000,21.331200,0</coordinates></Point></Placemark>
<Placemark><name>MatthewDW</name><description>I'm at Honolulu International Airport (HNL) (300 Rodgers Blvd, off H1, Honolulu) w/ 15 others http://t.co/if2ZX72N
Thu, 24 Nov 2011 05:13:55 +0000</description><styleUrl>#hideLabel</styleUrl>
<Point><coordinates>-157.926667,21.315833,0</coordinates></Point></Placemark>
<Placemark><name>LanPac05</name><description>I'm at Honolulu International Airport (HNL) (300 Rodgers Blvd, off H1, Honolulu) w/ 14 others http://t.co/J8yqLF3z
Thu, 24 Nov 2011 06:32:36 +0000</description><styleUrl>#hideLabel</styleUrl>
<Point><coordinates>-157.926667,21.315833,0</coordinates></Point></Placemark>
<Placemark><name>chrisstraley</name><description>Aloha Thanksgiving. Can't wait to get on this red eye and back to Cali!  @ Honolulu International Airport (HNL) http://t.co/UXFv6PLP
Thu, 24 Nov 2011 08:17:23 +0000</description><styleUrl>#hideLabel</styleUrl>
<Point><coordinates>-157.920000,21.331200,0</coordinates></Point></Placemark>
<Placemark><name>chrisstraley</name><description>Ghost town.  @ Honolulu International Airport (HNL) http://t.co/kQdaR6dY
Thu, 24 Nov 2011 08:20:30 +0000</description><styleUrl>#hideLabel</styleUrl>
<Point><coordinates>-157.920000,21.331200,0</coordinates></Point></Placemark>
<Placemark><name>brianhancock</name><description>Leaving on a jet plane  @ Honolulu International Airport (HNL) http://t.co/sx9R3loJ
Thu, 24 Nov 2011 08:23:56 +0000</description><styleUrl>#hideLabel</styleUrl>
<Point><coordinates>-157.920000,21.331200,0</coordinates></Point></Placemark>
<Placemark><name>chrisstraley</name><description>My ride home over the pacific tonight.  @ Honolulu International Airport (HNL) http://t.co/dyOrssC9
Thu, 24 Nov 2011 08:29:26 +0000</description><styleUrl>#hideLabel</styleUrl>
<Point><coordinates>-157.920000,21.331200,0</coordinates></Point></Placemark>
<Placemark><name>chrisstraley</name><description>Flying first class into LA from Hawaii.  So lucky.  Thanks @Americanair for the bump up!  Yew!  @ Gate 18 http://t.co/zmS4B82i
Thu, 24 Nov 2011 08:33:04 +0000</description><styleUrl>#hideLabel</styleUrl>
<Point><coordinates>-157.920300,21.329200,0</coordinates></Point></Placemark>
<Placemark><name>snflwr493</name><description>I'm at Honolulu International Airport (HNL) (300 Rodgers Blvd, off H1, Honolulu) w/ 15 others http://t.co/9bOyo191
Thu, 24 Nov 2011 09:01:23 +0000</description><styleUrl>#hideLabel</styleUrl>
<Point><coordinates>-157.926667,21.315833,0</coordinates></Point></Placemark>
<Placemark><name>chrisstraley</name><description>Safe travels today on the busiest travel day of the year!  @ Honolulu International Airport (HNL) http://t.co/t1ZHT5hL
Thu, 24 Nov 2011 17:02:39 +0000</description><styleUrl>#hideLabel</styleUrl>
<Point><coordinates>-157.920000,21.331200,0</coordinates></Point></Placemark>
<Placemark><name>mcurtis808</name><description>Happy Thanksgiving!  #LuckyWeLiveHawaii #Thankful (@ I'm On A Plane) http://t.co/hAqKl4lC
Thu, 24 Nov 2011 17:23:34 +0000</description><styleUrl>#hideLabel</styleUrl>
<Point><coordinates>-157.921300,21.331500,0</coordinates></Point></Placemark>
<Placemark><name>yuzootani</name><description>I'm at Honolulu International Airport (HNL) (300 Rodgers Blvd, off H1, Honolulu) w/ 4 others http://t.co/7UoF8hyy
Thu, 24 Nov 2011 17:40:30 +0000</description><styleUrl>#hideLabel</styleUrl>
<Point><coordinates>-157.926667,21.315833,0</coordinates></Point></Placemark>
<Placemark><name>Cronik808</name><description>Happy thanksgiving to all my followers on Twitter &amp; Facebook!!! Have a good one, Aloha's
Thu, 24 Nov 2011 20:55:01 +0000</description><styleUrl>#hideLabel</styleUrl>
<Point><coordinates>-157.912700,21.320500,0</coordinates></Point></Placemark>
<Placemark><name>Cronik808</name><description>@LaceyJones VERY NICE PIC, have a safe &amp; happy thanksgiving, Aloha's
Thu, 24 Nov 2011 20:57:22 +0000</description><styleUrl>#hideLabel</styleUrl>
<Point><coordinates>-157.912700,21.320600,0</coordinates></Point></Placemark>
<Placemark><name>Cronik808</name><description>@tonileetv same to you, have a good one. Love &amp; Aloha's
Thu, 24 Nov 2011 20:58:43 +0000</description><styleUrl>#hideLabel</styleUrl>
<Point><coordinates>-157.912700,21.320600,0</coordinates></Point></Placemark>
<Placemark><name>Cronik808</name><description>@Jennicide you too, Aloha's
Thu, 24 Nov 2011 21:02:56 +0000</description><styleUrl>#hideLabel</styleUrl>
<Point><coordinates>-157.912700,21.320500,0</coordinates></Point></Placemark>
<Placemark><name>Cronik808</name><description>@AnnieDuke Happy thanksgiving to you too Annie, Aloha's
Thu, 24 Nov 2011 21:05:54 +0000</description><styleUrl>#hideLabel</styleUrl>
<Point><coordinates>-157.912700,21.320600,0</coordinates></Point></Placemark>
<Placemark><name>Cronik808</name><description>@EvaLongoria tnx, happy thanksgiving to you too Eva
Thu, 24 Nov 2011 21:05:14 +0000</description><styleUrl>#hideLabel</styleUrl>
<Point><coordinates>-157.912700,21.320500,0</coordinates></Point></Placemark>
<Placemark><name>Cronik808</name><description>@VanessaRousso Happy Thanksgiving from Hawaii
Thu, 24 Nov 2011 21:04:31 +0000</description><styleUrl>#hideLabel</styleUrl>
<Point><coordinates>-157.912700,21.320600,0</coordinates></Point></Placemark>
<Placemark><name>ceso_fd</name><description>I'm at Honolulu International Airport (HNL) (300 Rodgers Blvd, off H1, Honolulu) w/ 12 others http://t.co/xYL5xQJb
Thu, 24 Nov 2011 22:13:39 +0000</description><styleUrl>#hideLabel</styleUrl>
<Point><coordinates>-157.926667,21.315833,0</coordinates></Point></Placemark>
<Placemark><name>Bev_B</name><description>There's no place like #home... Happy Thanksgiving! I am #thankful for so many things, even you (stalkers included). http://t.co/8TgsVO9m
Thu, 24 Nov 2011 22:48:15 +0000</description><styleUrl>#hideLabel</styleUrl>
<Point><coordinates>-157.920000,21.331200,0</coordinates></Point></Placemark>
<Placemark><name>ConchaLibre</name><description>Coconut titties. (@ Honolulu International Airport (HNL) w/ 21 others) http://t.co/frsrHwYG
Thu, 24 Nov 2011 23:01:15 +0000</description><styleUrl>#hideLabel</styleUrl>
<Point><coordinates>-157.920000,21.331200,0</coordinates></Point></Placemark>
<Placemark><name>tweettrevorHOU</name><description>Time to get lei-ed :-) (@ Honolulu International Airport (HNL) w/ 23 others) http://t.co/2yoBsCoN
Fri, 25 Nov 2011 00:11:33 +0000</description><styleUrl>#hideLabel</styleUrl>
<Point><coordinates>-157.920000,21.331200,0</coordinates></Point></Placemark>
<Placemark><name>blerinbleeney</name><description>Huzzah!! (@ Honolulu International Airport (HNL) w/ 16 others) http://t.co/F8MFRjNP
Fri, 25 Nov 2011 01:40:04 +0000</description><styleUrl>#hideLabel</styleUrl>
<Point><coordinates>-157.920000,21.331200,0</coordinates></Point></Placemark>
<Placemark><name>ConchaLibre</name><description>Just posted a photo  @ Honolulu International Airport (HNL) http://t.co/Zgta5ONB
Fri, 25 Nov 2011 01:49:14 +0000</description><styleUrl>#hideLabel</styleUrl>
<Point><coordinates>-157.920000,21.331200,0</coordinates></Point></Placemark>
<Placemark><name>mackenzie_watts</name><description>I'm at Honolulu International Airport (HNL) (300 Rodgers Blvd, off H1, Honolulu) w/ 15 others http://t.co/e1FFowvC
Fri, 25 Nov 2011 02:29:55 +0000</description><styleUrl>#hideLabel</styleUrl>
<Point><coordinates>-157.926667,21.315833,0</coordinates></Point></Placemark>
<Placemark><name>augusto_photo</name><description>I'm at Honolulu International Airport (HNL) (300 Rodgers Blvd, off H1, Honolulu) w/ 13 others http://t.co/Jf7hKhmv
Fri, 25 Nov 2011 03:04:33 +0000</description><styleUrl>#hideLabel</styleUrl>
<Point><coordinates>-157.926667,21.315833,0</coordinates></Point></Placemark>
<Placemark><name>makikohelen</name><description>I'm at Honolulu International Airport (HNL) (300 Rodgers Blvd, off H1, Honolulu) w/ 13 others http://t.co/uYelD6Jc
Fri, 25 Nov 2011 03:14:26 +0000</description><styleUrl>#hideLabel</styleUrl>
<Point><coordinates>-157.926667,21.315833,0</coordinates></Point></Placemark>
<Placemark><name>hethspd</name><description>I'm at Honolulu International Airport (HNL) (300 Rodgers Blvd, off H1, Honolulu) w/ 9 others http://t.co/Wv0Nz6Ub
Fri, 25 Nov 2011 04:33:57 +0000</description><styleUrl>#hideLabel</styleUrl>
<Point><coordinates>-157.926667,21.315833,0</coordinates></Point></Placemark>
<Placemark><name>Evonne_Wong</name><description>I'm at Honolulu International Airport (HNL) (300 Rodgers Blvd, off H1, Honolulu) w/ 8 others http://t.co/b0C6Xhd8
Fri, 25 Nov 2011 05:55:24 +0000</description><styleUrl>#hideLabel</styleUrl>
<Point><coordinates>-157.926667,21.315833,0</coordinates></Point></Placemark>
<Placemark><name>BananaBoy80</name><description>I'm at Honolulu International Airport (HNL) (300 Rodgers Blvd, off H1, Honolulu) w/ 9 others http://t.co/UllbBvNO
Fri, 25 Nov 2011 06:00:33 +0000</description><styleUrl>#hideLabel</styleUrl>
<Point><coordinates>-157.926667,21.315833,0</coordinates></Point></Placemark>
<Placemark><name>thedreamingkind</name><description>He's loving this! @dragonjuggs driving the beetle.   @ Honolulu International Airport (HNL) http://t.co/PhuZMyhK
Fri, 25 Nov 2011 06:53:06 +0000</description><styleUrl>#hideLabel</styleUrl>
<Point><coordinates>-157.920000,21.331200,0</coordinates></Point></Placemark>
<Placemark><name>Kierin907</name><description>@ChristinaaJade what a role model ;)
Fri, 25 Nov 2011 07:17:29 +0000</description><styleUrl>#hideLabel</styleUrl>
<Point><coordinates>-157.920200,21.330000,0</coordinates></Point></Placemark>
<Placemark><name>heatherpolivka</name><description>Aloha! (@ Honolulu International Airport (HNL) w/ 13 others) http://t.co/kvLx9M9o
Fri, 25 Nov 2011 08:05:20 +0000</description><styleUrl>#hideLabel</styleUrl>
<Point><coordinates>-157.920000,21.331200,0</coordinates></Point></Placemark>
<Placemark><name>hiccupprincess</name><description>Back to the islands! (@ Honolulu International Airport (HNL) w/ 14 others) http://t.co/oK36gLIv
Fri, 25 Nov 2011 08:11:58 +0000</description><styleUrl>#hideLabel</styleUrl>
<Point><coordinates>-157.920000,21.331200,0</coordinates></Point></Placemark>
<Placemark><name>eirotsevol</name><description>&amp; she goes back home ...
Fri, 25 Nov 2011 08:34:32 +0000</description><styleUrl>#hideLabel</styleUrl>
<Point><coordinates>-157.914400,21.326100,0</coordinates></Point></Placemark>
<Placemark><name>Blake79</name><description>I'm at Honolulu International Airport (HNL) (300 Rodgers Blvd, off H1, Honolulu) w/ 4 others http://t.co/QbdSsuQo
Fri, 25 Nov 2011 16:46:04 +0000</description><styleUrl>#hideLabel</styleUrl>
<Point><coordinates>-157.926667,21.315833,0</coordinates></Point></Placemark>
<Placemark><name>Dramagirl</name><description>@Pattycam Aloha down there Patty!
Fri, 25 Nov 2011 18:43:04 +0000</description><styleUrl>#hideLabel</styleUrl>
<Point><coordinates>-157.922400,21.330800,0</coordinates></Point></Placemark>
<Placemark><name>Dramagirl</name><description>Black Friday sale clearly in full swing at Ala Moana. You have been warned. #alohadays
Fri, 25 Nov 2011 18:42:04 +0000</description><styleUrl>#hideLabel</styleUrl>
<Point><coordinates>-157.922400,21.330800,0</coordinates></Point></Placemark>
<Placemark><name>Dramagirl</name><description>Doing Vegemite on toast at the QANTAS club. I'm not alone. Clearly we've all been away from home too long.
Fri, 25 Nov 2011 18:58:55 +0000</description><styleUrl>#hideLabel</styleUrl>
<Point><coordinates>-157.922400,21.330800,0</coordinates></Point></Placemark>
<Placemark><name>Dramagirl</name><description>@faboomama Someone asked me yesterday about the origin of #BlackFriday in the US. Now I know. Thx. Synonym for mayhem by the look here ;-).
Fri, 25 Nov 2011 19:22:06 +0000</description><styleUrl>#hideLabel</styleUrl>
<Point><coordinates>-157.922400,21.330800,0</coordinates></Point></Placemark>
<Placemark><name>Dramagirl</name><description>@LilPecan Pass the axe please!
Fri, 25 Nov 2011 19:31:02 +0000</description><styleUrl>#hideLabel</styleUrl>
<Point><coordinates>-157.922400,21.330800,0</coordinates></Point></Placemark>
<Placemark><name>Dramagirl</name><description>Lots of playscript-reading will be done on the flight home. This is where the aye-Pad is such a little beaut.
Fri, 25 Nov 2011 19:30:27 +0000</description><styleUrl>#hideLabel</styleUrl>
<Point><coordinates>-157.922400,21.330800,0</coordinates></Point></Placemark>
<Placemark><name>Dramagirl</name><description>Boarding QF4 for SYD. Touchdown in 9 or so hours. Aloha and mahalo Honolulu. It's been ONO !
Fri, 25 Nov 2011 19:34:24 +0000</description><styleUrl>#hideLabel</styleUrl>
<Point><coordinates>-157.922400,21.330800,0</coordinates></Point></Placemark>
<Placemark><name>IlanaDora</name><description>I'm at Honolulu International Airport (HNL) (300 Rodgers Blvd, off H1, Honolulu) w/ 7 others http://t.co/jmeVsqzE
Fri, 25 Nov 2011 20:33:08 +0000</description><styleUrl>#hideLabel</styleUrl>
<Point><coordinates>-157.926667,21.315833,0</coordinates></Point></Placemark>
<Placemark><name>ukulele_yuichi</name><description>I'm at Honolulu International Airport (HNL) (300 Rodgers Blvd, off H1, Honolulu) w/ 6 others http://t.co/n5PsS176
Fri, 25 Nov 2011 20:48:39 +0000</description><styleUrl>#hideLabel</styleUrl>
<Point><coordinates>-157.926667,21.315833,0</coordinates></Point></Placemark>
<Placemark><name>neptonia</name><description>Waiter asked if I am Japanese because I'm taking pictures of food  @ Gordon Biersch Brewery Restaurant http://t.co/vPstoi69
Fri, 25 Nov 2011 22:29:22 +0000</description><styleUrl>#hideLabel</styleUrl>
<Point><coordinates>-157.923400,21.329800,0</coordinates></Point></Placemark>
<Placemark><name>neptonia</name><description>One of these things is not like the others  @ Gordon Biersch Brewery Restaurant http://t.co/V83Z6e1j
Fri, 25 Nov 2011 22:34:58 +0000</description><styleUrl>#hideLabel</styleUrl>
<Point><coordinates>-157.923400,21.329800,0</coordinates></Point></Placemark>
<Placemark><name>zkiraly</name><description>Aaaaand it's time to go home already.  :-( (@ Honolulu International Airport (HNL) w/ 17 others) http://t.co/93sF9efn
Fri, 25 Nov 2011 23:03:54 +0000</description><styleUrl>#hideLabel</styleUrl>
<Point><coordinates>-157.920000,21.331200,0</coordinates></Point></Placemark>
<Placemark><name>sellnout</name><description>FYI no #blackfriday deals at any of the airport shops.
Fri, 25 Nov 2011 23:11:14 +0000</description><styleUrl>#hideLabel</styleUrl>
<Point><coordinates>-157.920100,21.329500,0</coordinates></Point></Placemark>
<Placemark><name>neptonia</name><description>Vacation is concluding.   @ Honolulu International Airport (HNL) http://t.co/i6zakDIu
Fri, 25 Nov 2011 23:36:39 +0000</description><styleUrl>#hideLabel</styleUrl>
<Point><coordinates>-157.920000,21.331200,0</coordinates></Point></Placemark>
<Placemark><name>McRiscka</name><description>Last leg home! (@ Honolulu International Airport (HNL) w/ @jcombobox) http://t.co/N0JyGvM8
Sat, 26 Nov 2011 00:13:46 +0000</description><styleUrl>#hideLabel</styleUrl>
<Point><coordinates>-157.920000,21.331200,0</coordinates></Point></Placemark>
<Placemark><name>etsukosudo</name><description>I'm at Honolulu International Airport (HNL) (300 Rodgers Blvd, off H1, Honolulu) w/ 23 others [pic]: http://t.co/yWsOTSPy
Sat, 26 Nov 2011 00:50:53 +0000</description><styleUrl>#hideLabel</styleUrl>
<Point><coordinates>-157.926667,21.315833,0</coordinates></Point></Placemark>
<Placemark><name>edtudor</name><description>One more flight to go. (@ Honolulu International Airport (HNL) w/ 20 others) http://t.co/FRCqyG8F
Sat, 26 Nov 2011 01:41:48 +0000</description><styleUrl>#hideLabel</styleUrl>
<Point><coordinates>-157.920000,21.331200,0</coordinates></Point></Placemark>
<Placemark><name>edtudor</name><description>The airport is mostly outside.  @ Honolulu International Airport (HNL) http://t.co/N0MZ70lh
Sat, 26 Nov 2011 01:52:51 +0000</description><styleUrl>#hideLabel</styleUrl>
<Point><coordinates>-157.920000,21.331200,0</coordinates></Point></Placemark>
<Placemark><name>edtudor</name><description>More airport.  @ Honolulu International Airport (HNL) http://t.co/9l4mZKad
Sat, 26 Nov 2011 01:57:04 +0000</description><styleUrl>#hideLabel</styleUrl>
<Point><coordinates>-157.920000,21.331200,0</coordinates></Point></Placemark>
<Placemark><name>mahalohacharu</name><description>I'm at Honolulu International Airport (HNL) (300 Rodgers Blvd, off H1, Honolulu) w/ 16 others http://t.co/MDWoYps1
Sat, 26 Nov 2011 02:11:33 +0000</description><styleUrl>#hideLabel</styleUrl>
<Point><coordinates>-157.926667,21.315833,0</coordinates></Point></Placemark>
<Placemark><name>alexlaughs</name><description>Finally bought the @ThisAmerLife app. First and last time I'll spend $3 on an app. #butiminlove #soitsokay
Sat, 26 Nov 2011 02:19:58 +0000</description><styleUrl>#hideLabel</styleUrl>
<Point><coordinates>-157.921500,21.331700,0</coordinates></Point></Placemark>
<Placemark><name>alexlaughs</name><description>I have seen SO MANY ku fans this week. @laughlinjamea  @ Honolulu International Airport (HNL) http://t.co/rCTTlhU8
Sat, 26 Nov 2011 02:48:01 +0000</description><styleUrl>#hideLabel</styleUrl>
<Point><coordinates>-157.920000,21.331200,0</coordinates></Point></Placemark>
<Placemark><name>alexlaughs</name><description>@LaughlinJames oh no I mis-tagged you. Look at my last tweet.
Sat, 26 Nov 2011 02:49:17 +0000</description><styleUrl>#hideLabel</styleUrl>
<Point><coordinates>-157.920200,21.331300,0</coordinates></Point></Placemark>
<Placemark><name>alexlaughs</name><description>But really, it's just been ridiculous this weekend. Like entire families dressed in blue. #massmigration to Hawaii?
Sat, 26 Nov 2011 02:55:37 +0000</description><styleUrl>#hideLabel</styleUrl>
<Point><coordinates>-157.920100,21.331300,0</coordinates></Point></Placemark>
<Placemark><name>edtudor</name><description>The plane we came in on getting ready to head back to Atlanta.  @ Honolulu International Airport (HNL) http://t.co/ATGpZ4f5
Sat, 26 Nov 2011 03:35:47 +0000</description><styleUrl>#hideLabel</styleUrl>
<Point><coordinates>-157.920000,21.331200,0</coordinates></Point></Placemark>
<Placemark><name>edtudor</name><description>Yet more airport. Can you tell we have a long layover?  @ Honolulu International Airport (HNL) http://t.co/Hw0sThK7
Sat, 26 Nov 2011 03:47:33 +0000</description><styleUrl>#hideLabel</styleUrl>
<Point><coordinates>-157.920000,21.331200,0</coordinates></Point></Placemark>
<Placemark><name>duplexcomplex</name><description>I'm at Honolulu International Airport (HNL) (300 Rodgers Blvd, off H1, Honolulu) w/ 4 others http://t.co/pSmBVH7K
Sat, 26 Nov 2011 06:31:43 +0000</description><styleUrl>#hideLabel</styleUrl>
<Point><coordinates>-157.926667,21.315833,0</coordinates></Point></Placemark>
<Placemark><name>AlexSungmanKong</name><description>Actually kind of tired of hearing aloha. #homesick
Sat, 26 Nov 2011 06:40:35 +0000</description><styleUrl>#hideLabel</styleUrl>
<Point><coordinates>-157.922600,21.332500,0</coordinates></Point></Placemark>
<Placemark><name>bwhitener</name><description>Headed home... BOO!!! (@ Honolulu International Airport (HNL) w/ 5 others) http://t.co/CscvAt6T
Sat, 26 Nov 2011 06:49:32 +0000</description><styleUrl>#hideLabel</styleUrl>
<Point><coordinates>-157.920000,21.331200,0</coordinates></Point></Placemark>
<Placemark><name>Travel_Nicholas</name><description>48 degrees at home - going to miss this! (11/26/11) http://t.co/WLjNeZzP
Sat, 26 Nov 2011 07:09:25 +0000</description><styleUrl>#hideLabel</styleUrl>
<Point><coordinates>-157.922300,21.330200,0</coordinates></Point></Placemark>
<Placemark><name>ha767flygirl</name><description>I'm at Honolulu International Airport (HNL) (300 Rodgers Blvd, off H1, Honolulu) w/ 9 others http://t.co/uOPQpKGj
Sat, 26 Nov 2011 07:30:54 +0000</description><styleUrl>#hideLabel</styleUrl>
<Point><coordinates>-157.926667,21.315833,0</coordinates></Point></Placemark>
<Placemark><name>r3vmixman</name><description>I'm at Honolulu International Airport (HNL) (300 Rodgers Blvd, off H1, Honolulu) w/ 19 others http://t.co/gFBC0CAt
Sat, 26 Nov 2011 08:20:35 +0000</description><styleUrl>#hideLabel</styleUrl>
<Point><coordinates>-157.926667,21.315833,0</coordinates></Point></Placemark>
<Placemark><name>mikeantolin</name><description>#nowplaying *pepper*
B.O.O.T.
(blew.out.of.this.town)
Sat, 26 Nov 2011 16:30:09 +0000</description><styleUrl>#hideLabel</styleUrl>
<Point><coordinates>-157.920000,21.331200,0</coordinates></Point></Placemark>
<Placemark><name>daboogah</name><description>I'm at Honolulu International Airport (HNL) (300 Rodgers Blvd, off H1, Honolulu) w/ 4 others http://t.co/4TtJk5Jj
Sat, 26 Nov 2011 17:46:37 +0000</description><styleUrl>#hideLabel</styleUrl>
<Point><coordinates>-157.926667,21.315833,0</coordinates></Point></Placemark>
<Placemark><name>daboogah</name><description>I'm at Honolulu International Airport (HNL) (Honolulu) http://t.co/Cw2A8WRG
Sat, 26 Nov 2011 17:45:38 +0000</description><styleUrl>#hideLabel</styleUrl>
<Point><coordinates>-157.926667,21.315833,0</coordinates></Point></Placemark>
<Placemark><name>SarahActiance</name><description>Now we are volcano hunting.. #aloha (@ Honolulu International Airport (HNL) w/ 4 others) http://t.co/cfPyiNHh
Sat, 26 Nov 2011 18:08:50 +0000</description><styleUrl>#hideLabel</styleUrl>
<Point><coordinates>-157.920000,21.331200,0</coordinates></Point></Placemark>
<Placemark><name>maukaman808</name><description>Starting point for my walk this morning.  Lagoon Drive by HNL, http://t.co/eopw56BN
Sat, 26 Nov 2011 18:40:03 +0000</description><styleUrl>#hideLabel</styleUrl>
<Point><coordinates>-157.922500,21.311100,0</coordinates></Point></Placemark>
<Placemark><name>maukaman808</name><description>One last photo. Hawaiian Airlines A330 rotating off runway 8 right. http://t.co/zSUY6k64
Sat, 26 Nov 2011 19:51:44 +0000</description><styleUrl>#hideLabel</styleUrl>
<Point><coordinates>-157.922700,21.310900,0</coordinates></Point></Placemark>
<Placemark><name>malamaikaaina</name><description>Picking up the honeymooners from Korea! (@ Honolulu International Airport (HNL) w/ 4 others) http://t.co/Qu6LffOT
Sat, 26 Nov 2011 20:24:00 +0000</description><styleUrl>#hideLabel</styleUrl>
<Point><coordinates>-157.920000,21.331200,0</coordinates></Point></Placemark>
<Placemark><name>MRjBELL7o7</name><description>@aprilicus #ThanksgivingLeftovers ftw
Sat, 26 Nov 2011 23:17:15 +0000</description><styleUrl>#hideLabel</styleUrl>
<Point><coordinates>-157.924200,21.329100,0</coordinates></Point></Placemark>
<Placemark><name>MRjBELL7o7</name><description>Already can tell this little fucker is gonna be kicking my seat the next five hour. Gonna have to slap a strangers kid. #ChildAbuse #CPS lol
Sat, 26 Nov 2011 23:37:47 +0000</description><styleUrl>#hideLabel</styleUrl>
<Point><coordinates>-157.922600,21.327700,0</coordinates></Point></Placemark>
<Placemark><name>CaseCloseted</name><description>Back to the mainland, reality, and to life. Already missing my brother and sister, I hate leaving them here. Bye, #Hawaii, you're the shit.
Sat, 26 Nov 2011 23:36:37 +0000</description><styleUrl>#hideLabel</styleUrl>
<Point><coordinates>-157.922600,21.327700,0</coordinates></Point></Placemark>
<Placemark><name>CaseCloseted</name><description>#PS Thanks for the tan. Mucho apprecionado.
Sat, 26 Nov 2011 23:38:59 +0000</description><styleUrl>#hideLabel</styleUrl>
<Point><coordinates>-157.922600,21.327700,0</coordinates></Point></Placemark>
<Placemark><name>MRjBELL7o7</name><description>@aprilicus I'll just sneak up to first class lol, &quot;it's not me, my name is Mrs. Iglesias&quot; #ThisIsThe90s #CivilRights
Sat, 26 Nov 2011 23:43:41 +0000</description><styleUrl>#hideLabel</styleUrl>
<Point><coordinates>-157.922600,21.327700,0</coordinates></Point></Placemark>
<Placemark><name>LuisMataPop</name><description>5 horas 40 minutos despus... (@ Honolulu International Airport (HNL) w/ 18 others) http://t.co/nq6khTAm
Sat, 26 Nov 2011 23:58:48 +0000</description><styleUrl>#hideLabel</styleUrl>
<Point><coordinates>-157.920000,21.331200,0</coordinates></Point></Placemark>
<Placemark><name>WesShippee</name><description>I'm at Honolulu International Airport (HNL) (300 Rodgers Blvd, off H1, Honolulu) w/ 18 others http://t.co/d3RDkLuA
Sun, 27 Nov 2011 00:04:30 +0000</description><styleUrl>#hideLabel</styleUrl>
<Point><coordinates>-157.926667,21.315833,0</coordinates></Point></Placemark>
<Placemark><name>mikesteelman</name><description>For those new parents out there, here's a tip: change your baby's poopy diaper BEFORE you get on the plane. People will like you better.
Sun, 27 Nov 2011 00:08:17 +0000</description><styleUrl>#hideLabel</styleUrl>
<Point><coordinates>-157.924700,21.333600,0</coordinates></Point></Placemark>
<Placemark><name>mikesteelman</name><description>Regarding last tweet, I know it's not always an option. Specific reference to right now though as boarding begins.
Sun, 27 Nov 2011 00:11:31 +0000</description><styleUrl>#hideLabel</styleUrl>
<Point><coordinates>-157.924600,21.333200,0</coordinates></Point></Placemark>
<Placemark><name>rsflady</name><description>I'm at Honolulu International Airport (HNL) (300 Rodgers Blvd, off H1, Honolulu) w/ 17 others http://t.co/PTXWOLNY
Sun, 27 Nov 2011 01:11:22 +0000</description><styleUrl>#hideLabel</styleUrl>
<Point><coordinates>-157.926667,21.315833,0</coordinates></Point></Placemark>
<Placemark><name>D_Firestorm</name><description>I'm at Honolulu International Airport (HNL) (300 Rodgers Blvd, off H1, Honolulu) w/ 19 others http://t.co/1x52iZx2
Sun, 27 Nov 2011 01:50:38 +0000</description><styleUrl>#hideLabel</styleUrl>
<Point><coordinates>-157.926667,21.315833,0</coordinates></Point></Placemark>
<Placemark><name>kittykatmc</name><description>I'm at Honolulu International Airport (HNL) (300 Rodgers Blvd, off H1, Honolulu) w/ 23 others http://t.co/CnMgkW8U
Sun, 27 Nov 2011 03:29:16 +0000</description><styleUrl>#hideLabel</styleUrl>
<Point><coordinates>-157.926667,21.315833,0</coordinates></Point></Placemark>
<Placemark><name>verticalgeo</name><description>On the way home (@ Honolulu International Airport (HNL) w/ 21 others) http://t.co/fymZqDW2
Sun, 27 Nov 2011 03:43:45 +0000</description><styleUrl>#hideLabel</styleUrl>
<Point><coordinates>-157.920000,21.331200,0</coordinates></Point></Placemark>
<Placemark><name>alexdmosher</name><description>At HNL waiting for flight to Kona. Hopefully the weather is better. TWC says sunny and 82!
Sun, 27 Nov 2011 04:10:28 +0000</description><styleUrl>#hideLabel</styleUrl>
<Point><coordinates>-157.926400,21.333600,0</coordinates></Point></Placemark>
<Placemark><name>wangbus</name><description>I'm at Honolulu International Airport (HNL) (300 Rodgers Blvd, off H1, Honolulu) w/ 8 others http://t.co/J48TdHJA
Sun, 27 Nov 2011 07:04:10 +0000</description><styleUrl>#hideLabel</styleUrl>
<Point><coordinates>-157.926667,21.315833,0</coordinates></Point></Placemark>
<Placemark><name>toddbarnhart</name><description>I'm at Honolulu International Airport (HNL) (300 Rodgers Blvd, off H1, Honolulu) w/ 11 others http://t.co/SoYlT4j5
Sun, 27 Nov 2011 07:42:23 +0000</description><styleUrl>#hideLabel</styleUrl>
<Point><coordinates>-157.926667,21.315833,0</coordinates></Point></Placemark>
<Placemark><name>KellyMitchell</name><description>Picking up my long lost Hawaii seestah! (@ Honolulu International Airport (HNL) w/ 10 others) http://t.co/BwLyKaSM
Sun, 27 Nov 2011 07:49:39 +0000</description><styleUrl>#hideLabel</styleUrl>
<Point><coordinates>-157.920000,21.331200,0</coordinates></Point></Placemark>
<Placemark><name>scottneslund</name><description>I'm at Honolulu International Airport (HNL) (300 Rodgers Blvd, off H1, Honolulu) w/ 11 others http://t.co/IC2FU6w4
Sun, 27 Nov 2011 08:28:17 +0000</description><styleUrl>#hideLabel</styleUrl>
<Point><coordinates>-157.926667,21.315833,0</coordinates></Point></Placemark>
<Placemark><name>colin800</name><description>I'm at Honolulu International Airport (HNL) (300 Rodgers Blvd, off H1, Honolulu) w/ 12 others http://t.co/CwKxHtlr
Sun, 27 Nov 2011 08:47:43 +0000</description><styleUrl>#hideLabel</styleUrl>
<Point><coordinates>-157.926667,21.315833,0</coordinates></Point></Placemark>
<Placemark><name>SuziDafnis</name><description>I'm at Honolulu International Airport (HNL) (300 Rodgers Blvd, off H1, Honolulu) w/ 6 others http://t.co/M3PQ5TBX
Sun, 27 Nov 2011 18:38:30 +0000</description><styleUrl>#hideLabel</styleUrl>
<Point><coordinates>-157.926667,21.315833,0</coordinates></Point></Placemark>
<Placemark><name>Cossy</name><description>I'm at Honolulu International Airport (HNL) (300 Rodgers Blvd, off H1, Honolulu) w/ 8 others http://t.co/O4BG2O6R
Sun, 27 Nov 2011 19:26:18 +0000</description><styleUrl>#hideLabel</styleUrl>
<Point><coordinates>-157.926667,21.315833,0</coordinates></Point></Placemark>
<Placemark><name>AndrewArizmendi</name><description>Checking the surfboard in...
Sun, 27 Nov 2011 21:56:36 +0000</description><styleUrl>#hideLabel</styleUrl>
<Point><coordinates>-157.920100,21.329500,0</coordinates></Point></Placemark>
<Placemark><name>GypsyRaven</name><description>Aloha! (@ Honolulu International Airport (HNL) w/ 10 others) http://t.co/x4fbQTG9
Sun, 27 Nov 2011 21:55:22 +0000</description><styleUrl>#hideLabel</styleUrl>
<Point><coordinates>-157.926667,21.315833,0</coordinates></Point></Placemark>
<Placemark><name>AndrewArizmendi</name><description>@pwardz yeah it's adorable
Sun, 27 Nov 2011 22:56:14 +0000</description><styleUrl>#hideLabel</styleUrl>
<Point><coordinates>-157.922600,21.327700,0</coordinates></Point></Placemark>
<Placemark><name>ha767flygirl</name><description>I'm at Honolulu International Airport (HNL) (300 Rodgers Blvd, off H1, Honolulu) w/ 21 others http://t.co/Rk8MU1kr
Sun, 27 Nov 2011 23:18:13 +0000</description><styleUrl>#hideLabel</styleUrl>
<Point><coordinates>-157.926667,21.315833,0</coordinates></Point></Placemark>
<Placemark><name>LCEEH</name><description>I missed my flight again!!!!
Sun, 27 Nov 2011 23:42:20 +0000</description><styleUrl>#hideLabel</styleUrl>
<Point><coordinates>-157.924600,21.332200,0</coordinates></Point></Placemark>
<Placemark><name>LCEEH</name><description>Man!! I hope i get in 2 da nex flight ...
Mon, 28 Nov 2011 00:18:45 +0000</description><styleUrl>#hideLabel</styleUrl>
<Point><coordinates>-157.924600,21.332200,0</coordinates></Point></Placemark>
<Placemark><name>Cronik808</name><description>Whos gonna win this afternoons nfl game? Hmmm
Mon, 28 Nov 2011 00:33:48 +0000</description><styleUrl>#hideLabel</styleUrl>
<Point><coordinates>-157.912800,21.320900,0</coordinates></Point></Placemark>
<Placemark><name>Just_WendiJ</name><description>Aloha time!! (@ Honolulu International Airport (HNL) w/ 18 others) http://t.co/uIb6seB3
Mon, 28 Nov 2011 01:43:04 +0000</description><styleUrl>#hideLabel</styleUrl>
<Point><coordinates>-157.920000,21.331200,0</coordinates></Point></Placemark>
<Placemark><name>kenji_25</name><description>I'm at Honolulu International Airport (HNL) (300 Rodgers Blvd, off H1, Honolulu) w/ 18 others http://t.co/gJYvykhD
Mon, 28 Nov 2011 01:53:45 +0000</description><styleUrl>#hideLabel</styleUrl>
<Point><coordinates>-157.926667,21.315833,0</coordinates></Point></Placemark>
<Placemark><name>ediggy</name><description>Aloha (@ Honolulu International Airport (HNL) w/ 19 others) http://t.co/EkleWFWm
Mon, 28 Nov 2011 01:51:35 +0000</description><styleUrl>#hideLabel</styleUrl>
<Point><coordinates>-157.920000,21.331200,0</coordinates></Point></Placemark>
<Placemark><name>jamesburke54</name><description>Check in area 3. Other screening areas closed. Long lines. Nice job HNL. [pic]: http://t.co/KDyGI0BZ
Mon, 28 Nov 2011 01:58:58 +0000</description><styleUrl>#hideLabel</styleUrl>
<Point><coordinates>-157.920000,21.331200,0</coordinates></Point></Placemark>
<Placemark><name>lauralove808</name><description>I'm at Honolulu International Airport (HNL) (300 Rodgers Blvd, off H1, Honolulu) w/ 17 others http://t.co/mcIdurt7
Mon, 28 Nov 2011 02:29:35 +0000</description><styleUrl>#hideLabel</styleUrl>
<Point><coordinates>-157.926667,21.315833,0</coordinates></Point></Placemark>
<Placemark><name>jamesburke54</name><description>On dee plane to Atlanta. (@ Honolulu International Airport (HNL) w/ 18 others) [pic]: http://t.co/nztEqQml
Mon, 28 Nov 2011 03:39:41 +0000</description><styleUrl>#hideLabel</styleUrl>
<Point><coordinates>-157.920000,21.331200,0</coordinates></Point></Placemark>
<Placemark><name>Darlene126</name><description>I'm at Honolulu International Airport (HNL) (300 Rodgers Blvd, off H1, Honolulu) w/ 19 others http://t.co/iZBq6gvW
Mon, 28 Nov 2011 04:16:09 +0000</description><styleUrl>#hideLabel</styleUrl>
<Point><coordinates>-157.926667,21.315833,0</coordinates></Point></Placemark>
<Placemark><name>danibrabaw</name><description>I'm at Honolulu International Airport (HNL) (300 Rodgers Blvd, off H1, Honolulu) w/ 19 others http://t.co/SiWdZUsX
Mon, 28 Nov 2011 04:41:18 +0000</description><styleUrl>#hideLabel</styleUrl>
<Point><coordinates>-157.926667,21.315833,0</coordinates></Point></Placemark>
<Placemark><name>AlohaRE</name><description>Not liking HA the bumped me:( (@ Honolulu International Airport-Interisland Terminal) http://t.co/hFYjTrHy
Mon, 28 Nov 2011 04:51:26 +0000</description><styleUrl>#hideLabel</styleUrl>
<Point><coordinates>-157.924300,21.333400,0</coordinates></Point></Placemark>
<Placemark><name>AnnaMKidder</name><description>Picking up Zack :-) glad to have him home. (@ Honolulu International Airport (HNL) w/ 15 others) http://t.co/Ylv6KBaq
Mon, 28 Nov 2011 06:11:35 +0000</description><styleUrl>#hideLabel</styleUrl>
<Point><coordinates>-157.920000,21.331200,0</coordinates></Point></Placemark>
<Placemark><name>vanessawirth</name><description>At the Honolulu Airport. Cannot wait to get back to these two! We got some serious snuggling to do ladies!!! http://t.co/gIIGtbTt
Mon, 28 Nov 2011 06:13:34 +0000</description><styleUrl>#hideLabel</styleUrl>
<Point><coordinates>-157.920600,21.331400,0</coordinates></Point></Placemark>
<Placemark><name>BrandoBarrett</name><description>Aloha Hawaii. That means goodbye right?
Mon, 28 Nov 2011 06:21:12 +0000</description><styleUrl>#hideLabel</styleUrl>
<Point><coordinates>-157.919900,21.331200,0</coordinates></Point></Placemark>
<Placemark><name>hethspd</name><description>I'm at Honolulu International Airport (HNL) (300 Rodgers Blvd, off H1, Honolulu) w/ 18 others http://t.co/Xxh787Lx
Mon, 28 Nov 2011 06:25:26 +0000</description><styleUrl>#hideLabel</styleUrl>
<Point><coordinates>-157.926667,21.315833,0</coordinates></Point></Placemark>
<Placemark><name>Bytemarks</name><description>On my way to Atlanta (@ Honolulu International Airport (HNL) w/ @jamesburke54) http://t.co/WOCXSF4d
Mon, 28 Nov 2011 06:34:19 +0000</description><styleUrl>#hideLabel</styleUrl>
<Point><coordinates>-157.920000,21.331200,0</coordinates></Point></Placemark>
<Placemark><name>jeremy14c</name><description>Aloha again (@ Honolulu International Airport (HNL) w/ 17 others) http://t.co/zM3aEFfI
Mon, 28 Nov 2011 06:43:46 +0000</description><styleUrl>#hideLabel</styleUrl>
<Point><coordinates>-157.920000,21.331200,0</coordinates></Point></Placemark>
<Placemark><name>davekozuki</name><description>Off to Atlanta via salt lake.   long flights ahead. (@ Honolulu International Airport (HNL) w/ @bytemarks) http://t.co/JNDod7A3
Mon, 28 Nov 2011 06:45:35 +0000</description><styleUrl>#hideLabel</styleUrl>
<Point><coordinates>-157.920000,21.331200,0</coordinates></Point></Placemark>
<Placemark><name>Adepalma03</name><description>@itsfeefee haha I'm sorry lol
Mon, 28 Nov 2011 07:02:36 +0000</description><styleUrl>#hideLabel</styleUrl>
<Point><coordinates>-157.913100,21.326400,0</coordinates></Point></Placemark>
<Placemark><name>Adepalma03</name><description>Back on the Rock #ALOHA
Mon, 28 Nov 2011 07:07:58 +0000</description><styleUrl>#hideLabel</styleUrl>
<Point><coordinates>-157.913100,21.326400,0</coordinates></Point></Placemark>
<Placemark><name>Adepalma03</name><description>@rissmarie212 I know my love!!!
Mon, 28 Nov 2011 07:12:29 +0000</description><styleUrl>#hideLabel</styleUrl>
<Point><coordinates>-157.913100,21.326400,0</coordinates></Point></Placemark>
<Placemark><name>sami41</name><description>HNA--&gt; DIA #HomewardBound
Mon, 28 Nov 2011 08:00:14 +0000</description><styleUrl>#hideLabel</styleUrl>
<Point><coordinates>-157.917000,21.328900,0</coordinates></Point></Placemark>
<Placemark><name>BrettRLaronde</name><description>I'm at Honolulu International Airport (HNL) (300 Rodgers Blvd, off H1, Honolulu) w/ 18 others http://t.co/9FYYX0Y0
Mon, 28 Nov 2011 08:14:24 +0000</description><styleUrl>#hideLabel</styleUrl>
<Point><coordinates>-157.926667,21.315833,0</coordinates></Point></Placemark>
<Placemark><name>celopez3</name><description>After a day of surfing, beach play and fun, heading home!!! (@ Honolulu International Airport (HNL) w/ 13 others) http://t.co/t6uIs990
Mon, 28 Nov 2011 09:48:53 +0000</description><styleUrl>#hideLabel</styleUrl>
<Point><coordinates>-157.920000,21.331200,0</coordinates></Point></Placemark>
</Document></kml>