<?xml version="1.0" encoding="UTF-8"?><kml xmlns="http://www.opengis.net/kml/2.2"><Document>
<Style id="hideLabel"><LabelStyle><scale>0</scale></LabelStyle></Style>
<Placemark><name>LeNicolette</name><description>@Vogelpedia I cut my dogs hair one time.
Fri, 18 Nov 2011 17:59:04 +0000</description><styleUrl>#hideLabel</styleUrl>
<Point><coordinates>-78.797800,35.875700,0</coordinates></Point></Placemark>
<Placemark><name>jotting</name><description>US Airways: &quot;We board the window seat last!&quot; #smrt #imeansmart
Fri, 18 Nov 2011 17:58:30 +0000</description><styleUrl>#hideLabel</styleUrl>
<Point><coordinates>-78.795700,35.876600,0</coordinates></Point></Placemark>
<Placemark><name>6SeisUno1</name><description>I'm at Raleigh-Durham International Airport (RDU) (2400 W Terminal Blvd, at Aviation Pkwy, Raleigh) [pic]: http://t.co/bBIE60mt
Fri, 18 Nov 2011 18:10:57 +0000</description><styleUrl>#hideLabel</styleUrl>
<Point><coordinates>-78.787222,35.877500,0</coordinates></Point></Placemark>
<Placemark><name>itsdlevy</name><description>Shalom y'all! (@ Raleigh-Durham International Airport (RDU) w/ 33 others) http://t.co/Wzr30Mqi
Fri, 18 Nov 2011 18:16:12 +0000</description><styleUrl>#hideLabel</styleUrl>
<Point><coordinates>-78.789100,35.877400,0</coordinates></Point></Placemark>
<Placemark><name>WaynetteTubbs</name><description>#sastip SAS Samples44735: Define bar fill colors with an attribute map with the Graph Template Language (GTL) http://t.co/4Mpura02
Fri, 18 Nov 2011 18:22:11 +0000</description><styleUrl>#hideLabel</styleUrl>
<Point><coordinates>-78.792920,35.875064,0</coordinates></Point></Placemark>
<Placemark><name>ijeomaij</name><description>Baby no quanta just complete spending :)
Fri, 18 Nov 2011 18:32:59 +0000</description><styleUrl>#hideLabel</styleUrl>
<Point><coordinates>-78.792403,35.877003,0</coordinates></Point></Placemark>
<Placemark><name>joshhedger</name><description>Thanksgiving lunch with my family! Love it.
Fri, 18 Nov 2011 18:51:45 +0000</description><styleUrl>#hideLabel</styleUrl>
<Point><coordinates>-78.791756,35.878975,0</coordinates></Point></Placemark>
<Placemark><name>yeshaib</name><description>I'm at Raleigh-Durham International Airport (RDU) (2400 W Terminal Blvd, at Aviation Pkwy, Raleigh) w/ 36 others http://t.co/zjOA3Cvp
Fri, 18 Nov 2011 18:58:58 +0000</description><styleUrl>#hideLabel</styleUrl>
<Point><coordinates>-78.787222,35.877500,0</coordinates></Point></Placemark>
<Placemark><name>camtbyrd</name><description>Leg one of five between here and DCA (@ Raleigh-Durham International Airport (RDU) w/ 31 others) http://t.co/ddFtZxds
Fri, 18 Nov 2011 19:11:40 +0000</description><styleUrl>#hideLabel</styleUrl>
<Point><coordinates>-78.789100,35.877400,0</coordinates></Point></Placemark>
<Placemark><name>lauravpeters</name><description>At Ty's school helping with the marathon. Just helped 5 yr olds, I forgot how awkward that age is! #runlikephoebefromfriends
Fri, 18 Nov 2011 19:35:42 +0000</description><styleUrl>#hideLabel</styleUrl>
<Point><coordinates>-78.802375,35.872930,0</coordinates></Point></Placemark>
<Placemark><name>CaronMSU</name><description>I'm at Raleigh-Durham International Airport (RDU) (2400 W Terminal Blvd, at Aviation Pkwy, Raleigh) w/ 32 others http://t.co/a3gAdHpM
Fri, 18 Nov 2011 19:46:18 +0000</description><styleUrl>#hideLabel</styleUrl>
<Point><coordinates>-78.787222,35.877500,0</coordinates></Point></Placemark>
<Placemark><name>carmenb</name><description>I'm at Raleigh-Durham International Airport (RDU) (2400 W Terminal Blvd, at Aviation Pkwy, Raleigh) w/ 34 others http://t.co/vmQTdRO4
Fri, 18 Nov 2011 19:56:44 +0000</description><styleUrl>#hideLabel</styleUrl>
<Point><coordinates>-78.787222,35.877500,0</coordinates></Point></Placemark>
<Placemark><name>lauravpeters</name><description>Just got called Miss Cutie Patootie by some kids in Ty's class! Funny but mostly awkward!
Fri, 18 Nov 2011 20:30:08 +0000</description><styleUrl>#hideLabel</styleUrl>
<Point><coordinates>-78.802375,35.872930,0</coordinates></Point></Placemark>
<Placemark><name>leinad2011</name><description>Headed home for ten nights and 7 days off. Major win! (@ Raleigh-Durham International Airport (RDU) w/ 28 others) http://t.co/47SueWlv
Fri, 18 Nov 2011 20:38:19 +0000</description><styleUrl>#hideLabel</styleUrl>
<Point><coordinates>-78.789100,35.877400,0</coordinates></Point></Placemark>
<Placemark><name>CoachCarlton</name><description>Just landed in Raleigh.. Time to continue the chase of the #ACC crown tmrw! #Clemson ready to see the real #HighOctane offense tmrw!
Fri, 18 Nov 2011 20:37:44 +0000</description><styleUrl>#hideLabel</styleUrl>
<Point><coordinates>-78.783900,35.879000,0</coordinates></Point></Placemark>
<Placemark><name>dhagans</name><description>Home sweet home...what to get into tonight? (@ Raleigh-Durham International Airport (RDU) w/ 30 others) http://t.co/e3yCRDX2
Fri, 18 Nov 2011 20:46:26 +0000</description><styleUrl>#hideLabel</styleUrl>
<Point><coordinates>-78.789100,35.877400,0</coordinates></Point></Placemark>
<Placemark><name>southpaw20</name><description>I'm gonna start advocating for a one bin or less aisle at security checkpoints. Jesus. Tap dancing. Christ.
Fri, 18 Nov 2011 20:57:38 +0000</description><styleUrl>#hideLabel</styleUrl>
<Point><coordinates>-78.791900,35.878600,0</coordinates></Point></Placemark>
<Placemark><name>LMoreschi</name><description>Feeling like the holidays now. Houseguests arriving! (@ Raleigh-Durham International Airport (RDU) w/ 28 others) http://t.co/1wrkgupb
Fri, 18 Nov 2011 21:17:37 +0000</description><styleUrl>#hideLabel</styleUrl>
<Point><coordinates>-78.789100,35.877400,0</coordinates></Point></Placemark>
<Placemark><name>ijeomaij</name><description>Blessed
Fri, 18 Nov 2011 21:18:00 +0000</description><styleUrl>#hideLabel</styleUrl>
<Point><coordinates>-78.792403,35.877003,0</coordinates></Point></Placemark>
<Placemark><name>charisdesign</name><description>I'm at Raleigh-Durham International Airport (RDU) (2400 W Terminal Blvd, at Aviation Pkwy, Raleigh) w/ 30 others http://t.co/grloTqx3
Fri, 18 Nov 2011 21:53:40 +0000</description><styleUrl>#hideLabel</styleUrl>
<Point><coordinates>-78.787222,35.877500,0</coordinates></Point></Placemark>
<Placemark><name>ImTeufelz</name><description>I'm at Raleigh-Durham International Airport (RDU) (2400 W Terminal Blvd, at Aviation Pkwy, Raleigh) w/ 32 others http://t.co/G9wEtEdf
Fri, 18 Nov 2011 21:56:04 +0000</description><styleUrl>#hideLabel</styleUrl>
<Point><coordinates>-78.787222,35.877500,0</coordinates></Point></Placemark>
<Placemark><name>s2thePayne</name><description>RT @DannyAkin: “@rontutor: This is a great paper on Biblical Marriage In A Broken World by @DannyAkin http://t.co/WHZG7PD0 #StrongMarriage”/thank you!
Fri, 18 Nov 2011 22:00:03 +0000</description><styleUrl>#hideLabel</styleUrl>
<Point><coordinates>-78.795902,35.875414,0</coordinates></Point></Placemark>
<Placemark><name>DannyAkin</name><description>“@rontutor: This is a great paper on Biblical Marriage In A Broken World by @DannyAkin http://t.co/WHZG7PD0 #StrongMarriage”/thank you!
Fri, 18 Nov 2011 21:59:26 +0000</description><styleUrl>#hideLabel</styleUrl>
<Point><coordinates>-78.795902,35.875414,0</coordinates></Point></Placemark>
<Placemark><name>c_chelini</name><description>Landed in RDU #safeandsound
Fri, 18 Nov 2011 22:01:21 +0000</description><styleUrl>#hideLabel</styleUrl>
<Point><coordinates>-78.794100,35.873900,0</coordinates></Point></Placemark>
<Placemark><name>patrickshealy</name><description>RT @DannyAkin: “@rontutor: This is a great paper on Biblical Marriage In A Broken World by @DannyAkin http://t.co/WHZG7PD0 #StrongMarriage”/thank you!
Fri, 18 Nov 2011 22:43:02 +0000</description><styleUrl>#hideLabel</styleUrl>
<Point><coordinates>-78.795902,35.875414,0</coordinates></Point></Placemark>
<Placemark><name>cwburke</name><description>I'm at Raleigh-Durham International Airport (RDU) (2400 W Terminal Blvd, at Aviation Pkwy, Raleigh) w/ 36 others http://t.co/pngsKoPH
Fri, 18 Nov 2011 23:10:30 +0000</description><styleUrl>#hideLabel</styleUrl>
<Point><coordinates>-78.787222,35.877500,0</coordinates></Point></Placemark>
<Placemark><name>markimbriaco</name><description>Home-ish! (@ Raleigh-Durham International Airport (RDU) w/ 34 others) http://t.co/0DvGz1Ui
Fri, 18 Nov 2011 23:26:41 +0000</description><styleUrl>#hideLabel</styleUrl>
<Point><coordinates>-78.789100,35.877400,0</coordinates></Point></Placemark>
<Placemark><name>joshhedger</name><description>@caryweaver actively working towards that
Fri, 18 Nov 2011 23:38:29 +0000</description><styleUrl>#hideLabel</styleUrl>
<Point><coordinates>-78.791756,35.878975,0</coordinates></Point></Placemark>
<Placemark><name>joshhedger</name><description>@RevAaronDavis lol... Edward all the way! ;-)
Fri, 18 Nov 2011 23:38:04 +0000</description><styleUrl>#hideLabel</styleUrl>
<Point><coordinates>-78.791756,35.878975,0</coordinates></Point></Placemark>
<Placemark><name>joshhedger</name><description>@caryweaver all i know is that 2 plnt chrchs that plnt chrchs that... something has to give b/c it won't happen with 'traditional' models
Fri, 18 Nov 2011 23:41:38 +0000</description><styleUrl>#hideLabel</styleUrl>
<Point><coordinates>-78.791756,35.878975,0</coordinates></Point></Placemark>
<Placemark><name>wjpurdy</name><description>I'm at Raleigh-Durham International Airport (RDU) (2400 W Terminal Blvd, at Aviation Pkwy, Raleigh) w/ 35 others http://t.co/xwwYP67r
Fri, 18 Nov 2011 23:47:49 +0000</description><styleUrl>#hideLabel</styleUrl>
<Point><coordinates>-78.787222,35.877500,0</coordinates></Point></Placemark>
<Placemark><name>EveliaReza</name><description>I'm at Raleigh-Durham International Airport (RDU) (2400 W Terminal Blvd, at Aviation Pkwy, Raleigh) w/ 34 others http://t.co/375Smjad
Fri, 18 Nov 2011 23:47:46 +0000</description><styleUrl>#hideLabel</styleUrl>
<Point><coordinates>-78.787222,35.877500,0</coordinates></Point></Placemark>
<Placemark><name>IBMRich</name><description>Home at last! (@ Raleigh-Durham International Airport (RDU) w/ 35 others) http://t.co/LOWXudQq
Fri, 18 Nov 2011 23:57:50 +0000</description><styleUrl>#hideLabel</styleUrl>
<Point><coordinates>-78.787222,35.877500,0</coordinates></Point></Placemark>
<Placemark><name>mattwethington</name><description>RT @DannyAkin: “@rontutor: This is a great paper on Biblical Marriage In A Broken World by @DannyAkin http://t.co/WHZG7PD0 #StrongMarriage”/thank you!
Sat, 19 Nov 2011 00:25:58 +0000</description><styleUrl>#hideLabel</styleUrl>
<Point><coordinates>-78.795902,35.875414,0</coordinates></Point></Placemark>
<Placemark><name>mattrent</name><description>I'm at Raleigh-Durham International Airport (RDU) (2400 W Terminal Blvd, at Aviation Pkwy, Raleigh) w/ 31 others http://t.co/DZEyrf41
Sat, 19 Nov 2011 00:32:10 +0000</description><styleUrl>#hideLabel</styleUrl>
<Point><coordinates>-78.787222,35.877500,0</coordinates></Point></Placemark>
<Placemark><name>kotakkk</name><description>I'm at Raleigh-Durham International Airport (RDU) (2400 W Terminal Blvd, at Aviation Pkwy, Raleigh) w/ 33 others http://t.co/qdstbpYy
Sat, 19 Nov 2011 00:34:08 +0000</description><styleUrl>#hideLabel</styleUrl>
<Point><coordinates>-78.787222,35.877500,0</coordinates></Point></Placemark>
<Placemark><name>joshhedger</name><description>#WestAfrica team leaves tomorrow morning!
Sat, 19 Nov 2011 00:54:22 +0000</description><styleUrl>#hideLabel</styleUrl>
<Point><coordinates>-78.791756,35.878975,0</coordinates></Point></Placemark>
<Placemark><name>nzmoore</name><description>I'm at Raleigh-Durham International Airport (RDU) (2400 W Terminal Blvd, at Aviation Pkwy, Raleigh) w/ 21 others http://t.co/3GP3pabT
Sat, 19 Nov 2011 01:41:23 +0000</description><styleUrl>#hideLabel</styleUrl>
<Point><coordinates>-78.787222,35.877500,0</coordinates></Point></Placemark>
<Placemark><name>joshhedger</name><description>Amazing day with family as always! Thanks @rickhedger @sdferghedger @k_kdanae and my twitter-less bride, Tish
Sat, 19 Nov 2011 02:07:51 +0000</description><styleUrl>#hideLabel</styleUrl>
<Point><coordinates>-78.791756,35.878975,0</coordinates></Point></Placemark>
<Placemark><name>724Raleigh</name><description>Finishing the series &quot;Living Without Regrets&quot; this weekend.  @leetowns is going to be teaching on &quot;How To Live A Not Ashamed Life&quot;.
Sat, 19 Nov 2011 02:26:09 +0000</description><styleUrl>#hideLabel</styleUrl>
<Point><coordinates>-78.806861,35.874666,0</coordinates></Point></Placemark>
<Placemark><name>LMFinnis</name><description>RDU half an hour late but will be hitting downtown Chapel Hill soon! (@ Raleigh-Durham International Airport (RDU)) http://t.co/fr3jjtOg
Sat, 19 Nov 2011 02:32:30 +0000</description><styleUrl>#hideLabel</styleUrl>
<Point><coordinates>-78.789100,35.877400,0</coordinates></Point></Placemark>
<Placemark><name>ijeomaij</name><description>I thought I was buying a baby turkey... Came home my mom saw the 8 lb bird and asked why I bought (cont) http://t.co/9eFZ0XQD
Sat, 19 Nov 2011 02:38:31 +0000</description><styleUrl>#hideLabel</styleUrl>
<Point><coordinates>-78.792403,35.877003,0</coordinates></Point></Placemark>
<Placemark><name>wendilassiter</name><description>I'm at Raleigh-Durham International Airport (RDU) (2400 W Terminal Blvd, at Aviation Pkwy, Raleigh) w/ 19 others http://t.co/CWnEXPyY
Sat, 19 Nov 2011 02:41:46 +0000</description><styleUrl>#hideLabel</styleUrl>
<Point><coordinates>-78.787222,35.877500,0</coordinates></Point></Placemark>
<Placemark><name>ijeomaij</name><description>Hmmmmm I want some #staresatuncookedturkey #startscookingtgestuffing @NaijAmericanBoi
Sat, 19 Nov 2011 02:45:54 +0000</description><styleUrl>#hideLabel</styleUrl>
<Point><coordinates>-78.792403,35.877003,0</coordinates></Point></Placemark>
<Placemark><name>amanda_jewel</name><description>I'm at Raleigh-Durham International Airport (RDU) (2400 W Terminal Blvd, at Aviation Pkwy, Raleigh) w/ 20 others http://t.co/tvSL5Xy3
Sat, 19 Nov 2011 02:55:23 +0000</description><styleUrl>#hideLabel</styleUrl>
<Point><coordinates>-78.787222,35.877500,0</coordinates></Point></Placemark>
<Placemark><name>ijeomaij</name><description>Omg a roaster is a chicken #smh
Sat, 19 Nov 2011 03:00:10 +0000</description><styleUrl>#hideLabel</styleUrl>
<Point><coordinates>-78.792403,35.877003,0</coordinates></Point></Placemark>
<Placemark><name>joshhedger</name><description>#OkState is not looking so good right now
Sat, 19 Nov 2011 04:19:38 +0000</description><styleUrl>#hideLabel</styleUrl>
<Point><coordinates>-78.791756,35.878975,0</coordinates></Point></Placemark>
<Placemark><name>joshhedger</name><description>@keithsewell then if by some crazy miracle #Arkansas beats #LSU you will be set!
Sat, 19 Nov 2011 04:25:42 +0000</description><styleUrl>#hideLabel</styleUrl>
<Point><coordinates>-78.791756,35.878975,0</coordinates></Point></Placemark>
<Placemark><name>joshhedger</name><description>@ealove21 u seeing this #OkState game?
Sat, 19 Nov 2011 04:24:55 +0000</description><styleUrl>#hideLabel</styleUrl>
<Point><coordinates>-78.791756,35.878975,0</coordinates></Point></Placemark>
<Placemark><name>joshhedger</name><description>#BCS is in danger of another controversial selection if #OkState loses this
Sat, 19 Nov 2011 04:28:33 +0000</description><styleUrl>#hideLabel</styleUrl>
<Point><coordinates>-78.791756,35.878975,0</coordinates></Point></Placemark>
<Placemark><name>joshhedger</name><description>He missed the field goal. #ouch
Sat, 19 Nov 2011 04:34:08 +0000</description><styleUrl>#hideLabel</styleUrl>
<Point><coordinates>-78.791756,35.878975,0</coordinates></Point></Placemark>
<Placemark><name>WhatAboutTim</name><description>I just ousted Christine H. as the mayor of RDU - Gate C7 on @foursquare! http://t.co/USP06nFT
Sat, 19 Nov 2011 04:57:24 +0000</description><styleUrl>#hideLabel</styleUrl>
<Point><coordinates>-78.793500,35.878000,0</coordinates></Point></Placemark>
<Placemark><name>WhatAboutTim</name><description>Home! I made it! (@ Raleigh-Durham International Airport (RDU) w/ 21 others) http://t.co/i99Wxy02
Sat, 19 Nov 2011 04:56:57 +0000</description><styleUrl>#hideLabel</styleUrl>
<Point><coordinates>-78.789100,35.877400,0</coordinates></Point></Placemark>
<Placemark><name>WaynetteTubbs</name><description>SAS Notes for SAS®9 - 20963: Use lower case when creating entities and sub-entities in SAS Credit... http://t.co/fICZtHIU #sastip #sasusers
Sat, 19 Nov 2011 09:16:36 +0000</description><styleUrl>#hideLabel</styleUrl>
<Point><coordinates>-78.792920,35.875064,0</coordinates></Point></Placemark>
<Placemark><name>WaynetteTubbs</name><description>SAS Samples43052: Convert variables containing only numeric values from type character to numeric http://t.co/9WObGQZR #sastip #sasusers
Sat, 19 Nov 2011 09:24:05 +0000</description><styleUrl>#hideLabel</styleUrl>
<Point><coordinates>-78.792920,35.875064,0</coordinates></Point></Placemark>
<Placemark><name>WaynetteTubbs</name><description>SAS Samples24679: Merging data sets by a common variable and create output data sets based upon... http://t.co/wWKTQ4Rv #sastip #sasusers
Sat, 19 Nov 2011 09:24:04 +0000</description><styleUrl>#hideLabel</styleUrl>
<Point><coordinates>-78.792920,35.875064,0</coordinates></Point></Placemark>
<Placemark><name>WaynetteTubbs</name><description>#sastip SAS Notes for SAS®9 - 39440: How to dump the content of the DAV server or SAS  Content Server for SAS Finan... http://t.co/RAu9siie
Sat, 19 Nov 2011 10:13:28 +0000</description><styleUrl>#hideLabel</styleUrl>
<Point><coordinates>-78.792920,35.875064,0</coordinates></Point></Placemark>
<Placemark><name>theREALtunaFISH</name><description>&quot;final destination boston&quot; music to my ears
Sat, 19 Nov 2011 11:07:54 +0000</description><styleUrl>#hideLabel</styleUrl>
<Point><coordinates>-78.791300,35.878300,0</coordinates></Point></Placemark>
<Placemark><name>theREALtunaFISH</name><description>Chillaxin at the airport
Sat, 19 Nov 2011 11:12:52 +0000</description><styleUrl>#hideLabel</styleUrl>
<Point><coordinates>-78.792100,35.878600,0</coordinates></Point></Placemark>
<Placemark><name>UFB_Mooky</name><description>Traveling from NC back to the #drillinois
Sat, 19 Nov 2011 12:34:41 +0000</description><styleUrl>#hideLabel</styleUrl>
<Point><coordinates>-78.787500,35.875900,0</coordinates></Point></Placemark>
<Placemark><name>carolinabigblue</name><description>Today's #freudeamfahren http://t.co/rsmrsR2R &quot;three lions on my chest&quot; we can go far...  Let's drive!
Sat, 19 Nov 2011 12:38:53 +0000</description><styleUrl>#hideLabel</styleUrl>
<Point><coordinates>-78.791700,35.875362,0</coordinates></Point></Placemark>
<Placemark><name>UFB_Mooky</name><description>@Drake the Album Take Care was crazy good looking Drizzzzyyyyyyy YMCMB
Sat, 19 Nov 2011 12:45:05 +0000</description><styleUrl>#hideLabel</styleUrl>
<Point><coordinates>-78.787600,35.875900,0</coordinates></Point></Placemark>
<Placemark><name>UFB_Mooky</name><description>Drake got me ready for this flight and dre beats got me hearing every syllable lol
Sat, 19 Nov 2011 12:43:47 +0000</description><styleUrl>#hideLabel</styleUrl>
<Point><coordinates>-78.787500,35.875900,0</coordinates></Point></Placemark>
<Placemark><name>UFB_Mooky</name><description>Y.O.L.O = you only live once
Sat, 19 Nov 2011 12:54:58 +0000</description><styleUrl>#hideLabel</styleUrl>
<Point><coordinates>-78.787600,35.875900,0</coordinates></Point></Placemark>
<Placemark><name>UFB_Mooky</name><description>Best part about flying is taking off the worst part is landing
Sat, 19 Nov 2011 13:47:34 +0000</description><styleUrl>#hideLabel</styleUrl>
<Point><coordinates>-78.797800,35.871400,0</coordinates></Point></Placemark>
<Placemark><name>UFB_Mooky</name><description>@ActionMJackson nothing what's up
Sat, 19 Nov 2011 13:52:52 +0000</description><styleUrl>#hideLabel</styleUrl>
<Point><coordinates>-78.807100,35.879400,0</coordinates></Point></Placemark>
<Placemark><name>joshhedger</name><description>Your theology is going to guide your parenting. Via @johnlindell
Sat, 19 Nov 2011 14:34:25 +0000</description><styleUrl>#hideLabel</styleUrl>
<Point><coordinates>-78.791756,35.878975,0</coordinates></Point></Placemark>
<Placemark><name>mkymse67</name><description>Up up and away!!! (@ Raleigh-Durham International Airport (RDU) w/ 10 others) http://t.co/c4WDlABW
Sat, 19 Nov 2011 14:33:22 +0000</description><styleUrl>#hideLabel</styleUrl>
<Point><coordinates>-78.789100,35.877400,0</coordinates></Point></Placemark>
<Placemark><name>joshhedger</name><description>Parents, The goal for your children is not compliant behavior but a redeemed heart. Via @johnlindell
Sat, 19 Nov 2011 14:37:55 +0000</description><styleUrl>#hideLabel</styleUrl>
<Point><coordinates>-78.791756,35.878975,0</coordinates></Point></Placemark>
<Placemark><name>joshhedger</name><description>Your kids are born sinners... The only reason they don't kill you is bc they weigh 10lbs. @johnlindell
Sat, 19 Nov 2011 14:36:41 +0000</description><styleUrl>#hideLabel</styleUrl>
<Point><coordinates>-78.791756,35.878975,0</coordinates></Point></Placemark>
<Placemark><name>Fitmodelsherry</name><description>Note to self- ck the weather where u going b4 u fly Omg it's 28 degrees in Raleigh NC and I didnt bring a coat :(
Sat, 19 Nov 2011 14:44:52 +0000</description><styleUrl>#hideLabel</styleUrl>
<Point><coordinates>-78.800600,35.885800,0</coordinates></Point></Placemark>
<Placemark><name>Fitmodelsherry</name><description>2nd note to self never travel the weekend b4 thanksgiving- holy hell.
Sat, 19 Nov 2011 14:52:31 +0000</description><styleUrl>#hideLabel</styleUrl>
<Point><coordinates>-78.792900,35.879600,0</coordinates></Point></Placemark>
<Placemark><name>JonathanBullock</name><description>I'm at Raleigh-Durham International Airport (RDU) (2400 W Terminal Blvd, at Aviation Pkwy, Raleigh) w/ 13 others http://t.co/TxBRNwaj
Sat, 19 Nov 2011 15:01:42 +0000</description><styleUrl>#hideLabel</styleUrl>
<Point><coordinates>-78.787222,35.877500,0</coordinates></Point></Placemark>
<Placemark><name>landeryde</name><description>RT @joshhedger: Your theology is going to guide your parenting. Via @johnlindell
Sat, 19 Nov 2011 15:06:42 +0000</description><styleUrl>#hideLabel</styleUrl>
<Point><coordinates>-78.791756,35.878975,0</coordinates></Point></Placemark>
<Placemark><name>loadedthorn</name><description>I'm back in Wally just waitin on my wide  @ Terminal 2 http://t.co/Lw9dp1aN
Sat, 19 Nov 2011 15:07:17 +0000</description><styleUrl>#hideLabel</styleUrl>
<Point><coordinates>-78.793000,35.877000,0</coordinates></Point></Placemark>
<Placemark><name>davekuntz</name><description>RT @joshhedger: Your kids are born sinners... The only reason they don't kill you is bc they weigh 10lbs. @johnlindell
Sat, 19 Nov 2011 15:11:54 +0000</description><styleUrl>#hideLabel</styleUrl>
<Point><coordinates>-78.791756,35.878975,0</coordinates></Point></Placemark>
<Placemark><name>ealove21</name><description>RT @joshhedger: Parents, The goal for your children is not compliant behavior but a redeemed heart. Via @johnlindell
Sat, 19 Nov 2011 15:11:51 +0000</description><styleUrl>#hideLabel</styleUrl>
<Point><coordinates>-78.791756,35.878975,0</coordinates></Point></Placemark>
<Placemark><name>ealove21</name><description>RT @joshhedger: Your kids are born sinners... The only reason they don't kill you is bc they weigh 10lbs. @johnlindell
Sat, 19 Nov 2011 15:11:42 +0000</description><styleUrl>#hideLabel</styleUrl>
<Point><coordinates>-78.791756,35.878975,0</coordinates></Point></Placemark>
<Placemark><name>1chicklette</name><description>I'm at Raleigh-Durham International Airport (RDU) (2400 W Terminal Blvd, at Aviation Pkwy, Raleigh) w/ 16 others http://t.co/oCB8wf6c
Sat, 19 Nov 2011 15:47:38 +0000</description><styleUrl>#hideLabel</styleUrl>
<Point><coordinates>-78.787222,35.877500,0</coordinates></Point></Placemark>
<Placemark><name>KellyRosebud</name><description>Give Em Hell  @ RDU -  Gate C18 http://t.co/GjNl5U7g
Sat, 19 Nov 2011 16:27:40 +0000</description><styleUrl>#hideLabel</styleUrl>
<Point><coordinates>-78.791200,35.878200,0</coordinates></Point></Placemark>
<Placemark><name>ijeomaij</name><description>Want to go to a hockey game in December ? @nerdynorie
Sat, 19 Nov 2011 16:26:27 +0000</description><styleUrl>#hideLabel</styleUrl>
<Point><coordinates>-78.792403,35.877003,0</coordinates></Point></Placemark>
<Placemark><name>cargent</name><description>RT @joshhedger: Your kids are born sinners... The only reason they don't kill you is bc they weigh 10lbs. @johnlindell
Sat, 19 Nov 2011 16:42:52 +0000</description><styleUrl>#hideLabel</styleUrl>
<Point><coordinates>-78.791756,35.878975,0</coordinates></Point></Placemark>
<Placemark><name>ijeomaij</name><description>Ya!!! Look into my god sister is coming to visit and I'm thinking of things to do I've never been (cont) http://t.co/ZXY19dVO
Sat, 19 Nov 2011 16:41:48 +0000</description><styleUrl>#hideLabel</styleUrl>
<Point><coordinates>-78.792403,35.877003,0</coordinates></Point></Placemark>
<Placemark><name>sujagalum</name><description>I'm at Raleigh-Durham International Airport (RDU) (2400 W Terminal Blvd, at Aviation Pkwy, Raleigh) w/ 16 others http://t.co/U2TZCuql
Sat, 19 Nov 2011 17:11:36 +0000</description><styleUrl>#hideLabel</styleUrl>
<Point><coordinates>-78.787222,35.877500,0</coordinates></Point></Placemark>
<Placemark><name>elysialangston</name><description>@MelissaNiicole you guys are pretty cool! Love u both!
Sat, 19 Nov 2011 17:14:43 +0000</description><styleUrl>#hideLabel</styleUrl>
<Point><coordinates>-78.793300,35.877200,0</coordinates></Point></Placemark>
<Placemark><name>BonnieIJones</name><description>On my way home (@ Raleigh-Durham International Airport (RDU) w/ 20 others) http://t.co/VDg74pzS
Sat, 19 Nov 2011 17:43:15 +0000</description><styleUrl>#hideLabel</styleUrl>
<Point><coordinates>-78.789100,35.877400,0</coordinates></Point></Placemark>
<Placemark><name>Lawjones89</name><description>On the way back to the chi. Great session last night
Sat, 19 Nov 2011 18:18:08 +0000</description><styleUrl>#hideLabel</styleUrl>
<Point><coordinates>-78.791500,35.879100,0</coordinates></Point></Placemark>
<Placemark><name>Lawjones89</name><description>I miss you!“@TyElisabeth: Yo baby!!! @Lawjones89”
Sat, 19 Nov 2011 18:16:45 +0000</description><styleUrl>#hideLabel</styleUrl>
<Point><coordinates>-78.791500,35.879100,0</coordinates></Point></Placemark>
<Placemark><name>WaynetteTubbs</name><description>#sastip SAS Samples24679: Merging data sets by a common variable and create output data sets based upon observation... http://t.co/sVICVkMG
Sat, 19 Nov 2011 18:28:31 +0000</description><styleUrl>#hideLabel</styleUrl>
<Point><coordinates>-78.792920,35.875064,0</coordinates></Point></Placemark>
<Placemark><name>joshhedger</name><description>Has anyone done a replant of an established church w/out fully killing it for a few months and then replanting?
Sat, 19 Nov 2011 18:39:39 +0000</description><styleUrl>#hideLabel</styleUrl>
<Point><coordinates>-78.791756,35.878975,0</coordinates></Point></Placemark>
<Placemark><name>ijeomaij</name><description>Omg can I just say I'm in love with http://t.co/ufUE66oJ finally got my budget and finances in order cc @emekacnn
Sat, 19 Nov 2011 18:45:45 +0000</description><styleUrl>#hideLabel</styleUrl>
<Point><coordinates>-78.792403,35.877003,0</coordinates></Point></Placemark>
<Placemark><name>joshhedger</name><description>@joethorn @stevekmccoy Hello men. I was told that you both have done a replant. We've been approached to do one. Need wisdom/lessons
Sat, 19 Nov 2011 18:57:17 +0000</description><styleUrl>#hideLabel</styleUrl>
<Point><coordinates>-78.791756,35.878975,0</coordinates></Point></Placemark>
<Placemark><name>joshhedger</name><description>@jwritebol @joethorn @stevekmccoy thanks man!
Sat, 19 Nov 2011 18:59:39 +0000</description><styleUrl>#hideLabel</styleUrl>
<Point><coordinates>-78.791756,35.878975,0</coordinates></Point></Placemark>
<Placemark><name>KennethGifford</name><description>On the move... Fayetteville what's up
Sat, 19 Nov 2011 19:31:35 +0000</description><styleUrl>#hideLabel</styleUrl>
<Point><coordinates>-78.792200,35.878700,0</coordinates></Point></Placemark>
<Placemark><name>joshhedger</name><description>@Ken_Lupton thanks!
Sat, 19 Nov 2011 19:40:03 +0000</description><styleUrl>#hideLabel</styleUrl>
<Point><coordinates>-78.791756,35.878975,0</coordinates></Point></Placemark>
<Placemark><name>luv_me_sum_me5</name><description>Sooo... Def missed my flight.... Smh
Sat, 19 Nov 2011 20:15:06 +0000</description><styleUrl>#hideLabel</styleUrl>
<Point><coordinates>-78.800200,35.889300,0</coordinates></Point></Placemark>
<Placemark><name>kevingainey</name><description>I'm at Raleigh-Durham International Airport (RDU) (2400 W Terminal Blvd, at Aviation Pkwy, Raleigh) w/ 16 others http://t.co/tYoiVZLI
Sat, 19 Nov 2011 20:31:26 +0000</description><styleUrl>#hideLabel</styleUrl>
<Point><coordinates>-78.787222,35.877500,0</coordinates></Point></Placemark>
<Placemark><name>luv_me_sum_me5</name><description>@Chrisy_2011 yeaaaa and now I'm just gonna hit this bar up til 8 haha
Sat, 19 Nov 2011 20:40:26 +0000</description><styleUrl>#hideLabel</styleUrl>
<Point><coordinates>-78.791300,35.878300,0</coordinates></Point></Placemark>
<Placemark><name>luv_me_sum_me5</name><description>So they're doing construction on the other half of the airport and I only have like 2 place of food to choose from hahaha
Sat, 19 Nov 2011 20:45:19 +0000</description><styleUrl>#hideLabel</styleUrl>
<Point><coordinates>-78.789000,35.876700,0</coordinates></Point></Placemark>
<Placemark><name>joshhedger</name><description>@JerrellAltic hey bro, @a_dBeck had just told me I should talk to u!
Sat, 19 Nov 2011 20:57:32 +0000</description><styleUrl>#hideLabel</styleUrl>
<Point><coordinates>-78.791756,35.878975,0</coordinates></Point></Placemark>
<Placemark><name>luv_me_sum_me5</name><description>@TeamLightSkin11 Sooo I missed my flight and have to be at the airport for 4 hrs til the next flight... I'm about to get hammered here haha
Sat, 19 Nov 2011 21:04:02 +0000</description><styleUrl>#hideLabel</styleUrl>
<Point><coordinates>-78.797400,35.872700,0</coordinates></Point></Placemark>
<Placemark><name>luv_me_sum_me5</name><description>@TeamLightSkin11 noooooo hahaha you gotta work real hard to lose every game... Florida State is gonna get clowned for playing them haha
Sat, 19 Nov 2011 21:13:59 +0000</description><styleUrl>#hideLabel</styleUrl>
<Point><coordinates>-78.797800,35.875800,0</coordinates></Point></Placemark>
<Placemark><name>luv_me_sum_me5</name><description>This chick next to me just ordered a blue moon and I almost puked because I thought about what happened Thursday night hahaha
Sat, 19 Nov 2011 21:15:19 +0000</description><styleUrl>#hideLabel</styleUrl>
<Point><coordinates>-78.798600,35.880100,0</coordinates></Point></Placemark>
<Placemark><name>luv_me_sum_me5</name><description>“@mikemccann3: &quot;we just got engaged&quot; statuses = I just DE-friended you” #cosign haha
Sat, 19 Nov 2011 21:21:24 +0000</description><styleUrl>#hideLabel</styleUrl>
<Point><coordinates>-78.797000,35.877000,0</coordinates></Point></Placemark>
<Placemark><name>luv_me_sum_me5</name><description>@sleepwlk_hulk My thoughts exactly!
Sat, 19 Nov 2011 21:20:03 +0000</description><styleUrl>#hideLabel</styleUrl>
<Point><coordinates>-78.795900,35.875900,0</coordinates></Point></Placemark>
<Placemark><name>joshhedger</name><description>@Ken_Lupton I'll contact @steve_dighton . Thanks ken.
Sat, 19 Nov 2011 21:48:15 +0000</description><styleUrl>#hideLabel</styleUrl>
<Point><coordinates>-78.791756,35.878975,0</coordinates></Point></Placemark>
<Placemark><name>ijeomaij</name><description>U should I'm loving it #happydance @thisismsmogul
Sat, 19 Nov 2011 21:50:17 +0000</description><styleUrl>#hideLabel</styleUrl>
<Point><coordinates>-78.792403,35.877003,0</coordinates></Point></Placemark>
<Placemark><name>joshhedger</name><description>@JerrellAltic it's your hometown. I'd love to chat soon.
Sat, 19 Nov 2011 21:49:48 +0000</description><styleUrl>#hideLabel</styleUrl>
<Point><coordinates>-78.791756,35.878975,0</coordinates></Point></Placemark>
<Placemark><name>joshhedger</name><description>@steve_dighton would love to chat &quot;replants&quot; with you soon.
Sat, 19 Nov 2011 21:48:51 +0000</description><styleUrl>#hideLabel</styleUrl>
<Point><coordinates>-78.791756,35.878975,0</coordinates></Point></Placemark>
<Placemark><name>joshhedger</name><description>How many scores is #Arkansas goingto give away? No case for moving ahead of #OKState like this
Sat, 19 Nov 2011 21:53:14 +0000</description><styleUrl>#hideLabel</styleUrl>
<Point><coordinates>-78.791756,35.878975,0</coordinates></Point></Placemark>
<Placemark><name>luv_me_sum_me5</name><description>@sleepwlk_hulk @teamlightskin11 are you serious?
Sat, 19 Nov 2011 21:52:40 +0000</description><styleUrl>#hideLabel</styleUrl>
<Point><coordinates>-78.798100,35.881800,0</coordinates></Point></Placemark>
<Placemark><name>joshhedger</name><description>@RandyAlston praying for you randy. Thanks
Sat, 19 Nov 2011 21:51:50 +0000</description><styleUrl>#hideLabel</styleUrl>
<Point><coordinates>-78.791756,35.878975,0</coordinates></Point></Placemark>
<Placemark><name>Meekation</name><description>I'm at Raleigh-Durham International Airport (RDU) (2400 W Terminal Blvd, at Aviation Pkwy, Raleigh) w/ 18 others http://t.co/4D111OJX
Sat, 19 Nov 2011 22:03:55 +0000</description><styleUrl>#hideLabel</styleUrl>
<Point><coordinates>-78.787222,35.877500,0</coordinates></Point></Placemark>
<Placemark><name>joshhedger</name><description>#WestAfrica team is on their way across the ocean!  Next stop will be customs in W.A. followed by a long 8-10 hr taxi ride to our village
Sat, 19 Nov 2011 22:42:45 +0000</description><styleUrl>#hideLabel</styleUrl>
<Point><coordinates>-78.791756,35.878975,0</coordinates></Point></Placemark>
<Placemark><name>joshhedger</name><description>Worship with the @freshwaterchrch family tomorrow. 9 &amp; 1045. Open house at new building 1045 &amp; 1215. Invite a friend!
Sat, 19 Nov 2011 22:47:40 +0000</description><styleUrl>#hideLabel</styleUrl>
<Point><coordinates>-78.791756,35.878975,0</coordinates></Point></Placemark>
<Placemark><name>joshhedger</name><description>Thnx 2 all who prayed for our big meeting today about future planting/replanting efforts in  #SWMO . Pray for wisdom and direction now
Sat, 19 Nov 2011 22:46:30 +0000</description><styleUrl>#hideLabel</styleUrl>
<Point><coordinates>-78.791756,35.878975,0</coordinates></Point></Placemark>
<Placemark><name>TheFarNorth</name><description>@Commanderlegend current location is. You busy?
Sat, 19 Nov 2011 23:11:30 +0000</description><styleUrl>#hideLabel</styleUrl>
<Point><coordinates>-78.786400,35.876100,0</coordinates></Point></Placemark>
<Placemark><name>TheFarNorth</name><description>@Commanderlegend yes. But only momentarily. Coming. Back from Tampa. :-)
Sat, 19 Nov 2011 23:14:22 +0000</description><styleUrl>#hideLabel</styleUrl>
<Point><coordinates>-78.800100,35.871000,0</coordinates></Point></Placemark>
<Placemark><name>oliviabass</name><description>@Lindsey_Shaffer you heard me! Amazingggg sauceee :)
Sat, 19 Nov 2011 23:17:33 +0000</description><styleUrl>#hideLabel</styleUrl>
<Point><coordinates>-78.793400,35.875700,0</coordinates></Point></Placemark>
<Placemark><name>oliviabass</name><description>At rdu picking up my boss...can't wait to be here in 20 days to head to nyc with the boyf!
Sat, 19 Nov 2011 23:18:33 +0000</description><styleUrl>#hideLabel</styleUrl>
<Point><coordinates>-78.793400,35.875400,0</coordinates></Point></Placemark>
<Placemark><name>joshhedger</name><description>#Hogs are 10-1. That doesn't happen often! #WPS
Sat, 19 Nov 2011 23:52:30 +0000</description><styleUrl>#hideLabel</styleUrl>
<Point><coordinates>-78.791756,35.878975,0</coordinates></Point></Placemark>
<Placemark><name>joshhedger</name><description>Need an #Auburn &amp; #Arkansas win next week... It's a real possibility. #AlwaysHope
Sun, 20 Nov 2011 00:08:06 +0000</description><styleUrl>#hideLabel</styleUrl>
<Point><coordinates>-78.791756,35.878975,0</coordinates></Point></Placemark>
<Placemark><name>joshhedger</name><description>Tonight I'm a HUGE #Ducks fan
Sun, 20 Nov 2011 00:12:51 +0000</description><styleUrl>#hideLabel</styleUrl>
<Point><coordinates>-78.791756,35.878975,0</coordinates></Point></Placemark>
<Placemark><name>joshhedger</name><description>Excited to worship with @freshwaterchrch tomorrow! I love my church family.
Sun, 20 Nov 2011 00:19:26 +0000</description><styleUrl>#hideLabel</styleUrl>
<Point><coordinates>-78.791756,35.878975,0</coordinates></Point></Placemark>
<Placemark><name>luv_me_sum_me5</name><description>Finally about to board -_-
Sun, 20 Nov 2011 00:24:53 +0000</description><styleUrl>#hideLabel</styleUrl>
<Point><coordinates>-78.797900,35.871800,0</coordinates></Point></Placemark>
<Placemark><name>carolinabigblue</name><description>Hanging out with the family at the Old Well in advance of the Clefhangers concert.  http://t.co/cZYldbaF
Sun, 20 Nov 2011 00:28:40 +0000</description><styleUrl>#hideLabel</styleUrl>
<Point><coordinates>-78.791700,35.875362,0</coordinates></Point></Placemark>
<Placemark><name>FiestySipes</name><description>Made it! (@ Raleigh-Durham International Airport (RDU) w/ 14 others) http://t.co/wB1jpNWc
Sun, 20 Nov 2011 00:26:29 +0000</description><styleUrl>#hideLabel</styleUrl>
<Point><coordinates>-78.789100,35.877400,0</coordinates></Point></Placemark>
<Placemark><name>carolinabigblue</name><description>Excited to hear the Clefs tonight with the family http://t.co/fkNbcmLO a real Chapel Hill evening after dinner at Linda's #goheels
Sun, 20 Nov 2011 00:53:53 +0000</description><styleUrl>#hideLabel</styleUrl>
<Point><coordinates>-78.791700,35.875362,0</coordinates></Point></Placemark>
<Placemark><name>joshhedger</name><description>We need 75 boxes of mashed potatoes &amp; 30 boxes of stuffing brought tomorrow! Thanks @freshwaterchrch
Sun, 20 Nov 2011 00:53:50 +0000</description><styleUrl>#hideLabel</styleUrl>
<Point><coordinates>-78.791756,35.878975,0</coordinates></Point></Placemark>
<Placemark><name>ijeomaij</name><description>Happy holidays I just picked my thanksgiving dress #foodfamilyfun
Sun, 20 Nov 2011 01:15:41 +0000</description><styleUrl>#hideLabel</styleUrl>
<Point><coordinates>-78.792403,35.877003,0</coordinates></Point></Placemark>
<Placemark><name>T_Rae_11</name><description>&gt; when the guy sitting infront of you on a plane smells like shit #snagashowerclown
Sun, 20 Nov 2011 01:14:04 +0000</description><styleUrl>#hideLabel</styleUrl>
<Point><coordinates>-78.791300,35.877800,0</coordinates></Point></Placemark>
<Placemark><name>ijeomaij</name><description>Me too wish I could be that organized @Lauren_PYT
Sun, 20 Nov 2011 01:52:39 +0000</description><styleUrl>#hideLabel</styleUrl>
<Point><coordinates>-78.792403,35.877003,0</coordinates></Point></Placemark>
<Placemark><name>ijeomaij</name><description>Just me and my turkey
Sun, 20 Nov 2011 01:54:36 +0000</description><styleUrl>#hideLabel</styleUrl>
<Point><coordinates>-78.792403,35.877003,0</coordinates></Point></Placemark>
<Placemark><name>joshhedger</name><description>#Oklahoma &amp; #Oregon losses tonight would put #Arkansas ranked 3rd in the nation... wow.
Sun, 20 Nov 2011 02:05:41 +0000</description><styleUrl>#hideLabel</styleUrl>
<Point><coordinates>-78.791756,35.878975,0</coordinates></Point></Placemark>
<Placemark><name>joshhedger</name><description>Has one conference ever had the Top3 #BCS ranked teams at the same time?
Sun, 20 Nov 2011 02:09:02 +0000</description><styleUrl>#hideLabel</styleUrl>
<Point><coordinates>-78.791756,35.878975,0</coordinates></Point></Placemark>
<Placemark><name>joshhedger</name><description>@ealove21 yep. I'll be happy just being 3rd for a week though! ;-)
Sun, 20 Nov 2011 02:50:29 +0000</description><styleUrl>#hideLabel</styleUrl>
<Point><coordinates>-78.791756,35.878975,0</coordinates></Point></Placemark>
<Placemark><name>DobberDD</name><description>Dude frm FSU took a shot wit no helmet on. Cheap shot by UVA ?
Sun, 20 Nov 2011 03:04:46 +0000</description><styleUrl>#hideLabel</styleUrl>
<Point><coordinates>-78.801302,35.870476,0</coordinates></Point></Placemark>
<Placemark><name>DobberDD</name><description>Huge play by USCs kicker but what's up with his earrings? Can u wear those?
Sun, 20 Nov 2011 03:08:00 +0000</description><styleUrl>#hideLabel</styleUrl>
<Point><coordinates>-78.801302,35.870476,0</coordinates></Point></Placemark>
<Placemark><name>ijeomaij</name><description>32 perfect age
Sun, 20 Nov 2011 03:10:38 +0000</description><styleUrl>#hideLabel</styleUrl>
<Point><coordinates>-78.792403,35.877003,0</coordinates></Point></Placemark>
<Placemark><name>lauravpeters</name><description>When Ty has more plans than us = two date nights in a row with @DonniePeters without having to pay for a sitter! ❤
Sun, 20 Nov 2011 04:00:50 +0000</description><styleUrl>#hideLabel</styleUrl>
<Point><coordinates>-78.802375,35.872930,0</coordinates></Point></Placemark>
<Placemark><name>DobberDD</name><description>Pulling for UVA. Helps VT and I hate FSU
Sun, 20 Nov 2011 04:03:02 +0000</description><styleUrl>#hideLabel</styleUrl>
<Point><coordinates>-78.801302,35.870476,0</coordinates></Point></Placemark>
<Placemark><name>DobberDD</name><description>Crazy ending but UVA deserves that one... kinda. ACC is soooo bad
Sun, 20 Nov 2011 04:15:19 +0000</description><styleUrl>#hideLabel</styleUrl>
<Point><coordinates>-78.801302,35.870476,0</coordinates></Point></Placemark>
<Placemark><name>joshhedger</name><description>The #BaylorBears are new heroes of mine!
Sun, 20 Nov 2011 04:19:30 +0000</description><styleUrl>#hideLabel</styleUrl>
<Point><coordinates>-78.791756,35.878975,0</coordinates></Point></Placemark>
<Placemark><name>DobberDD</name><description>If USC and Baylor hang on, VT will be the worse Top 5 BCS team ever.
Sun, 20 Nov 2011 04:18:08 +0000</description><styleUrl>#hideLabel</styleUrl>
<Point><coordinates>-78.801302,35.870476,0</coordinates></Point></Placemark>
<Placemark><name>joshhedger</name><description>10,000 reasons (bless the lord o my soul) is an incredible song we are using to worship with at @freshwaterchrch tomorrow
Sun, 20 Nov 2011 04:22:02 +0000</description><styleUrl>#hideLabel</styleUrl>
<Point><coordinates>-78.791756,35.878975,0</coordinates></Point></Placemark>
<Placemark><name>ijeomaij</name><description>The pearl just fell out of my ring #wahhhhh:(
Sun, 20 Nov 2011 04:28:21 +0000</description><styleUrl>#hideLabel</styleUrl>
<Point><coordinates>-78.792403,35.877003,0</coordinates></Point></Placemark>
<Placemark><name>joshhedger</name><description>@keithsewell bet you #Bama fans are liking how this is panning out! :-)
Sun, 20 Nov 2011 04:32:58 +0000</description><styleUrl>#hideLabel</styleUrl>
<Point><coordinates>-78.791756,35.878975,0</coordinates></Point></Placemark>
<Placemark><name>joshhedger</name><description>Might be my first time ever to celebrate a #USC win! Thank you Trojans!  Come on #BaylorBears
Sun, 20 Nov 2011 04:31:49 +0000</description><styleUrl>#hideLabel</styleUrl>
<Point><coordinates>-78.791756,35.878975,0</coordinates></Point></Placemark>
<Placemark><name>joshhedger</name><description>@keithsewell lol. No offense but I hope #Auburn wins &amp; #LSU looses next week :-)
Sun, 20 Nov 2011 04:36:09 +0000</description><styleUrl>#hideLabel</styleUrl>
<Point><coordinates>-78.791756,35.878975,0</coordinates></Point></Placemark>
<Placemark><name>joshhedger</name><description>@keithsewell I'd take that!
Sun, 20 Nov 2011 04:38:35 +0000</description><styleUrl>#hideLabel</styleUrl>
<Point><coordinates>-78.791756,35.878975,0</coordinates></Point></Placemark>
<Placemark><name>joshhedger</name><description>#BaylorBears defense is getting chewed up right now though
Sun, 20 Nov 2011 04:43:32 +0000</description><styleUrl>#hideLabel</styleUrl>
<Point><coordinates>-78.791756,35.878975,0</coordinates></Point></Placemark>
<Placemark><name>joshhedger</name><description>Even if #OU wins #Hogs could possibly jump them due to poor showing #WPS
Sun, 20 Nov 2011 04:42:56 +0000</description><styleUrl>#hideLabel</styleUrl>
<Point><coordinates>-78.791756,35.878975,0</coordinates></Point></Placemark>
<Placemark><name>donmullen</name><description>@rsanheim when are you going?
Sun, 20 Nov 2011 04:46:14 +0000</description><styleUrl>#hideLabel</styleUrl>
<Point><coordinates>-78.794500,35.875800,0</coordinates></Point></Placemark>
<Placemark><name>Brad_Matthews</name><description>&quot;...tonight, tonight..... I'm on my way, just set me free, home sweet home.....&quot; http://t.co/iQoOreiZ
Sun, 20 Nov 2011 04:55:22 +0000</description><styleUrl>#hideLabel</styleUrl>
<Point><coordinates>-78.789100,35.877400,0</coordinates></Point></Placemark>
<Placemark><name>joshhedger</name><description>Reminder: in preparation to move to the new building we are back in 2 services! 9:00 &amp; 10:45
Sun, 20 Nov 2011 05:31:27 +0000</description><styleUrl>#hideLabel</styleUrl>
<Point><coordinates>-78.791756,35.878975,0</coordinates></Point></Placemark>
<Placemark><name>ijeomaij</name><description>Let there be love
Sun, 20 Nov 2011 05:37:27 +0000</description><styleUrl>#hideLabel</styleUrl>
<Point><coordinates>-78.792403,35.877003,0</coordinates></Point></Placemark>
<Placemark><name>WaynetteTubbs</name><description>#sastip SAS Notes for SAS®9 - 20963: Use lower case when creating entities and sub-entities in SAS  Credit
Risk Man... http://t.co/zTZrIOKC
Sun, 20 Nov 2011 10:17:39 +0000</description><styleUrl>#hideLabel</styleUrl>
<Point><coordinates>-78.792920,35.875064,0</coordinates></Point></Placemark>
<Placemark><name>AmberBurnelis</name><description>I'm at Raleigh-Durham International Airport (RDU) (2400 W Terminal Blvd, at Aviation Pkwy, Raleigh) w/ 5 others http://t.co/tDj1yzGt
Sun, 20 Nov 2011 10:43:21 +0000</description><styleUrl>#hideLabel</styleUrl>
<Point><coordinates>-78.787222,35.877500,0</coordinates></Point></Placemark>
<Placemark><name>themaddestcat</name><description>Heading home after a lovely family weekend! (@ Raleigh-Durham International Airport (RDU) w/ 8 others) http://t.co/OeV25TkL
Sun, 20 Nov 2011 11:09:39 +0000</description><styleUrl>#hideLabel</styleUrl>
<Point><coordinates>-78.789100,35.877400,0</coordinates></Point></Placemark>
<Placemark><name>saulcolt</name><description>I'm at Raleigh-Durham International Airport (RDU) (2400 W Terminal Blvd, at Aviation Pkwy, Raleigh) w/ 9 others http://t.co/KFCR8Q06
Sun, 20 Nov 2011 12:38:31 +0000</description><styleUrl>#hideLabel</styleUrl>
<Point><coordinates>-78.787222,35.877500,0</coordinates></Point></Placemark>
<Placemark><name>joshhedger</name><description>Great day ahead! Worship w/ @freshwaterchrch . Then celebration of Gods gift by giving yours of the new building, then a relaxing afternoon
Sun, 20 Nov 2011 13:00:31 +0000</description><styleUrl>#hideLabel</styleUrl>
<Point><coordinates>-78.791756,35.878975,0</coordinates></Point></Placemark>
<Placemark><name>joshhedger</name><description>@ABlakeWhite @joethorn blake! How are you bro?
Sun, 20 Nov 2011 13:10:07 +0000</description><styleUrl>#hideLabel</styleUrl>
<Point><coordinates>-78.791756,35.878975,0</coordinates></Point></Placemark>
<Placemark><name>joshhedger</name><description>Hey @freshwaterchrch college students... We'll miss u today as u are home on break. Encourage ur home churches &amp; bless ur communities
Sun, 20 Nov 2011 13:09:09 +0000</description><styleUrl>#hideLabel</styleUrl>
<Point><coordinates>-78.791756,35.878975,0</coordinates></Point></Placemark>
<Placemark><name>joshhedger</name><description>Excited that today 150 Bolivar families will receive Thanksgiving Meals delivered to their homes! Thanks @freshwaterchrch &amp; BMS
Sun, 20 Nov 2011 13:47:25 +0000</description><styleUrl>#hideLabel</styleUrl>
<Point><coordinates>-78.791756,35.878975,0</coordinates></Point></Placemark>
<Placemark><name>ijeomaij</name><description>Lol me too @Dites_Lola @Kayneeezy
Sun, 20 Nov 2011 14:23:22 +0000</description><styleUrl>#hideLabel</styleUrl>
<Point><coordinates>-78.792403,35.877003,0</coordinates></Point></Placemark>
<Placemark><name>joshhedger</name><description>Pray for our #WestAfrica team today! They are in a taxi right now! It's the most dangerous part of the trip. Pray for safety &amp; rest.
Sun, 20 Nov 2011 14:36:17 +0000</description><styleUrl>#hideLabel</styleUrl>
<Point><coordinates>-78.791756,35.878975,0</coordinates></Point></Placemark>
<Placemark><name>joshhedger</name><description>By &quot;in a taxi&quot; I mean an 8-10 hour drive through the bush in a 4x4 station wagon!
Sun, 20 Nov 2011 14:37:55 +0000</description><styleUrl>#hideLabel</styleUrl>
<Point><coordinates>-78.791756,35.878975,0</coordinates></Point></Placemark>
<Placemark><name>Pamalee19</name><description>Waiting for this plane....to NY I go. Ready to see my family, oh how I've missed them so...
Sun, 20 Nov 2011 14:49:02 +0000</description><styleUrl>#hideLabel</styleUrl>
<Point><coordinates>-78.791500,35.879000,0</coordinates></Point></Placemark>
<Placemark><name>ijeomaij</name><description>What should I ask for my gift from Nigeria?
Sun, 20 Nov 2011 14:52:39 +0000</description><styleUrl>#hideLabel</styleUrl>
<Point><coordinates>-78.792403,35.877003,0</coordinates></Point></Placemark>
<Placemark><name>724Raleigh</name><description>Let's do this!  Totally pumped for 724 Church.
Sun, 20 Nov 2011 15:02:37 +0000</description><styleUrl>#hideLabel</styleUrl>
<Point><coordinates>-78.806861,35.874666,0</coordinates></Point></Placemark>
<Placemark><name>coytecooper</name><description>@DoctorGC I try to do what I can do...when I can do it ;-)
Sun, 20 Nov 2011 15:24:10 +0000</description><styleUrl>#hideLabel</styleUrl>
<Point><coordinates>-78.791100,35.879300,0</coordinates></Point></Placemark>
<Placemark><name>Pamalee19</name><description>The man beside me on the plane is meditating and he took his shoes off....I don't have a problem with that, but his feel smell bad
Sun, 20 Nov 2011 15:22:45 +0000</description><styleUrl>#hideLabel</styleUrl>
<Point><coordinates>-78.790900,35.879400,0</coordinates></Point></Placemark>
<Placemark><name>Pamalee19</name><description>Getting on the plane....why am I always so scared. These groupies are on here talking about their STD medications...not cool
Sun, 20 Nov 2011 15:21:01 +0000</description><styleUrl>#hideLabel</styleUrl>
<Point><coordinates>-78.790900,35.879200,0</coordinates></Point></Placemark>
<Placemark><name>skippypac</name><description>I'm at Raleigh-Durham International Airport (RDU) (2400 W Terminal Blvd, at Aviation Pkwy, Raleigh) w/ 10 others http://t.co/stEyOUVb
Sun, 20 Nov 2011 15:20:13 +0000</description><styleUrl>#hideLabel</styleUrl>
<Point><coordinates>-78.787222,35.877500,0</coordinates></Point></Placemark>
<Placemark><name>Pamalee19</name><description>@teejaysuave @taste_my_nukie ...y'all should have asked two weeks ago:( maybe next time
Sun, 20 Nov 2011 15:19:49 +0000</description><styleUrl>#hideLabel</styleUrl>
<Point><coordinates>-78.790900,35.879200,0</coordinates></Point></Placemark>
<Placemark><name>joshhedger</name><description>Have Hope: Jesus knows what it's like to be exhausted - @JTPattonJr @freshwaterchrch
Sun, 20 Nov 2011 15:35:44 +0000</description><styleUrl>#hideLabel</styleUrl>
<Point><coordinates>-78.791756,35.878975,0</coordinates></Point></Placemark>
<Placemark><name>joshhedger</name><description>What if we didn't react in exhaustion the way the world does? What if we acted as Jesus did w/ grace &amp; compassion? @JTPattonJr #FCBOLIVAR
Sun, 20 Nov 2011 15:40:45 +0000</description><styleUrl>#hideLabel</styleUrl>
<Point><coordinates>-78.791756,35.878975,0</coordinates></Point></Placemark>
<Placemark><name>joshhedger</name><description>What if we were angry over starving people, abused kids &amp; sin rather than at our spouses &amp; bosses for trivial things? @JTPattonJr #FCBOLIVAR
Sun, 20 Nov 2011 15:51:27 +0000</description><styleUrl>#hideLabel</styleUrl>
<Point><coordinates>-78.791756,35.878975,0</coordinates></Point></Placemark>
<Placemark><name>joshhedger</name><description>I just want you to get one thing: Jesus loves you! @JTPattonJr @freshwaterchrch
Sun, 20 Nov 2011 16:04:47 +0000</description><styleUrl>#hideLabel</styleUrl>
<Point><coordinates>-78.791756,35.878975,0</coordinates></Point></Placemark>
<Placemark><name>joshhedger</name><description>Jesus knew the wrath God had for sin and he still went to the cross to bear it. @JTPattonJr @freshwaterchrch
Sun, 20 Nov 2011 16:01:12 +0000</description><styleUrl>#hideLabel</styleUrl>
<Point><coordinates>-78.791756,35.878975,0</coordinates></Point></Placemark>
<Placemark><name>smashuri</name><description>I'm at Raleigh-Durham International Airport (RDU) (2400 W Terminal Blvd, at Aviation Pkwy, Raleigh) w/ 7 others http://t.co/ErQDNV4M
Sun, 20 Nov 2011 16:11:27 +0000</description><styleUrl>#hideLabel</styleUrl>
<Point><coordinates>-78.787222,35.877500,0</coordinates></Point></Placemark>
<Placemark><name>LeNicolette</name><description>Full body screening, pat-down, and my strawberry CHAPSTICK through the X-ray machine TWICE. I'm officially not a threat.
Sun, 20 Nov 2011 16:28:59 +0000</description><styleUrl>#hideLabel</styleUrl>
<Point><coordinates>-78.794500,35.875800,0</coordinates></Point></Placemark>
<Placemark><name>ijeomaij</name><description>I made a turkey this am. Cut the vegetables placed then in the roasting pan then I poured some (cont) http://t.co/cPBuWkUh
Sun, 20 Nov 2011 16:27:37 +0000</description><styleUrl>#hideLabel</styleUrl>
<Point><coordinates>-78.792403,35.877003,0</coordinates></Point></Placemark>
<Placemark><name>Grrrlledisko</name><description>I'm at Raleigh-Durham International Airport (RDU) (2400 W Terminal Blvd, at Aviation Pkwy, Raleigh) w/ 12 others http://t.co/BAVR7Emc
Sun, 20 Nov 2011 16:47:13 +0000</description><styleUrl>#hideLabel</styleUrl>
<Point><coordinates>-78.787222,35.877500,0</coordinates></Point></Placemark>
<Placemark><name>tonyablythe</name><description>RT @joshhedger: What if we were angry over starving people, abused kids &amp; sin rather than at our spouses &amp; bosses for trivial things? @JTPattonJr #FCBOLIVAR
Sun, 20 Nov 2011 16:53:36 +0000</description><styleUrl>#hideLabel</styleUrl>
<Point><coordinates>-78.791756,35.878975,0</coordinates></Point></Placemark>
<Placemark><name>joshhedger</name><description>I love having @freshwaterchrch men who are faithful to the Word &amp; faithful to Christ step up &amp; preach the Word for us. thnx @JTPattonJr
Sun, 20 Nov 2011 17:18:27 +0000</description><styleUrl>#hideLabel</styleUrl>
<Point><coordinates>-78.791756,35.878975,0</coordinates></Point></Placemark>
<Placemark><name>trogtrogdon</name><description>RT @joshhedger: I love having @freshwaterchrch men who are faithful to the Word &amp; faithful to Christ step up &amp; preach the Word for us. thnx @JTPattonJr
Sun, 20 Nov 2011 17:39:55 +0000</description><styleUrl>#hideLabel</styleUrl>
<Point><coordinates>-78.791756,35.878975,0</coordinates></Point></Placemark>
<Placemark><name>joshhedger</name><description>Don't let your pain be all about you. @JTPattonJr
Sun, 20 Nov 2011 17:48:46 +0000</description><styleUrl>#hideLabel</styleUrl>
<Point><coordinates>-78.791756,35.878975,0</coordinates></Point></Placemark>
<Placemark><name>webby2001</name><description>Hello, plane. Miss me? (@ Raleigh-Durham International Airport (RDU) w/ 15 others) http://t.co/u3J9dz7m
Sun, 20 Nov 2011 18:17:06 +0000</description><styleUrl>#hideLabel</styleUrl>
<Point><coordinates>-78.789100,35.877400,0</coordinates></Point></Placemark>
<Placemark><name>WaynetteTubbs</name><description>#sastip SAS Samples43052: Convert variables containing only numeric values from type character to numeric http://t.co/MHiTa43Y
Sun, 20 Nov 2011 18:31:51 +0000</description><styleUrl>#hideLabel</styleUrl>
<Point><coordinates>-78.792920,35.875064,0</coordinates></Point></Placemark>
<Placemark><name>DannyAkin</name><description>Having the joy of worshiping at FBC San Francisco with my 6 seminary prez &amp; wives. Proud of pastor Ryan Blackwell &amp; this congregation!
Sun, 20 Nov 2011 18:46:19 +0000</description><styleUrl>#hideLabel</styleUrl>
<Point><coordinates>-78.795902,35.875414,0</coordinates></Point></Placemark>
<Placemark><name>DobberDD</name><description>redskins are terrible but i love them
Sun, 20 Nov 2011 18:50:59 +0000</description><styleUrl>#hideLabel</styleUrl>
<Point><coordinates>-78.801302,35.870476,0</coordinates></Point></Placemark>
<Placemark><name>mbronson</name><description>RT @joshhedger: What if we were angry over starving people, abused kids &amp; sin rather than at our spouses &amp; bosses for trivial things? @JTPattonJr #FCBOLIVAR
Sun, 20 Nov 2011 19:00:31 +0000</description><styleUrl>#hideLabel</styleUrl>
<Point><coordinates>-78.791756,35.878975,0</coordinates></Point></Placemark>
<Placemark><name>sashajenn</name><description>I'm at Raleigh-Durham International Airport (RDU) (2400 W Terminal Blvd, at Aviation Pkwy, Raleigh) w/ 18 others http://t.co/XVtOwQKV
Sun, 20 Nov 2011 19:02:58 +0000</description><styleUrl>#hideLabel</styleUrl>
<Point><coordinates>-78.787222,35.877500,0</coordinates></Point></Placemark>
<Placemark><name>joshhedger</name><description>Just heard from our #WestAfrica team! You won't believe what God is doing!!!
Sun, 20 Nov 2011 19:13:51 +0000</description><styleUrl>#hideLabel</styleUrl>
<Point><coordinates>-78.791756,35.878975,0</coordinates></Point></Placemark>
<Placemark><name>ijeomaij</name><description>Lololololololol I'm sure ur girl wants one too maybe .....?  I also want a gift certificate to Nordstrom
 My favorite store @Kayneeezy
Sun, 20 Nov 2011 19:20:06 +0000</description><styleUrl>#hideLabel</styleUrl>
<Point><coordinates>-78.792403,35.877003,0</coordinates></Point></Placemark>
<Placemark><name>nyyanksgkw</name><description>Hanging out with the boy watcing the planes come in (@ Raleigh-Durham International Airport (RDU) w/ 21 others) [pic]: http://t.co/JRkxZWYb
Sun, 20 Nov 2011 19:20:41 +0000</description><styleUrl>#hideLabel</styleUrl>
<Point><coordinates>-78.789100,35.877400,0</coordinates></Point></Placemark>
<Placemark><name>AllisonTibbs</name><description>I'm at Raleigh-Durham International Airport (RDU) (2400 W Terminal Blvd, at Aviation Pkwy, Raleigh) w/ 21 others http://t.co/UK04vFOk
Sun, 20 Nov 2011 19:27:34 +0000</description><styleUrl>#hideLabel</styleUrl>
<Point><coordinates>-78.787222,35.877500,0</coordinates></Point></Placemark>
<Placemark><name>lauravpeters</name><description>Wore my Uggs and gloves yesterday. Today? 76 degrees!  Both the most annoying and most fav part of living in NC! #wearingrainbowstoday
Sun, 20 Nov 2011 19:29:10 +0000</description><styleUrl>#hideLabel</styleUrl>
<Point><coordinates>-78.802375,35.872930,0</coordinates></Point></Placemark>
<Placemark><name>lauravpeters</name><description>Kinda wishing Ty's basketball practice was outside!
Sun, 20 Nov 2011 19:31:25 +0000</description><styleUrl>#hideLabel</styleUrl>
<Point><coordinates>-78.802375,35.872930,0</coordinates></Point></Placemark>
<Placemark><name>DobberDD</name><description>TOUCHDOWN REDSKINS!  Now lets put Beck back in so we can stay in place for the Barkley/Luck sweepstakes...
Sun, 20 Nov 2011 19:38:23 +0000</description><styleUrl>#hideLabel</styleUrl>
<Point><coordinates>-78.801302,35.870476,0</coordinates></Point></Placemark>
<Placemark><name>ijeomaij</name><description>Omg my turkey turned out amazing #happydance
Sun, 20 Nov 2011 19:58:12 +0000</description><styleUrl>#hideLabel</styleUrl>
<Point><coordinates>-78.792403,35.877003,0</coordinates></Point></Placemark>
<Placemark><name>ijeomaij</name><description>25% off any item at Nordstrom rack is the best black Friday win ever. Hehehe
Sun, 20 Nov 2011 20:18:12 +0000</description><styleUrl>#hideLabel</styleUrl>
<Point><coordinates>-78.792403,35.877003,0</coordinates></Point></Placemark>
<Placemark><name>awexisfarrell</name><description>Oh Alli's on the plane too but she doesn't have a twitter.  #allineedsatwitter
Sun, 20 Nov 2011 20:19:17 +0000</description><styleUrl>#hideLabel</styleUrl>
<Point><coordinates>-78.791600,35.879700,0</coordinates></Point></Placemark>
<Placemark><name>srosekennedy</name><description>I'm at Raleigh-Durham International Airport (RDU) (2400 W Terminal Blvd, at Aviation Pkwy, Raleigh) w/ 27 others http://t.co/SuRuABbE
Sun, 20 Nov 2011 20:18:41 +0000</description><styleUrl>#hideLabel</styleUrl>
<Point><coordinates>-78.787222,35.877500,0</coordinates></Point></Placemark>
<Placemark><name>awexisfarrell</name><description>Goodbye North Carolina ✈✈✈✈ Dallas here we come!  @ashleysgotatwit @natgibs
Sun, 20 Nov 2011 20:18:29 +0000</description><styleUrl>#hideLabel</styleUrl>
<Point><coordinates>-78.791500,35.879600,0</coordinates></Point></Placemark>
<Placemark><name>ijeomaij</name><description>Lololo with a gift receipt @Kayneeezy
Sun, 20 Nov 2011 20:23:02 +0000</description><styleUrl>#hideLabel</styleUrl>
<Point><coordinates>-78.792403,35.877003,0</coordinates></Point></Placemark>
<Placemark><name>ijeomaij</name><description>I love Christmas shopping  i'ma giver
Sun, 20 Nov 2011 20:22:15 +0000</description><styleUrl>#hideLabel</styleUrl>
<Point><coordinates>-78.792403,35.877003,0</coordinates></Point></Placemark>
<Placemark><name>jenny_28_99</name><description>I'm at Raleigh-Durham International Airport (RDU) (2400 W Terminal Blvd, at Aviation Pkwy, Raleigh) w/ 29 others http://t.co/tzjlbsKe
Sun, 20 Nov 2011 20:24:51 +0000</description><styleUrl>#hideLabel</styleUrl>
<Point><coordinates>-78.787222,35.877500,0</coordinates></Point></Placemark>
<Placemark><name>awexisfarrell</name><description>The pilot just said something on our plane is broken. Great  I want my mommy!!
Sun, 20 Nov 2011 20:30:29 +0000</description><styleUrl>#hideLabel</styleUrl>
<Point><coordinates>-78.792900,35.878800,0</coordinates></Point></Placemark>
<Placemark><name>DobberDD</name><description>Wait for this pick #lifeofaskinsfan
Sun, 20 Nov 2011 20:57:13 +0000</description><styleUrl>#hideLabel</styleUrl>
<Point><coordinates>-78.801302,35.870476,0</coordinates></Point></Placemark>
<Placemark><name>DobberDD</name><description>Last minute FF swap B Wells - IN K Hunter - OUT -- Crossing fingers
Sun, 20 Nov 2011 21:10:29 +0000</description><styleUrl>#hideLabel</styleUrl>
<Point><coordinates>-78.801302,35.870476,0</coordinates></Point></Placemark>
<Placemark><name>DobberDD</name><description>HAHAHA  The Redskins SUCK!
Sun, 20 Nov 2011 21:28:46 +0000</description><styleUrl>#hideLabel</styleUrl>
<Point><coordinates>-78.801302,35.870476,0</coordinates></Point></Placemark>
<Placemark><name>DobberDD</name><description>@wingoz its Rex Grossman
Sun, 20 Nov 2011 21:27:42 +0000</description><styleUrl>#hideLabel</styleUrl>
<Point><coordinates>-78.801302,35.870476,0</coordinates></Point></Placemark>
<Placemark><name>DobberDD</name><description>Now we have lost Trent Williams for the season.... Can we forfeit the remaining games?
Sun, 20 Nov 2011 21:30:17 +0000</description><styleUrl>#hideLabel</styleUrl>
<Point><coordinates>-78.801302,35.870476,0</coordinates></Point></Placemark>
<Placemark><name>fieldpeaz</name><description>From 45 degrees to 75. Taking off the sweater and saying hello to sweet Caroline. http://t.co/qhTB4rO7
Sun, 20 Nov 2011 21:37:34 +0000</description><styleUrl>#hideLabel</styleUrl>
<Point><coordinates>-78.789100,35.877400,0</coordinates></Point></Placemark>
<Placemark><name>DobberDD</name><description>Skins losses hurt the worse and that is 6 straight....
Sun, 20 Nov 2011 21:40:31 +0000</description><styleUrl>#hideLabel</styleUrl>
<Point><coordinates>-78.801302,35.870476,0</coordinates></Point></Placemark>
<Placemark><name>FlightAttd4AA</name><description>I'm at Raleigh-Durham International Airport (RDU) (2400 W Terminal Blvd, at Aviation Pkwy, Raleigh) w/ 33 others http://t.co/dCDiSahy
Sun, 20 Nov 2011 21:49:50 +0000</description><styleUrl>#hideLabel</styleUrl>
<Point><coordinates>-78.787222,35.877500,0</coordinates></Point></Placemark>
<Placemark><name>benr4</name><description>I'm at Raleigh-Durham International Airport (RDU) (2400 W Terminal Blvd, at Aviation Pkwy, Raleigh) w/ 33 others http://t.co/IgmuzLBQ
Sun, 20 Nov 2011 21:55:34 +0000</description><styleUrl>#hideLabel</styleUrl>
<Point><coordinates>-78.787222,35.877500,0</coordinates></Point></Placemark>
<Placemark><name>adamo</name><description>Again... (@ Raleigh-Durham International Airport (RDU) w/ 36 others) http://t.co/zXGTNdtN
Sun, 20 Nov 2011 21:58:52 +0000</description><styleUrl>#hideLabel</styleUrl>
<Point><coordinates>-78.789100,35.877400,0</coordinates></Point></Placemark>
<Placemark><name>_benjones</name><description>I'm at Raleigh-Durham International Airport (RDU) (2400 W Terminal Blvd, at Aviation Pkwy, Raleigh) w/ 32 others http://t.co/PPmRTtle
Sun, 20 Nov 2011 22:26:12 +0000</description><styleUrl>#hideLabel</styleUrl>
<Point><coordinates>-78.787222,35.877500,0</coordinates></Point></Placemark>
<Placemark><name>DobberDD</name><description>Kelly just broke the news to me about how much she spent on the Family photos.... #notdecent
Sun, 20 Nov 2011 23:00:33 +0000</description><styleUrl>#hideLabel</styleUrl>
<Point><coordinates>-78.801302,35.870476,0</coordinates></Point></Placemark>
<Placemark><name>DobberDD</name><description>Still heated so I took a jog... Get this-$200 to come out and take pics #cool but add $475 for the (cont) http://t.co/JSLUOxK6
Sun, 20 Nov 2011 23:24:02 +0000</description><styleUrl>#hideLabel</styleUrl>
<Point><coordinates>-78.801302,35.870476,0</coordinates></Point></Placemark>
<Placemark><name>matthewdhickson</name><description>That flight felt unusually long!! But if I hadn't changed flights I would be still waiting to board in Miami! #Winning
Mon, 21 Nov 2011 00:11:55 +0000</description><styleUrl>#hideLabel</styleUrl>
<Point><coordinates>-78.799200,35.877900,0</coordinates></Point></Placemark>
<Placemark><name>joshhedger</name><description>65 on thanksgiving? That's not right at all.
Mon, 21 Nov 2011 00:27:40 +0000</description><styleUrl>#hideLabel</styleUrl>
<Point><coordinates>-78.791756,35.878975,0</coordinates></Point></Placemark>
<Placemark><name>VeganEddie</name><description>I'm at Raleigh-Durham International Airport (RDU) (2400 W Terminal Blvd, at Aviation Pkwy, Raleigh) w/ 19 others http://t.co/JziOPGQt
Mon, 21 Nov 2011 00:30:32 +0000</description><styleUrl>#hideLabel</styleUrl>
<Point><coordinates>-78.787222,35.877500,0</coordinates></Point></Placemark>
<Placemark><name>joshhedger</name><description>Chili &amp; football with the guys!
Mon, 21 Nov 2011 00:56:17 +0000</description><styleUrl>#hideLabel</styleUrl>
<Point><coordinates>-78.791756,35.878975,0</coordinates></Point></Placemark>
<Placemark><name>matthewpstewart</name><description>RT @DannyAkin: Having the joy of worshiping at FBC San Francisco with my 6 seminary prez &amp; wives. Proud of pastor Ryan Blackwell &amp; this congregation!
Mon, 21 Nov 2011 01:36:37 +0000</description><styleUrl>#hideLabel</styleUrl>
<Point><coordinates>-78.795902,35.875414,0</coordinates></Point></Placemark>
<Placemark><name>baptist21</name><description>RT @DannyAkin: Having the joy of worshiping at FBC San Francisco with my 6 seminary prez &amp; wives. Proud of pastor Ryan Blackwell &amp; this congregation!
Mon, 21 Nov 2011 01:38:28 +0000</description><styleUrl>#hideLabel</styleUrl>
<Point><coordinates>-78.795902,35.875414,0</coordinates></Point></Placemark>
<Placemark><name>joshhedger</name><description>#Hogs are number 3. Might not last long, but it feels good
Mon, 21 Nov 2011 01:44:53 +0000</description><styleUrl>#hideLabel</styleUrl>
<Point><coordinates>-78.791756,35.878975,0</coordinates></Point></Placemark>
<Placemark><name>CurryClaire</name><description>Love this airport! (@ Raleigh-Durham International Airport (RDU) w/ 21 others) http://t.co/BRDvjhI5
Mon, 21 Nov 2011 02:26:44 +0000</description><styleUrl>#hideLabel</styleUrl>
<Point><coordinates>-78.789100,35.877400,0</coordinates></Point></Placemark>
<Placemark><name>markruss7576</name><description>I'm at Raleigh-Durham International Airport (RDU) (2400 W Terminal Blvd, at Aviation Pkwy, Raleigh) w/ 25 others http://t.co/NUAvq78c
Mon, 21 Nov 2011 02:33:52 +0000</description><styleUrl>#hideLabel</styleUrl>
<Point><coordinates>-78.787222,35.877500,0</coordinates></Point></Placemark>
<Placemark><name>DannyAkin</name><description>“@gordonfort: Good to visit w/ Kevin E-good friend and visionary leader. NAMB is in good hands.”/ amen to that!
Mon, 21 Nov 2011 02:40:59 +0000</description><styleUrl>#hideLabel</styleUrl>
<Point><coordinates>-78.795902,35.875414,0</coordinates></Point></Placemark>
<Placemark><name>citystomper</name><description>A can keep his face plastered to the window during turbulence. Me? I just watched the plane wobble while landing and almost lost my shit.
Mon, 21 Nov 2011 03:50:15 +0000</description><styleUrl>#hideLabel</styleUrl>
<Point><coordinates>-78.798100,35.870300,0</coordinates></Point></Placemark>
<Placemark><name>DanBParksJr</name><description>I'm at Raleigh-Durham International Airport (RDU) (2400 W Terminal Blvd, at Aviation Pkwy, Raleigh) w/ 22 others http://t.co/YXDdkOdR
Mon, 21 Nov 2011 04:27:22 +0000</description><styleUrl>#hideLabel</styleUrl>
<Point><coordinates>-78.787222,35.877500,0</coordinates></Point></Placemark>
<Placemark><name>PilotRolf</name><description>I'm at Raleigh-Durham International Airport (RDU) (2400 W Terminal Blvd, at Aviation Pkwy, Raleigh) w/ 22 others http://t.co/HU6gujlu
Mon, 21 Nov 2011 04:33:25 +0000</description><styleUrl>#hideLabel</styleUrl>
<Point><coordinates>-78.787222,35.877500,0</coordinates></Point></Placemark>
<Placemark><name>joshhedger</name><description>@ReformedFundy: Pray for Pastor Craig Foote in Louisiana. Was badly beaten w/baseball bat while witnessing yesterday. Possible brain damage.
Mon, 21 Nov 2011 05:45:07 +0000</description><styleUrl>#hideLabel</styleUrl>
<Point><coordinates>-78.791756,35.878975,0</coordinates></Point></Placemark>
<Placemark><name>jamesbrittonjr</name><description>I'm at Raleigh-Durham International Airport (RDU) (2400 W Terminal Blvd, at Aviation Pkwy, Raleigh) w/ 9 others http://t.co/B3yXDdfQ
Mon, 21 Nov 2011 10:58:13 +0000</description><styleUrl>#hideLabel</styleUrl>
<Point><coordinates>-78.787222,35.877500,0</coordinates></Point></Placemark>
<Placemark><name>sunflowerkelly</name><description>On the way back home! Had a great weekend with my dad and his new wife and extended family. Back to Kansas for us! http://t.co/IJaGJMxh
Mon, 21 Nov 2011 10:57:41 +0000</description><styleUrl>#hideLabel</styleUrl>
<Point><coordinates>-78.789100,35.877400,0</coordinates></Point></Placemark>
<Placemark><name>delaneymaxell13</name><description>Everyone is pissing me off so badly today.
Mon, 21 Nov 2011 11:01:14 +0000</description><styleUrl>#hideLabel</styleUrl>
<Point><coordinates>-78.792800,35.877600,0</coordinates></Point></Placemark>
<Placemark><name>Dcal100</name><description>I'm at Raleigh-Durham International Airport (RDU) (2400 W Terminal Blvd, at Aviation Pkwy, Raleigh) w/ 15 others http://t.co/y07olPup
Mon, 21 Nov 2011 11:18:43 +0000</description><styleUrl>#hideLabel</styleUrl>
<Point><coordinates>-78.787222,35.877500,0</coordinates></Point></Placemark>
<Placemark><name>aferb</name><description>I'm so effin hot it's ridiculous.
Mon, 21 Nov 2011 11:18:32 +0000</description><styleUrl>#hideLabel</styleUrl>
<Point><coordinates>-78.800100,35.889100,0</coordinates></Point></Placemark>
<Placemark><name>aferb</name><description>This little old lady needs to calm down, we aren't even boarding yet crazy.
Mon, 21 Nov 2011 11:20:49 +0000</description><styleUrl>#hideLabel</styleUrl>
<Point><coordinates>-78.791500,35.874600,0</coordinates></Point></Placemark>
<Placemark><name>aferb</name><description>Green bay man, hands down.
Mon, 21 Nov 2011 11:23:05 +0000</description><styleUrl>#hideLabel</styleUrl>
<Point><coordinates>-78.789500,35.874900,0</coordinates></Point></Placemark>
<Placemark><name>aferb</name><description>There are 7 babies on my plane &amp; a grown man dressed in green bay gear from head to toe. Idk which one I'm more upset about...
Mon, 21 Nov 2011 11:22:54 +0000</description><styleUrl>#hideLabel</styleUrl>
<Point><coordinates>-78.792500,35.874300,0</coordinates></Point></Placemark>
<Placemark><name>mediajunkie</name><description>&quot;Just a Song Before I Go&quot; has become my inevitable earworm at airports now, going through security...
Mon, 21 Nov 2011 11:49:23 +0000</description><styleUrl>#hideLabel</styleUrl>
<Point><coordinates>-78.794500,35.875800,0</coordinates></Point></Placemark>
<Placemark><name>Brad_Matthews</name><description>&quot;....headin' to Atlanta where the playas play...&quot;. Trip #1 of the week to the land of Dale Murphy... http://t.co/rVt55wvX
Mon, 21 Nov 2011 11:57:28 +0000</description><styleUrl>#hideLabel</styleUrl>
<Point><coordinates>-78.789100,35.877400,0</coordinates></Point></Placemark>
<Placemark><name>jamesbrittonjr</name><description>@deborah91473 thanks :)
Mon, 21 Nov 2011 12:10:17 +0000</description><styleUrl>#hideLabel</styleUrl>
<Point><coordinates>-78.798900,35.882400,0</coordinates></Point></Placemark>
<Placemark><name>DannyAkin</name><description>RT @ryankblackwell: @DannyAkin thanks for the encouragement- really enjoyed having you worship with us this morning!/ thank you! Proud of U!
Mon, 21 Nov 2011 14:40:52 +0000</description><styleUrl>#hideLabel</styleUrl>
<Point><coordinates>-78.795902,35.875414,0</coordinates></Point></Placemark>
<Placemark><name>techsavvyguru</name><description>Just posted a 2.00 mi walk with @RunKeeper. Check it out! http://t.co/NCiZzYu0 #RunKeeper
Mon, 21 Nov 2011 15:03:58 +0000</description><styleUrl>#hideLabel</styleUrl>
<Point><coordinates>-78.788267,35.875313,0</coordinates></Point></Placemark>
<Placemark><name>NickChristy</name><description>I'm at Raleigh-Durham International Airport (RDU) (2400 W Terminal Blvd, at Aviation Pkwy, Raleigh) w/ 16 others http://t.co/bcgOlTZK
Mon, 21 Nov 2011 15:29:03 +0000</description><styleUrl>#hideLabel</styleUrl>
<Point><coordinates>-78.787222,35.877500,0</coordinates></Point></Placemark>
<Placemark><name>lauravpeters</name><description>“@jtaylorworship: Wow P90X has nothing on the ninja virus #3dayweightlossplan”// can I come over and drink out of your cup?!
Mon, 21 Nov 2011 16:00:25 +0000</description><styleUrl>#hideLabel</styleUrl>
<Point><coordinates>-78.802375,35.872930,0</coordinates></Point></Placemark>
<Placemark><name>WaynetteTubbs</name><description>@PNbot WOW!
Mon, 21 Nov 2011 16:18:43 +0000</description><styleUrl>#hideLabel</styleUrl>
<Point><coordinates>-78.792920,35.875064,0</coordinates></Point></Placemark>
<Placemark><name>WaynetteTubbs</name><description>@communitygirl Wonderful!
Mon, 21 Nov 2011 16:36:08 +0000</description><styleUrl>#hideLabel</styleUrl>
<Point><coordinates>-78.792920,35.875064,0</coordinates></Point></Placemark>
<Placemark><name>WaynetteTubbs</name><description>@garciasn Thanks re: @Savethevikesorg Looking into it now. Have a happy holiday!
Mon, 21 Nov 2011 16:35:36 +0000</description><styleUrl>#hideLabel</styleUrl>
<Point><coordinates>-78.792920,35.875064,0</coordinates></Point></Placemark>
<Placemark><name>DobberDD</name><description>@Birksuva @HokiesFan4NYY last time we were there Mr Schaub laid it on us so I think we are sitting it out. Should be great atmosphere.
Mon, 21 Nov 2011 17:04:44 +0000</description><styleUrl>#hideLabel</styleUrl>
<Point><coordinates>-78.801302,35.870476,0</coordinates></Point></Placemark>
<Placemark><name>km_tracey</name><description>I'm at Raleigh-Durham International Airport (RDU) (2400 W Terminal Blvd, at Aviation Pkwy, Raleigh) w/ 22 others http://t.co/2NkFzeW0
Mon, 21 Nov 2011 17:23:07 +0000</description><styleUrl>#hideLabel</styleUrl>
<Point><coordinates>-78.787222,35.877500,0</coordinates></Point></Placemark>
<Placemark><name>AshleyCuvs</name><description>Ughhhh layover (@ Raleigh-Durham International Airport (RDU) w/ 18 others) http://t.co/eAwa11ek
Mon, 21 Nov 2011 18:26:29 +0000</description><styleUrl>#hideLabel</styleUrl>
<Point><coordinates>-78.789100,35.877400,0</coordinates></Point></Placemark>
<Placemark><name>ijeomaij</name><description>I'm gonna 
Make this soon @Nki_Bekee  http://t.co/SUb7fg36
Mon, 21 Nov 2011 19:41:45 +0000</description><styleUrl>#hideLabel</styleUrl>
<Point><coordinates>-78.792403,35.877003,0</coordinates></Point></Placemark>
<Placemark><name>ebonyebee</name><description>I'm at Raleigh-Durham International Airport (RDU) (2400 W Terminal Blvd, at Aviation Pkwy, Raleigh) w/ 19 others http://t.co/OFxpvdql
Mon, 21 Nov 2011 20:35:23 +0000</description><styleUrl>#hideLabel</styleUrl>
<Point><coordinates>-78.787222,35.877500,0</coordinates></Point></Placemark>
<Placemark><name>ijeomaij</name><description>Ohh that's a good gift :) check Nordstrom, Bloomingdales  or saks fifth avenue if all else fails u (cont) http://t.co/axM8i2B2
Mon, 21 Nov 2011 21:18:50 +0000</description><styleUrl>#hideLabel</styleUrl>
<Point><coordinates>-78.792403,35.877003,0</coordinates></Point></Placemark>
<Placemark><name>JKnight08</name><description>En route to Little Rock for interview numero dos  #jetsetting
Mon, 21 Nov 2011 21:43:46 +0000</description><styleUrl>#hideLabel</styleUrl>
<Point><coordinates>-78.794200,35.874000,0</coordinates></Point></Placemark>
<Placemark><name>DannyAkin</name><description>RT @tonymerida: RT @plattdavid: We have a daughter!  http://t.co/cmWvrcZu // pure awesomeness, bro. Praise God./ Amen and amen!!!!
Mon, 21 Nov 2011 21:46:51 +0000</description><styleUrl>#hideLabel</styleUrl>
<Point><coordinates>-78.795902,35.875414,0</coordinates></Point></Placemark>
<Placemark><name>caa92</name><description>There should be buttons for life. Awake, asleep, drunk, sober, hot and cold... And a teleport button. #threehours #dirtyjerz #609
Mon, 21 Nov 2011 21:58:32 +0000</description><styleUrl>#hideLabel</styleUrl>
<Point><coordinates>-78.795100,35.876000,0</coordinates></Point></Placemark>
<Placemark><name>DannyAkin</name><description>Wishing my beautiful wife of 33 years a very happy birthday! I am married to a great lady!
Mon, 21 Nov 2011 22:18:30 +0000</description><styleUrl>#hideLabel</styleUrl>
<Point><coordinates>-78.795902,35.875414,0</coordinates></Point></Placemark>
<Placemark><name>JonathanBullock</name><description>I'm at Raleigh-Durham International Airport (RDU) (2400 W Terminal Blvd, at Aviation Pkwy, Raleigh) w/ 25 others http://t.co/pvCF5I43
Mon, 21 Nov 2011 22:19:29 +0000</description><styleUrl>#hideLabel</styleUrl>
<Point><coordinates>-78.787222,35.877500,0</coordinates></Point></Placemark>
<Placemark><name>GarrettVentry</name><description>RT @DannyAkin: RT @tonymerida: RT @plattdavid: We have a daughter!  http://t.co/cmWvrcZu // pure awesomeness, bro. Praise God./ Amen and amen!!!!
Mon, 21 Nov 2011 22:37:02 +0000</description><styleUrl>#hideLabel</styleUrl>
<Point><coordinates>-78.795902,35.875414,0</coordinates></Point></Placemark>
<Placemark><name>AbbyDraper</name><description>Please be easy (@ Raleigh-Durham International Airport (RDU) w/ 30 others) http://t.co/ViwYn7Qe
Mon, 21 Nov 2011 22:44:05 +0000</description><styleUrl>#hideLabel</styleUrl>
<Point><coordinates>-78.789100,35.877400,0</coordinates></Point></Placemark>
<Placemark><name>Bricks2314</name><description>@P_On_It stop acting like a bitch @Jacques_Insane @Damn_Rome
Mon, 21 Nov 2011 22:50:59 +0000</description><styleUrl>#hideLabel</styleUrl>
<Point><coordinates>-78.793400,35.881700,0</coordinates></Point></Placemark>
<Placemark><name>ijeomaij</name><description>How's ur up jawbone bracelet? I'm still thinking about getting one. @ajarrodjenkins
Mon, 21 Nov 2011 22:54:24 +0000</description><styleUrl>#hideLabel</styleUrl>
<Point><coordinates>-78.792403,35.877003,0</coordinates></Point></Placemark>
<Placemark><name>joshhedger</name><description>I love cold, rainy days
Mon, 21 Nov 2011 23:01:36 +0000</description><styleUrl>#hideLabel</styleUrl>
<Point><coordinates>-78.791756,35.878975,0</coordinates></Point></Placemark>
<Placemark><name>AbbyDraper</name><description>&quot;girl where you been? I ain't seen you in a minute.&quot; Nice to be a regular at the airport bar (@ A.J.'s Tavern) http://t.co/0TfI4zEB
Mon, 21 Nov 2011 23:06:42 +0000</description><styleUrl>#hideLabel</styleUrl>
<Point><coordinates>-78.787900,35.875900,0</coordinates></Point></Placemark>
<Placemark><name>ijeomaij</name><description>Lol no cut @Im_Key
Mon, 21 Nov 2011 23:09:10 +0000</description><styleUrl>#hideLabel</styleUrl>
<Point><coordinates>-78.792403,35.877003,0</coordinates></Point></Placemark>
<Placemark><name>shayanasadi</name><description>I'm at Raleigh-Durham International Airport (RDU) (2400 W Terminal Blvd, at Aviation Pkwy, Raleigh) w/ 25 others http://t.co/gqT0qcNP
Mon, 21 Nov 2011 23:08:52 +0000</description><styleUrl>#hideLabel</styleUrl>
<Point><coordinates>-78.787222,35.877500,0</coordinates></Point></Placemark>
<Placemark><name>CallRoadTrip</name><description>I'm at Raleigh-Durham International Airport (RDU) (2400 W Terminal Blvd, at Aviation Pkwy, Raleigh) w/ 26 others http://t.co/QKIdnFjG
Mon, 21 Nov 2011 23:12:12 +0000</description><styleUrl>#hideLabel</styleUrl>
<Point><coordinates>-78.787222,35.877500,0</coordinates></Point></Placemark>
<Placemark><name>madisonshook</name><description>I'm at Raleigh-Durham International Airport (RDU) (2400 W Terminal Blvd, at Aviation Pkwy, Raleigh) w/ 24 others http://t.co/kGcClF2L
Mon, 21 Nov 2011 23:35:12 +0000</description><styleUrl>#hideLabel</styleUrl>
<Point><coordinates>-78.787222,35.877500,0</coordinates></Point></Placemark>
<Placemark><name>ijeomaij</name><description>Ever look through your own pics on Facebook and wonder where all your clothes went?
Mon, 21 Nov 2011 23:41:05 +0000</description><styleUrl>#hideLabel</styleUrl>
<Point><coordinates>-78.792403,35.877003,0</coordinates></Point></Placemark>
<Placemark><name>DobberDD</name><description>@ESPNAndyKatz Where do you see the young Hokies? Obviously a better gage after they play Cuse Wednesday
Mon, 21 Nov 2011 23:51:06 +0000</description><styleUrl>#hideLabel</styleUrl>
<Point><coordinates>-78.801302,35.870476,0</coordinates></Point></Placemark>
<Placemark><name>ijeomaij</name><description>Just finished. Facebook stalking #:)
Mon, 21 Nov 2011 23:54:28 +0000</description><styleUrl>#hideLabel</styleUrl>
<Point><coordinates>-78.792403,35.877003,0</coordinates></Point></Placemark>
<Placemark><name>DobberDD</name><description>5 minutes of the Duke game and my blood boils wth hatred. The calls they get are unbelievable #mauihomecooking
Tue, 22 Nov 2011 00:28:03 +0000</description><styleUrl>#hideLabel</styleUrl>
<Point><coordinates>-78.801302,35.870476,0</coordinates></Point></Placemark>
<Placemark><name>nshizirungupat</name><description>I'm home yeeh!!
Tue, 22 Nov 2011 00:59:21 +0000</description><styleUrl>#hideLabel</styleUrl>
<Point><coordinates>-78.789700,35.875300,0</coordinates></Point></Placemark>
<Placemark><name>DobberDD</name><description>If Hokies win out and Bama beats Auburn then we play Rutgers in the Orange Bowl! There will be 500 people there #fail
Tue, 22 Nov 2011 01:59:41 +0000</description><styleUrl>#hideLabel</styleUrl>
<Point><coordinates>-78.801302,35.870476,0</coordinates></Point></Placemark>
<Placemark><name>Brad_Matthews</name><description>I'm at Raleigh-Durham International Airport (RDU) (2400 W Terminal Blvd, at Aviation Pkwy, Raleigh) w/ 16 others http://t.co/MeG8IPPW
Tue, 22 Nov 2011 02:01:03 +0000</description><styleUrl>#hideLabel</styleUrl>
<Point><coordinates>-78.787222,35.877500,0</coordinates></Point></Placemark>
<Placemark><name>trapeENT</name><description>@x_SoftLips why we braek up
Tue, 22 Nov 2011 02:04:08 +0000</description><styleUrl>#hideLabel</styleUrl>
<Point><coordinates>-78.798300,35.871000,0</coordinates></Point></Placemark>
<Placemark><name>ISOWolf1</name><description>I'm at Raleigh-Durham International Airport (RDU) (2400 W Terminal Blvd, at Aviation Pkwy, Raleigh) w/ 17 others http://t.co/RnObiXOx
Tue, 22 Nov 2011 02:07:16 +0000</description><styleUrl>#hideLabel</styleUrl>
<Point><coordinates>-78.787222,35.877500,0</coordinates></Point></Placemark>
<Placemark><name>trapeENT</name><description>@x_SoftLips so u cant. Chose ur own boyfriend now
Tue, 22 Nov 2011 02:05:39 +0000</description><styleUrl>#hideLabel</styleUrl>
<Point><coordinates>-78.798400,35.871000,0</coordinates></Point></Placemark>
<Placemark><name>DobberDD</name><description>@BeTrueChristy What is your email?
Tue, 22 Nov 2011 02:52:27 +0000</description><styleUrl>#hideLabel</styleUrl>
<Point><coordinates>-78.801302,35.870476,0</coordinates></Point></Placemark>
<Placemark><name>DobberDD</name><description>@EEWVU She had a blast and everything else ended up all good.
Tue, 22 Nov 2011 03:06:23 +0000</description><styleUrl>#hideLabel</styleUrl>
<Point><coordinates>-78.801302,35.870476,0</coordinates></Point></Placemark>
<Placemark><name>joshhedger</name><description>Hey Palko, triple coverage = don't throw. Thanks.
Tue, 22 Nov 2011 04:02:44 +0000</description><styleUrl>#hideLabel</styleUrl>
<Point><coordinates>-78.791756,35.878975,0</coordinates></Point></Placemark>
<Placemark><name>WaylanOwens</name><description>RT @DannyAkin: Wishing my beautiful wife of 33 years a very happy birthday! I am married to a great lady!
Tue, 22 Nov 2011 04:33:45 +0000</description><styleUrl>#hideLabel</styleUrl>
<Point><coordinates>-78.795902,35.875414,0</coordinates></Point></Placemark>
<Placemark><name>jdonalds</name><description>Home. Home at last. (@ Raleigh-Durham International Airport (RDU) w/ 16 others) http://t.co/8dS04re5
Tue, 22 Nov 2011 04:55:27 +0000</description><styleUrl>#hideLabel</styleUrl>
<Point><coordinates>-78.789100,35.877400,0</coordinates></Point></Placemark>
<Placemark><name>ImJustTamario</name><description>@Miss_Tanya_Lulu preciate you
Tue, 22 Nov 2011 06:41:29 +0000</description><styleUrl>#hideLabel</styleUrl>
<Point><coordinates>-78.791200,35.878300,0</coordinates></Point></Placemark>
<Placemark><name>ImJustTamario</name><description>@Miss_Tanya_Lulu thanks for everything
Tue, 22 Nov 2011 06:39:48 +0000</description><styleUrl>#hideLabel</styleUrl>
<Point><coordinates>-78.793900,35.879700,0</coordinates></Point></Placemark>
<Placemark><name>ImJustTamario</name><description>@choclatechiclet I'm just now seeing this
Tue, 22 Nov 2011 06:39:24 +0000</description><styleUrl>#hideLabel</styleUrl>
<Point><coordinates>-78.793900,35.879700,0</coordinates></Point></Placemark>
<Placemark><name>ImJustTamario</name><description>@_yoSHEbad_ not for a long long time I'm in the airport headed to bama right now
Tue, 22 Nov 2011 06:43:50 +0000</description><styleUrl>#hideLabel</styleUrl>
<Point><coordinates>-78.791300,35.878300,0</coordinates></Point></Placemark>
<Placemark><name>ImJustTamario</name><description>@_yoSHEbad_ don't lol I'll be there soon enough
Tue, 22 Nov 2011 06:46:34 +0000</description><styleUrl>#hideLabel</styleUrl>
<Point><coordinates>-78.791300,35.878300,0</coordinates></Point></Placemark>
<Placemark><name>ImJustTamario</name><description>@_yoSHEbad_ lol I know right
Tue, 22 Nov 2011 06:51:09 +0000</description><styleUrl>#hideLabel</styleUrl>
<Point><coordinates>-78.791300,35.878300,0</coordinates></Point></Placemark>
<Placemark><name>JordanAytch</name><description>I'm at Raleigh-Durham International Airport (RDU) (2400 W Terminal Blvd, at Aviation Pkwy, Raleigh) w/ 3 others http://t.co/YaCU1l72
Tue, 22 Nov 2011 09:42:38 +0000</description><styleUrl>#hideLabel</styleUrl>
<Point><coordinates>-78.787222,35.877500,0</coordinates></Point></Placemark>
<Placemark><name>Officiallyy_Urs</name><description>Going through this airport security!!....
Tue, 22 Nov 2011 10:10:33 +0000</description><styleUrl>#hideLabel</styleUrl>
<Point><coordinates>-78.791500,35.877000,0</coordinates></Point></Placemark>
<Placemark><name>geoffreymyers</name><description>I'm at Raleigh-Durham International Airport (RDU) (2400 W Terminal Blvd, at Aviation Pkwy, Raleigh) w/ 6 others http://t.co/Umbc9Ehu
Tue, 22 Nov 2011 10:09:09 +0000</description><styleUrl>#hideLabel</styleUrl>
<Point><coordinates>-78.787222,35.877500,0</coordinates></Point></Placemark>
<Placemark><name>JordanAytch</name><description>Hour and a half until the flight leaves
Tue, 22 Nov 2011 10:32:21 +0000</description><styleUrl>#hideLabel</styleUrl>
<Point><coordinates>-78.787600,35.889800,0</coordinates></Point></Placemark>
<Placemark><name>YoungGA01</name><description>Tattoo appointment tomorrow #tattedlife
Tue, 22 Nov 2011 10:57:34 +0000</description><styleUrl>#hideLabel</styleUrl>
<Point><coordinates>-78.798900,35.890800,0</coordinates></Point></Placemark>
<Placemark><name>CamrynCrawford</name><description>@alyssamartinn love you lyss!!! I really hope you reset your alarm....  Or else your gonna force me to move out.  :(
Tue, 22 Nov 2011 11:14:47 +0000</description><styleUrl>#hideLabel</styleUrl>
<Point><coordinates>-78.777300,35.886500,0</coordinates></Point></Placemark>
<Placemark><name>ImJustTamario</name><description>So I just ran into Spencer McCall and his nephew at the airport lol small world
Tue, 22 Nov 2011 11:13:57 +0000</description><styleUrl>#hideLabel</styleUrl>
<Point><coordinates>-78.791100,35.878100,0</coordinates></Point></Placemark>
<Placemark><name>YoungGA01</name><description>#ladies #teamfollowback
Tue, 22 Nov 2011 11:25:40 +0000</description><styleUrl>#hideLabel</styleUrl>
<Point><coordinates>-78.793400,35.881700,0</coordinates></Point></Placemark>
<Placemark><name>YoungGA01</name><description>Home sweet home almost there
Tue, 22 Nov 2011 11:37:11 +0000</description><styleUrl>#hideLabel</styleUrl>
<Point><coordinates>-78.793400,35.881700,0</coordinates></Point></Placemark>
<Placemark><name>elsammons</name><description>Couple hours early, breakfast before TCI. (@ Raleigh-Durham International Airport (RDU) w/ 21 others) http://t.co/ubHxK1O9
Tue, 22 Nov 2011 11:57:46 +0000</description><styleUrl>#hideLabel</styleUrl>
<Point><coordinates>-78.789100,35.877400,0</coordinates></Point></Placemark>
<Placemark><name>ImJustTamario</name><description>S/O to @Kei_BADDx2 for this fresh prince tho I'm dyin lol
Tue, 22 Nov 2011 12:39:43 +0000</description><styleUrl>#hideLabel</styleUrl>
<Point><coordinates>-78.791100,35.878100,0</coordinates></Point></Placemark>
<Placemark><name>MrSarcasm_haha</name><description>Paco stunting on these bitches  http://t.co/7Qua63L8
Tue, 22 Nov 2011 13:07:18 +0000</description><styleUrl>#hideLabel</styleUrl>
<Point><coordinates>-78.802000,35.885100,0</coordinates></Point></Placemark>
<Placemark><name>ImJustTamario</name><description>@JC_POV I didn't either but I want a daughter now lol
Tue, 22 Nov 2011 13:23:53 +0000</description><styleUrl>#hideLabel</styleUrl>
<Point><coordinates>-78.791300,35.878300,0</coordinates></Point></Placemark>
<Placemark><name>ImJustTamario</name><description>@JC_POV (silence) oh shit me too lol
Tue, 22 Nov 2011 13:28:17 +0000</description><styleUrl>#hideLabel</styleUrl>
<Point><coordinates>-78.791300,35.878300,0</coordinates></Point></Placemark>
<Placemark><name>WaynetteTubbs</name><description>SAS users lasso learning at SCSUG Educational Forum 2011 http://t.co/IUkIfL8T #sasusers
Tue, 22 Nov 2011 13:26:42 +0000</description><styleUrl>#hideLabel</styleUrl>
<Point><coordinates>-78.792920,35.875064,0</coordinates></Point></Placemark>
<Placemark><name>cfeuer</name><description>Off to DC! (@ Raleigh-Durham International Airport (RDU) w/ 15 others) http://t.co/vl2S1d0I
Tue, 22 Nov 2011 13:49:49 +0000</description><styleUrl>#hideLabel</styleUrl>
<Point><coordinates>-78.789100,35.877400,0</coordinates></Point></Placemark>
<Placemark><name>ImJustTamario</name><description>@BuiltLikeAMack guess I better hurry up and get to that other leg
Tue, 22 Nov 2011 14:09:09 +0000</description><styleUrl>#hideLabel</styleUrl>
<Point><coordinates>-78.791300,35.878300,0</coordinates></Point></Placemark>
<Placemark><name>CurryClaire</name><description>Lolz. (@ Hertz Bus To Terminal) http://t.co/2B5v0cLa
Tue, 22 Nov 2011 14:23:13 +0000</description><styleUrl>#hideLabel</styleUrl>
<Point><coordinates>-78.798800,35.868800,0</coordinates></Point></Placemark>
<Placemark><name>CurryClaire</name><description>Home! (@ Raleigh-Durham International Airport (RDU) w/ 18 others) http://t.co/eJnHy8MO
Tue, 22 Nov 2011 14:25:36 +0000</description><styleUrl>#hideLabel</styleUrl>
<Point><coordinates>-78.789100,35.877400,0</coordinates></Point></Placemark>
<Placemark><name>the_ASPEARS</name><description>I'm at Raleigh-Durham International Airport (RDU) (2400 W Terminal Blvd, at Aviation Pkwy, Raleigh) w/ 18 others http://t.co/hxgGzC9Q
Tue, 22 Nov 2011 14:24:10 +0000</description><styleUrl>#hideLabel</styleUrl>
<Point><coordinates>-78.787222,35.877500,0</coordinates></Point></Placemark>
<Placemark><name>Rynoth</name><description>I'm at Raleigh-Durham International Airport (RDU) (2400 W Terminal Blvd, at Aviation Pkwy, Raleigh) w/ 19 others http://t.co/WJ6ph1Nq
Tue, 22 Nov 2011 14:37:08 +0000</description><styleUrl>#hideLabel</styleUrl>
<Point><coordinates>-78.787222,35.877500,0</coordinates></Point></Placemark>
<Placemark><name>CurryClaire</name><description>I didn't know they had one of these here! Yay! (@ American Airlines Admirals Club) http://t.co/zk75KQkc
Tue, 22 Nov 2011 14:44:12 +0000</description><styleUrl>#hideLabel</styleUrl>
<Point><coordinates>-78.792800,35.878000,0</coordinates></Point></Placemark>
<Placemark><name>joshhedger</name><description>Hey college students! Don't miss the Winter Retreat! Theme: required.  @freshwaterchrch @a_dbeck http://t.co/CMHq41ZW
Tue, 22 Nov 2011 14:47:08 +0000</description><styleUrl>#hideLabel</styleUrl>
<Point><coordinates>-78.791756,35.878975,0</coordinates></Point></Placemark>
<Placemark><name>joshhedger</name><description>It's winter! Here is the @freshwaterchrch Inclement Weather policy... http://t.co/KpVkzzzy
Tue, 22 Nov 2011 14:44:57 +0000</description><styleUrl>#hideLabel</styleUrl>
<Point><coordinates>-78.791756,35.878975,0</coordinates></Point></Placemark>
<Placemark><name>JonathanBullock</name><description>I'm at Raleigh-Durham International Airport (RDU) (2400 W Terminal Blvd, at Aviation Pkwy, Raleigh) w/ 19 others http://t.co/7ccJyjjX
Tue, 22 Nov 2011 14:44:50 +0000</description><styleUrl>#hideLabel</styleUrl>
<Point><coordinates>-78.787222,35.877500,0</coordinates></Point></Placemark>
<Placemark><name>joshhedger</name><description>@jdavis582 are u using old what's up commercials for super winter?!?!
Tue, 22 Nov 2011 15:32:57 +0000</description><styleUrl>#hideLabel</styleUrl>
<Point><coordinates>-78.791756,35.878975,0</coordinates></Point></Placemark>
<Placemark><name>joshhedger</name><description>@jdavis582 lol good call
Tue, 22 Nov 2011 15:36:40 +0000</description><styleUrl>#hideLabel</styleUrl>
<Point><coordinates>-78.791756,35.878975,0</coordinates></Point></Placemark>
<Placemark><name>kbenson3067</name><description>I'm at Raleigh-Durham International Airport (RDU) (2400 W Terminal Blvd, at Aviation Pkwy, Raleigh) w/ 23 others http://t.co/jVZQmyDu
Tue, 22 Nov 2011 15:38:26 +0000</description><styleUrl>#hideLabel</styleUrl>
<Point><coordinates>-78.787222,35.877500,0</coordinates></Point></Placemark>
<Placemark><name>joshhedger</name><description>@jdavis582 3 messages from me? Anything you want me to know? Beginning study process today
Tue, 22 Nov 2011 15:37:13 +0000</description><styleUrl>#hideLabel</styleUrl>
<Point><coordinates>-78.791756,35.878975,0</coordinates></Point></Placemark>
<Placemark><name>leahisgreene</name><description>Any Elon-ers in the Raliegh/Durham airport who wants to hangout with me?? #lonely
Tue, 22 Nov 2011 15:55:09 +0000</description><styleUrl>#hideLabel</styleUrl>
<Point><coordinates>-78.792000,35.878900,0</coordinates></Point></Placemark>
<Placemark><name>joshhedger</name><description>@jdavis582 that'd be awesome! I'll read through it as soon as I get it from u
Tue, 22 Nov 2011 15:54:09 +0000</description><styleUrl>#hideLabel</styleUrl>
<Point><coordinates>-78.791756,35.878975,0</coordinates></Point></Placemark>
<Placemark><name>mikeblan</name><description>Doing laps (@ Raleigh-Durham International Airport (RDU) w/ 22 others) http://t.co/MD5f0LXH
Tue, 22 Nov 2011 16:08:37 +0000</description><styleUrl>#hideLabel</styleUrl>
<Point><coordinates>-78.789100,35.877400,0</coordinates></Point></Placemark>
<Placemark><name>nycinme</name><description>I'm at Raleigh-Durham International Airport (RDU) (2400 W Terminal Blvd, at Aviation Pkwy, Raleigh) w/ 23 others http://t.co/Q6HLLH9I
Tue, 22 Nov 2011 16:15:35 +0000</description><styleUrl>#hideLabel</styleUrl>
<Point><coordinates>-78.787222,35.877500,0</coordinates></Point></Placemark>
<Placemark><name>bdperkin</name><description>Currently reading http://t.co/5f3IeofY
Tue, 22 Nov 2011 16:31:02 +0000</description><styleUrl>#hideLabel</styleUrl>
<Point><coordinates>-78.785000,35.872100,0</coordinates></Point></Placemark>
<Placemark><name>joshhedger</name><description>Studying Jn3:25-36 for #SuperWinter11 One of the most powerful expressions of gospel-centered humility I've ever heard. #AdvanceTheGospel
Tue, 22 Nov 2011 16:39:17 +0000</description><styleUrl>#hideLabel</styleUrl>
<Point><coordinates>-78.791756,35.878975,0</coordinates></Point></Placemark>
<Placemark><name>NilRealty</name><description>Kansas City.....Here I come with Erol! (@ 42nd Street Oyster Bar) http://t.co/aXLGmCzA
Tue, 22 Nov 2011 16:50:17 +0000</description><styleUrl>#hideLabel</styleUrl>
<Point><coordinates>-78.793400,35.876500,0</coordinates></Point></Placemark>
<Placemark><name>leahisgreene</name><description>@madisonaubrey if you get here before 12:30, I'll be at gate C7!!!!
Tue, 22 Nov 2011 16:53:17 +0000</description><styleUrl>#hideLabel</styleUrl>
<Point><coordinates>-78.792700,35.878300,0</coordinates></Point></Placemark>
<Placemark><name>Tommysmo</name><description>I'm at Raleigh-Durham International Airport (RDU) (2400 W Terminal Blvd, at Aviation Pkwy, Raleigh) w/ 17 others http://t.co/ozjoqUd2
Tue, 22 Nov 2011 17:09:10 +0000</description><styleUrl>#hideLabel</styleUrl>
<Point><coordinates>-78.787222,35.877500,0</coordinates></Point></Placemark>
<Placemark><name>BeckyBravo</name><description>I'm at Raleigh-Durham International Airport (RDU) (2400 W Terminal Blvd, at Aviation Pkwy, Raleigh) w/ 18 others http://t.co/U1MQKZYi
Tue, 22 Nov 2011 17:19:28 +0000</description><styleUrl>#hideLabel</styleUrl>
<Point><coordinates>-78.787222,35.877500,0</coordinates></Point></Placemark>
<Placemark><name>Usual_Politics</name><description>http://t.co/Bhpk1d5b
Tue, 22 Nov 2011 17:21:48 +0000</description><styleUrl>#hideLabel</styleUrl>
<Point><coordinates>-78.778700,35.864300,0</coordinates></Point></Placemark>
<Placemark><name>WaynetteTubbs</name><description>#sastip SAS Notes for SAS®9 - 20963: Use lower case when creating entities and sub-entities in SAS  Credit
Risk Man... http://t.co/bg3VlSq4
Tue, 22 Nov 2011 17:23:21 +0000</description><styleUrl>#hideLabel</styleUrl>
<Point><coordinates>-78.792920,35.875064,0</coordinates></Point></Placemark>
<Placemark><name>joshhedger</name><description>Pray for a close friend of mine who received some life-changing bad news today.  May God's grace surround his family.
Tue, 22 Nov 2011 17:53:25 +0000</description><styleUrl>#hideLabel</styleUrl>
<Point><coordinates>-78.791756,35.878975,0</coordinates></Point></Placemark>
<Placemark><name>ijeomaij</name><description>Good luck chica @NaijaCoverGirl
Tue, 22 Nov 2011 17:53:16 +0000</description><styleUrl>#hideLabel</styleUrl>
<Point><coordinates>-78.792403,35.877003,0</coordinates></Point></Placemark>