<?xml version="1.0" encoding="UTF-8"?><kml xmlns="http://www.opengis.net/kml/2.2"><Document>
<Style id="hideLabel"><LabelStyle><scale>0</scale></LabelStyle></Style>
<Placemark><name>davidknies</name><description>I'm at Orlando International Airport (MCO) (1 Jeff Fuqua Boulevard, btwn SR-528 &amp; SR-417, Orlando) w/ 80 others http://t.co/0BtwhJ4O
Fri, 18 Nov 2011 16:18:16 +0000</description><styleUrl>#hideLabel</styleUrl>
<Point><coordinates>-81.315833,28.428889,0</coordinates></Point></Placemark>
<Placemark><name>Tweet3po</name><description>#TrashDumping 9323B AIRPORT BV 32827 (11/18 10:45) #Orlando #OrlandoInternationalAirport
Fri, 18 Nov 2011 15:54:42 +0000</description><styleUrl>#hideLabel</styleUrl>
<Point><coordinates>-81.305100,28.431200,0</coordinates></Point></Placemark>
<Placemark><name>dianec_</name><description>I'm at Manchester Oxford Road Railway Station (MCO) (Oxford Rd., Whitworth Street West, Manchester) http://t.co/XlSfNYhu
Fri, 18 Nov 2011 15:49:45 +0000</description><styleUrl>#hideLabel</styleUrl>
<Point><coordinates>-81.315833,28.428889,0</coordinates></Point></Placemark>
<Placemark><name>boatingBonnieC</name><description>They even make Disneys Magical Express fun!  @ Disney Magical Express http://t.co/PWx5r4Ia
Fri, 18 Nov 2011 15:39:28 +0000</description><styleUrl>#hideLabel</styleUrl>
<Point><coordinates>-81.309300,28.430100,0</coordinates></Point></Placemark>
<Placemark><name>nathaneide</name><description>I'm at Orlando International Airport (MCO) (1 Jeff Fuqua Boulevard, btwn SR-528 &amp; SR-417, Orlando) w/ 69 others http://t.co/W4vRkDfm
Fri, 18 Nov 2011 15:37:31 +0000</description><styleUrl>#hideLabel</styleUrl>
<Point><coordinates>-81.315833,28.428889,0</coordinates></Point></Placemark>
<Placemark><name>disney4ever</name><description>Home after a flawless trip on @Delta!  – at MCO Orlando International http://t.co/swwyCWbF
Fri, 18 Nov 2011 16:36:25 +0000</description><styleUrl>#hideLabel</styleUrl>
<Point><coordinates>-81.307600,28.431100,0</coordinates></Point></Placemark>
<Placemark><name>FAS_Outreach</name><description>GSA Is Creating Opportunities for Veterans http://t.co/Ge6IiBun via @USGSA #gsa
Fri, 18 Nov 2011 16:36:23 +0000</description><styleUrl>#hideLabel</styleUrl>
<Point><coordinates>-81.318952,28.432695,0</coordinates></Point></Placemark>
<Placemark><name>Tweet3po</name><description>#LostFoundProperty 9237 AIRPORT BV 32827 (11/18 11:21) #Orlando #OrlandoInternationalAirport
Fri, 18 Nov 2011 16:38:41 +0000</description><styleUrl>#hideLabel</styleUrl>
<Point><coordinates>-81.305100,28.430600,0</coordinates></Point></Placemark>
<Placemark><name>80zkidzklub</name><description>Food  http://t.co/jfVNtZEZ
Fri, 18 Nov 2011 16:40:36 +0000</description><styleUrl>#hideLabel</styleUrl>
<Point><coordinates>-81.306218,28.429698,0</coordinates></Point></Placemark>
<Placemark><name>ryanjefferys</name><description>Good week at #otcw headed back to Wilmington so see my awesome wife.
Fri, 18 Nov 2011 16:40:28 +0000</description><styleUrl>#hideLabel</styleUrl>
<Point><coordinates>-81.300900,28.427000,0</coordinates></Point></Placemark>
<Placemark><name>orlpol32827</name><description>#LostFoundProperty at 9237 Airport Blvd. #orlpol
Fri, 18 Nov 2011 16:40:14 +0000</description><styleUrl>#hideLabel</styleUrl>
<Point><coordinates>-81.305500,28.433700,0</coordinates></Point></Placemark>
<Placemark><name>markanand</name><description>I'm at Orlando International Airport (MCO) (1 Jeff Fuqua Boulevard, btwn SR-528 &amp; SR-417, Orlando) w/ 79 others http://t.co/3sHVth0V
Fri, 18 Nov 2011 16:46:24 +0000</description><styleUrl>#hideLabel</styleUrl>
<Point><coordinates>-81.315833,28.428889,0</coordinates></Point></Placemark>
<Placemark><name>cj96ss</name><description>LEAVIN on a JET PLANE! (@ Orlando International Airport (MCO) w/ 77 others) http://t.co/Ur1g4M2a
Fri, 18 Nov 2011 16:50:26 +0000</description><styleUrl>#hideLabel</styleUrl>
<Point><coordinates>-81.308400,28.430900,0</coordinates></Point></Placemark>
<Placemark><name>PSource7</name><description>RT @FAS_Outreach: GSA Is Creating Opportunities for Veterans http://t.co/Ge6IiBun via @USGSA #gsa
Fri, 18 Nov 2011 17:01:34 +0000</description><styleUrl>#hideLabel</styleUrl>
<Point><coordinates>-81.318952,28.432695,0</coordinates></Point></Placemark>
<Placemark><name>billycreech</name><description>Prepping to head back. (@ Orlando International Airport (MCO) w/ 77 others) http://t.co/8TSp0WGH
Fri, 18 Nov 2011 17:03:38 +0000</description><styleUrl>#hideLabel</styleUrl>
<Point><coordinates>-81.308400,28.430900,0</coordinates></Point></Placemark>
<Placemark><name>LadyJane65583</name><description>I'm at Orlando International Airport (MCO) (1 Jeff Fuqua Boulevard, btwn SR-528 &amp; SR-417, Orlando) w/ 79 others http://t.co/hd3ddVfB
Fri, 18 Nov 2011 17:11:05 +0000</description><styleUrl>#hideLabel</styleUrl>
<Point><coordinates>-81.315833,28.428889,0</coordinates></Point></Placemark>
<Placemark><name>andrewjhowellny</name><description>I'm at Orlando International Airport (MCO) (1 Jeff Fuqua Boulevard, btwn SR-528 &amp; SR-417, Orlando) w/ 80 others http://t.co/bKKfVqNe
Fri, 18 Nov 2011 17:13:25 +0000</description><styleUrl>#hideLabel</styleUrl>
<Point><coordinates>-81.315833,28.428889,0</coordinates></Point></Placemark>
<Placemark><name>Jasmine_Tiara</name><description>I'm at Orlando International Airport (MCO) (1 Jeff Fuqua Boulevard, btwn SR-528 &amp; SR-417, Orlando) w/ 83 others http://t.co/HptINuYw
Fri, 18 Nov 2011 17:28:12 +0000</description><styleUrl>#hideLabel</styleUrl>
<Point><coordinates>-81.315833,28.428889,0</coordinates></Point></Placemark>
<Placemark><name>80zkidzklub</name><description>What's up tweoples
Fri, 18 Nov 2011 17:35:36 +0000</description><styleUrl>#hideLabel</styleUrl>
<Point><coordinates>-81.306218,28.429698,0</coordinates></Point></Placemark>
<Placemark><name>80zkidzklub</name><description>Who has instagram
Fri, 18 Nov 2011 17:43:18 +0000</description><styleUrl>#hideLabel</styleUrl>
<Point><coordinates>-81.306218,28.429698,0</coordinates></Point></Placemark>
<Placemark><name>80zkidzklub</name><description>@ShylaStarr yo  need you to hook it up
Fri, 18 Nov 2011 17:41:59 +0000</description><styleUrl>#hideLabel</styleUrl>
<Point><coordinates>-81.306218,28.429698,0</coordinates></Point></Placemark>
<Placemark><name>80zkidzklub</name><description>Stop making excuses
Fri, 18 Nov 2011 17:45:04 +0000</description><styleUrl>#hideLabel</styleUrl>
<Point><coordinates>-81.306218,28.429698,0</coordinates></Point></Placemark>
<Placemark><name>80zkidzklub</name><description>Damn people outside in line already for black Friday ..at bestbuy SMH
Fri, 18 Nov 2011 17:48:14 +0000</description><styleUrl>#hideLabel</styleUrl>
<Point><coordinates>-81.306218,28.429698,0</coordinates></Point></Placemark>
<Placemark><name>HumbleTyrant</name><description>Just touched down!!!!!!!!!!
Fri, 18 Nov 2011 17:50:39 +0000</description><styleUrl>#hideLabel</styleUrl>
<Point><coordinates>-81.314600,28.426400,0</coordinates></Point></Placemark>
<Placemark><name>80zkidzklub</name><description>Damn another person missing in Florida
Fri, 18 Nov 2011 17:50:19 +0000</description><styleUrl>#hideLabel</styleUrl>
<Point><coordinates>-81.306218,28.429698,0</coordinates></Point></Placemark>
<Placemark><name>jrm258147</name><description>I'm at Orlando International Airport (MCO) (1 Jeff Fuqua Boulevard, btwn SR-528 &amp; SR-417, Orlando) w/ 80 others http://t.co/Ot2PmFKz
Fri, 18 Nov 2011 18:06:39 +0000</description><styleUrl>#hideLabel</styleUrl>
<Point><coordinates>-81.315833,28.428889,0</coordinates></Point></Placemark>
<Placemark><name>jonathanatlanta</name><description>Security lines suck at #MCO. #ATL does it much better, even during Friday rush hour http://t.co/rJEfQBLA
Fri, 18 Nov 2011 18:14:50 +0000</description><styleUrl>#hideLabel</styleUrl>
<Point><coordinates>-81.308400,28.430900,0</coordinates></Point></Placemark>
<Placemark><name>jamesbmoore</name><description>I'm at Orlando International Airport (MCO) (1 Jeff Fuqua Boulevard, btwn SR-528 &amp; SR-417, Orlando) w/ 80 others http://t.co/AnImB1lI
Fri, 18 Nov 2011 18:17:46 +0000</description><styleUrl>#hideLabel</styleUrl>
<Point><coordinates>-81.315833,28.428889,0</coordinates></Point></Placemark>
<Placemark><name>roxyek</name><description>@187arcade how many times do I have to tell you, YES. lol #chill
Fri, 18 Nov 2011 18:21:22 +0000</description><styleUrl>#hideLabel</styleUrl>
<Point><coordinates>-81.306800,28.431100,0</coordinates></Point></Placemark>
<Placemark><name>roxyek</name><description>Airport security is such a cluster. #leaveittoflorida
Fri, 18 Nov 2011 18:49:04 +0000</description><styleUrl>#hideLabel</styleUrl>
<Point><coordinates>-81.301900,28.427800,0</coordinates></Point></Placemark>
<Placemark><name>roxyek</name><description>Trading this for snow tomorrow! #notevenmad http://t.co/FY5iGlOb
Fri, 18 Nov 2011 18:51:39 +0000</description><styleUrl>#hideLabel</styleUrl>
<Point><coordinates>-81.300200,28.428300,0</coordinates></Point></Placemark>
<Placemark><name>Tweet3po</name><description>#GeneralInvestigation TRADEPORT DR &amp; EXPRESS ST 32827 (11/18 13:54) #Orlando #OrlandoInternationalAirport
Fri, 18 Nov 2011 19:03:44 +0000</description><styleUrl>#hideLabel</styleUrl>
<Point><coordinates>-81.334600,28.426700,0</coordinates></Point></Placemark>
<Placemark><name>TheHarleyGuy</name><description>I got 2 words for travel to Orlando, &quot;where's Mickey?&quot; I wish I was headed to the Mouse House instead of where I'm... http://t.co/Uku8nyFK
Fri, 18 Nov 2011 19:05:56 +0000</description><styleUrl>#hideLabel</styleUrl>
<Point><coordinates>-81.308400,28.430900,0</coordinates></Point></Placemark>
<Placemark><name>nateboxx</name><description>I'm at Orlando International Airport (MCO) (1 Jeff Fuqua Boulevard, btwn SR-528 &amp; SR-417, Orlando) w/ 79 others http://t.co/vhY4DLti
Fri, 18 Nov 2011 19:14:58 +0000</description><styleUrl>#hideLabel</styleUrl>
<Point><coordinates>-81.315833,28.428889,0</coordinates></Point></Placemark>
<Placemark><name>jenali</name><description>We're here!!!!!! (@ Orlando International Airport (MCO) w/ 73 others) http://t.co/g7OQOTwf
Fri, 18 Nov 2011 19:31:39 +0000</description><styleUrl>#hideLabel</styleUrl>
<Point><coordinates>-81.308400,28.430900,0</coordinates></Point></Placemark>
<Placemark><name>marcusethan</name><description>I'm at Orlando International Airport (MCO) (1 Jeff Fuqua Boulevard, btwn SR-528 &amp; SR-417, Orlando) w/ 77 others http://t.co/zY7FY0l9
Fri, 18 Nov 2011 19:40:28 +0000</description><styleUrl>#hideLabel</styleUrl>
<Point><coordinates>-81.315833,28.428889,0</coordinates></Point></Placemark>
<Placemark><name>_vidabella</name><description>Home =\ (@ Orlando International Airport (MCO) w/ 80 others) http://t.co/aoSerVQl
Fri, 18 Nov 2011 19:49:04 +0000</description><styleUrl>#hideLabel</styleUrl>
<Point><coordinates>-81.308400,28.430900,0</coordinates></Point></Placemark>
<Placemark><name>80zkidzklub</name><description>Time to workout
Fri, 18 Nov 2011 19:53:17 +0000</description><styleUrl>#hideLabel</styleUrl>
<Point><coordinates>-81.306218,28.429698,0</coordinates></Point></Placemark>
<Placemark><name>Tweet3po</name><description>#GeneralInvestigation 9321 AIRPORT BV 32827 (11/18 14:42) #Orlando #OrlandoInternationalAirport
Fri, 18 Nov 2011 19:55:41 +0000</description><styleUrl>#hideLabel</styleUrl>
<Point><coordinates>-81.305100,28.431200,0</coordinates></Point></Placemark>
<Placemark><name>80zkidzklub</name><description>@CultureClimax @pauladeanda @Pworldwide  sample of the documentary I'm working on &quot;breakfast in Europe&quot; http://t.co/1YOQYTy1
Fri, 18 Nov 2011 19:57:09 +0000</description><styleUrl>#hideLabel</styleUrl>
<Point><coordinates>-81.306218,28.429698,0</coordinates></Point></Placemark>
<Placemark><name>DJDTWR</name><description>I'm at Orlando International Airport (MCO) (1 Jeff Fuqua Boulevard, btwn SR-528 &amp; SR-417, Orlando) w/ 84 others http://t.co/hSXKLYrd
Fri, 18 Nov 2011 20:00:00 +0000</description><styleUrl>#hideLabel</styleUrl>
<Point><coordinates>-81.315833,28.428889,0</coordinates></Point></Placemark>
<Placemark><name>jadey_f_baby</name><description>@S_Corrigan18 happy birthday !
Fri, 18 Nov 2011 20:05:13 +0000</description><styleUrl>#hideLabel</styleUrl>
<Point><coordinates>-81.301900,28.436000,0</coordinates></Point></Placemark>
<Placemark><name>wallyatkins</name><description>I'm at Orlando International Airport (MCO) (1 Jeff Fuqua Boulevard, btwn SR-528 &amp; SR-417, Orlando) w/ 81 others http://t.co/tGuv62AG
Fri, 18 Nov 2011 20:13:05 +0000</description><styleUrl>#hideLabel</styleUrl>
<Point><coordinates>-81.315833,28.428889,0</coordinates></Point></Placemark>
<Placemark><name>Mr_Argyle08</name><description>Just got to hotel for the classic cant wait to chill
Fri, 18 Nov 2011 20:19:29 +0000</description><styleUrl>#hideLabel</styleUrl>
<Point><coordinates>-81.327500,28.429100,0</coordinates></Point></Placemark>
<Placemark><name>KayleeCORE</name><description>Well, ready to go
Fri, 18 Nov 2011 20:27:14 +0000</description><styleUrl>#hideLabel</styleUrl>
<Point><coordinates>-81.300900,28.428200,0</coordinates></Point></Placemark>
<Placemark><name>80zkidzklub</name><description>Whats up New followers
Fri, 18 Nov 2011 20:49:18 +0000</description><styleUrl>#hideLabel</styleUrl>
<Point><coordinates>-81.306218,28.429698,0</coordinates></Point></Placemark>
<Placemark><name>AnnieTangUK</name><description>I'm at Orlando International Airport (MCO) (1 Jeff Fuqua Boulevard, btwn SR-528 &amp; SR-417, Orlando) w/ 75 others http://t.co/pfggPf4r
Fri, 18 Nov 2011 20:51:03 +0000</description><styleUrl>#hideLabel</styleUrl>
<Point><coordinates>-81.315833,28.428889,0</coordinates></Point></Placemark>
<Placemark><name>betoblanco507</name><description>I'm at Orlando International Airport (MCO) (1 Jeff Fuqua Boulevard, btwn SR-528 &amp; SR-417, Orlando) w/ 74 others http://t.co/EuOoEwk5
Fri, 18 Nov 2011 20:56:38 +0000</description><styleUrl>#hideLabel</styleUrl>
<Point><coordinates>-81.315833,28.428889,0</coordinates></Point></Placemark>
<Placemark><name>80zkidzklub</name><description>#FF @Pworldwide @CultureClimax @GiftedTheGreat @shesNikkiMarie @erinpepper @VBVitality @marcusjmuzik @NASCARJOE @80zkidzklub @pauladeanda
Fri, 18 Nov 2011 20:59:03 +0000</description><styleUrl>#hideLabel</styleUrl>
<Point><coordinates>-81.306218,28.429698,0</coordinates></Point></Placemark>
<Placemark><name>schoebdoo</name><description>I'm at Orlando International Airport (MCO) (1 Jeff Fuqua Boulevard, btwn SR-528 &amp; SR-417, Orlando) w/ 74 others http://t.co/o9Sxg1t4
Fri, 18 Nov 2011 21:05:27 +0000</description><styleUrl>#hideLabel</styleUrl>
<Point><coordinates>-81.315833,28.428889,0</coordinates></Point></Placemark>
<Placemark><name>Tweet3po</name><description>#GeneralDisturbance 9082 AIRPORT BV 32827 (11/18 15:54) #Orlando #OrlandoInternationalAirport
Fri, 18 Nov 2011 21:07:44 +0000</description><styleUrl>#hideLabel</styleUrl>
<Point><coordinates>-81.305200,28.431200,0</coordinates></Point></Placemark>
<Placemark><name>orlpol32827</name><description>#GeneralDisturbance at 9082 Airport Blvd. #orlpol
Fri, 18 Nov 2011 21:10:17 +0000</description><styleUrl>#hideLabel</styleUrl>
<Point><coordinates>-81.305600,28.433800,0</coordinates></Point></Placemark>
<Placemark><name>80zkidzklub</name><description>Wish a nigga &quot;wood&quot; like a tree in this bitch
Fri, 18 Nov 2011 21:12:08 +0000</description><styleUrl>#hideLabel</styleUrl>
<Point><coordinates>-81.306218,28.429698,0</coordinates></Point></Placemark>
<Placemark><name>80zkidzklub</name><description>damn why do people keep stealing my pictures ..didnt know people still did that
Fri, 18 Nov 2011 21:13:11 +0000</description><styleUrl>#hideLabel</styleUrl>
<Point><coordinates>-81.306218,28.429698,0</coordinates></Point></Placemark>
<Placemark><name>MRJOHNDILLENGER</name><description>On the flight to Nevada!
Fri, 18 Nov 2011 21:21:45 +0000</description><styleUrl>#hideLabel</styleUrl>
<Point><coordinates>-81.300300,28.427900,0</coordinates></Point></Placemark>
<Placemark><name>80zkidzklub</name><description>yo this lady on DR.OZ has some big ass eyes
Fri, 18 Nov 2011 21:22:40 +0000</description><styleUrl>#hideLabel</styleUrl>
<Point><coordinates>-81.306218,28.429698,0</coordinates></Point></Placemark>
<Placemark><name>tbevilacqua</name><description>I'm at Orlando International Airport (MCO) (1 Jeff Fuqua Boulevard, btwn SR-528 &amp; SR-417, Orlando) w/ 75 others http://t.co/c1o5Im9O
Fri, 18 Nov 2011 21:24:19 +0000</description><styleUrl>#hideLabel</styleUrl>
<Point><coordinates>-81.315833,28.428889,0</coordinates></Point></Placemark>
<Placemark><name>Dwoody83</name><description>Smh........this is a hot ghetto mess (@ Alamo Rent A Car) http://t.co/p7BUgyvm
Fri, 18 Nov 2011 21:27:39 +0000</description><styleUrl>#hideLabel</styleUrl>
<Point><coordinates>-81.308400,28.432300,0</coordinates></Point></Placemark>
<Placemark><name>sandywilder</name><description>Part 2 of my day:) (@ Orlando International Airport (MCO) w/ 81 others) http://t.co/n52CI8su
Fri, 18 Nov 2011 21:31:52 +0000</description><styleUrl>#hideLabel</styleUrl>
<Point><coordinates>-81.308400,28.430900,0</coordinates></Point></Placemark>
<Placemark><name>80zkidzklub</name><description>Random what happen to @Parishilton ?
Fri, 18 Nov 2011 21:32:07 +0000</description><styleUrl>#hideLabel</styleUrl>
<Point><coordinates>-81.306218,28.429698,0</coordinates></Point></Placemark>
<Placemark><name>80zkidzklub</name><description>@Yelawolf ready for that album Homie
Fri, 18 Nov 2011 21:34:45 +0000</description><styleUrl>#hideLabel</styleUrl>
<Point><coordinates>-81.306218,28.429698,0</coordinates></Point></Placemark>
<Placemark><name>sherryannvogel</name><description>great place to catch up on fb and have a few cold brews (@ Kafe Kalik Bar &amp; Grill) http://t.co/zq1m4DYW
Fri, 18 Nov 2011 21:44:00 +0000</description><styleUrl>#hideLabel</styleUrl>
<Point><coordinates>-81.301900,28.435000,0</coordinates></Point></Placemark>
<Placemark><name>80zkidzklub</name><description>Time to hit the showers after the workout
Fri, 18 Nov 2011 21:45:55 +0000</description><styleUrl>#hideLabel</styleUrl>
<Point><coordinates>-81.306218,28.429698,0</coordinates></Point></Placemark>
<Placemark><name>nvore</name><description>I'm at Orlando International Airport (MCO) (1 Jeff Fuqua Boulevard, btwn SR-528 &amp; SR-417, Orlando) w/ 79 others http://t.co/VBAGG3Ru
Fri, 18 Nov 2011 21:45:18 +0000</description><styleUrl>#hideLabel</styleUrl>
<Point><coordinates>-81.315833,28.428889,0</coordinates></Point></Placemark>
<Placemark><name>DannyBaggs</name><description>I'm at Orlando International Airport (MCO) (1 Jeff Fuqua Boulevard, btwn SR-528 &amp; SR-417, Orlando) w/ 80 others http://t.co/nUnSxb8E
Fri, 18 Nov 2011 21:55:06 +0000</description><styleUrl>#hideLabel</styleUrl>
<Point><coordinates>-81.315833,28.428889,0</coordinates></Point></Placemark>
<Placemark><name>MrItty</name><description>I'm at Orlando International Airport (MCO) (1 Jeff Fuqua Boulevard, btwn SR-528 &amp; SR-417, Orlando) w/ 80 others http://t.co/E0NMiAKX
Fri, 18 Nov 2011 22:09:37 +0000</description><styleUrl>#hideLabel</styleUrl>
<Point><coordinates>-81.315833,28.428889,0</coordinates></Point></Placemark>
<Placemark><name>LJustinWhiteJr</name><description>Thank You AB! The airport is not bad when it's VIP! (@ Orlando International Airport (MCO) w/ 72 others) [pic]: http://t.co/ZAIGDUZF
Fri, 18 Nov 2011 22:36:39 +0000</description><styleUrl>#hideLabel</styleUrl>
<Point><coordinates>-81.308400,28.430900,0</coordinates></Point></Placemark>
<Placemark><name>shrichards</name><description>Headed home after the wildly successful 2011 VUEWorks User Conference at Walt Disney World (@ Gate 121) http://t.co/y8fEy3Ke
Fri, 18 Nov 2011 22:42:09 +0000</description><styleUrl>#hideLabel</styleUrl>
<Point><coordinates>-81.300900,28.434800,0</coordinates></Point></Placemark>
<Placemark><name>80zkidzklub</name><description>Locked myself out of my bed room SMH
Fri, 18 Nov 2011 22:47:35 +0000</description><styleUrl>#hideLabel</styleUrl>
<Point><coordinates>-81.306218,28.429698,0</coordinates></Point></Placemark>
<Placemark><name>Margebo23</name><description>Omg omg omg omg. #fiveagain (@ Orlando International Airport (MCO) w/ 72 others) http://t.co/5covbVxm
Fri, 18 Nov 2011 22:54:36 +0000</description><styleUrl>#hideLabel</styleUrl>
<Point><coordinates>-81.308400,28.430900,0</coordinates></Point></Placemark>
<Placemark><name>erinford</name><description>Yes it is too soon! http://t.co/HfRIQPVh
Fri, 18 Nov 2011 22:58:24 +0000</description><styleUrl>#hideLabel</styleUrl>
<Point><coordinates>-81.309000,28.432100,0</coordinates></Point></Placemark>
<Placemark><name>donbarger</name><description>Mickey says howdy! (@ Orlando International Airport (MCO) w/ 69 others) http://t.co/sTQC3GRp
Fri, 18 Nov 2011 23:06:01 +0000</description><styleUrl>#hideLabel</styleUrl>
<Point><coordinates>-81.308400,28.430900,0</coordinates></Point></Placemark>
<Placemark><name>ron3672</name><description>I'm at Orlando International Airport (MCO) (1 Jeff Fuqua Boulevard, btwn SR-528 &amp; SR-417, Orlando) w/ 68 others http://t.co/72m5chrZ
Fri, 18 Nov 2011 23:05:37 +0000</description><styleUrl>#hideLabel</styleUrl>
<Point><coordinates>-81.315833,28.428889,0</coordinates></Point></Placemark>
<Placemark><name>sometimes_nat</name><description>I cannot wait to see my grandma happy again.
Fri, 18 Nov 2011 23:07:10 +0000</description><styleUrl>#hideLabel</styleUrl>
<Point><coordinates>-81.318488,28.424062,0</coordinates></Point></Placemark>
<Placemark><name>TomCroom</name><description>I'm at Orlando International Airport (MCO) (1 Jeff Fuqua Boulevard, btwn SR-528 &amp; SR-417, Orlando) w/ 69 others http://t.co/9VdTmUzc
Fri, 18 Nov 2011 23:10:14 +0000</description><styleUrl>#hideLabel</styleUrl>
<Point><coordinates>-81.315833,28.428889,0</coordinates></Point></Placemark>
<Placemark><name>lenfontes</name><description>Back on known soil. (@ Orlando International Airport (MCO) w/ 67 others) http://t.co/4pFhG1D8
Fri, 18 Nov 2011 23:16:18 +0000</description><styleUrl>#hideLabel</styleUrl>
<Point><coordinates>-81.308400,28.430900,0</coordinates></Point></Placemark>
<Placemark><name>lenfontes</name><description>Woo Hoo! Bags made it. I'm all here! (@ Terminal B) http://t.co/R1q9nyEJ
Fri, 18 Nov 2011 23:23:07 +0000</description><styleUrl>#hideLabel</styleUrl>
<Point><coordinates>-81.308400,28.429800,0</coordinates></Point></Placemark>
<Placemark><name>sscavanagh</name><description>I'm at Orlando International Airport (MCO) (1 Jeff Fuqua Boulevard, btwn SR-528 &amp; SR-417, Orlando) w/ 68 others http://t.co/FlbOGntk
Fri, 18 Nov 2011 23:25:27 +0000</description><styleUrl>#hideLabel</styleUrl>
<Point><coordinates>-81.315833,28.428889,0</coordinates></Point></Placemark>
<Placemark><name>rrrstars</name><description>I'm at Orlando International Airport (MCO) (1 Jeff Fuqua Boulevard, btwn SR-528 &amp; SR-417, Orlando) w/ 71 others http://t.co/K7zsiHkP
Fri, 18 Nov 2011 23:49:38 +0000</description><styleUrl>#hideLabel</styleUrl>
<Point><coordinates>-81.315833,28.428889,0</coordinates></Point></Placemark>
<Placemark><name>KenDawgYoda</name><description>I'm at Orlando International Airport (MCO) (1 Jeff Fuqua Boulevard, btwn SR-528 &amp; SR-417, Orlando) w/ 71 others http://t.co/Lo9DfjFT
Fri, 18 Nov 2011 23:50:26 +0000</description><styleUrl>#hideLabel</styleUrl>
<Point><coordinates>-81.315833,28.428889,0</coordinates></Point></Placemark>
<Placemark><name>donbarger</name><description>Yippee!!!! (@ Disney Magical Express) http://t.co/HRc1KmIm
Fri, 18 Nov 2011 23:50:19 +0000</description><styleUrl>#hideLabel</styleUrl>
<Point><coordinates>-81.309300,28.430100,0</coordinates></Point></Placemark>
<Placemark><name>JohnnyDiggz</name><description>And we're baaaack (@ Orlando International Airport (MCO) w/ 72 others) http://t.co/4f1XX430
Fri, 18 Nov 2011 23:55:30 +0000</description><styleUrl>#hideLabel</styleUrl>
<Point><coordinates>-81.308400,28.430900,0</coordinates></Point></Placemark>
<Placemark><name>eliter</name><description>Home. (@ Orlando International Airport (MCO) w/ 72 others) http://t.co/cjE0OmY1
Fri, 18 Nov 2011 23:56:57 +0000</description><styleUrl>#hideLabel</styleUrl>
<Point><coordinates>-81.308400,28.430900,0</coordinates></Point></Placemark>
<Placemark><name>mrmikeflynn</name><description>Too bad #OWS is too dumb to realize it's them and people like them that have voted their way into the streets. #biggovernmentistheproblem
Sat, 19 Nov 2011 00:41:49 +0000</description><styleUrl>#hideLabel</styleUrl>
<Point><coordinates>-81.300468,28.429033,0</coordinates></Point></Placemark>
<Placemark><name>mrmikeflynn</name><description>To anyone who has ever said &quot;that person makes enough money&quot; or &quot;too much money&quot; #youreanidiot
Sat, 19 Nov 2011 00:46:46 +0000</description><styleUrl>#hideLabel</styleUrl>
<Point><coordinates>-81.300468,28.429033,0</coordinates></Point></Placemark>
<Placemark><name>sscavanagh</name><description>Heading home after a long week away..... (@ I'm on a plane bitches!) http://t.co/2psycPRY
Sat, 19 Nov 2011 00:55:45 +0000</description><styleUrl>#hideLabel</styleUrl>
<Point><coordinates>-81.303000,28.427100,0</coordinates></Point></Placemark>
<Placemark><name>K3R3I3S3</name><description>Guess all the cute dudes are hanging at Chili's, cuz all the weird ones are here. (@ Fox Sports Bar) http://t.co/LwBbvYrx
Sat, 19 Nov 2011 01:04:40 +0000</description><styleUrl>#hideLabel</styleUrl>
<Point><coordinates>-81.308700,28.431500,0</coordinates></Point></Placemark>
<Placemark><name>LaDolceVita28</name><description>I'm at Orlando International Airport (MCO) (1 Jeff Fuqua Boulevard, btwn SR-528 &amp; SR-417, Orlando) w/ 38 others http://t.co/qrg1gF2g
Sat, 19 Nov 2011 02:47:48 +0000</description><styleUrl>#hideLabel</styleUrl>
<Point><coordinates>-81.315833,28.428889,0</coordinates></Point></Placemark>
<Placemark><name>sarahncradeur</name><description>I'm at Orlando International Airport (MCO) (1 Jeff Fuqua Boulevard, btwn SR-528 &amp; SR-417, Orlando) w/ 37 others http://t.co/NWSrxDdH
Sat, 19 Nov 2011 04:06:09 +0000</description><styleUrl>#hideLabel</styleUrl>
<Point><coordinates>-81.315833,28.428889,0</coordinates></Point></Placemark>
<Placemark><name>michaelkohn</name><description>Landed safe...at last! (@ Orlando International Airport (MCO) w/ 38 others) http://t.co/vHtjER1V
Sat, 19 Nov 2011 04:19:03 +0000</description><styleUrl>#hideLabel</styleUrl>
<Point><coordinates>-81.308400,28.430900,0</coordinates></Point></Placemark>
<Placemark><name>scottyperkins</name><description>I'm at Orlando International Airport (MCO) (1 Jeff Fuqua Boulevard, btwn SR-528 &amp; SR-417, Orlando) w/ 39 others http://t.co/eUoTOFPi
Sat, 19 Nov 2011 04:25:35 +0000</description><styleUrl>#hideLabel</styleUrl>
<Point><coordinates>-81.315833,28.428889,0</coordinates></Point></Placemark>
<Placemark><name>caritorch</name><description>Missing my goliii :(
Sat, 19 Nov 2011 04:36:06 +0000</description><styleUrl>#hideLabel</styleUrl>
<Point><coordinates>-81.307097,28.435239,0</coordinates></Point></Placemark>
<Placemark><name>Coolbeansrick</name><description>I wish planes de-planed thru the front and rear
Sat, 19 Nov 2011 04:46:13 +0000</description><styleUrl>#hideLabel</styleUrl>
<Point><coordinates>-81.316400,28.433200,0</coordinates></Point></Placemark>
<Placemark><name>AnneeWaits</name><description>I'm at Orlando International Airport (MCO) (1 Jeff Fuqua Boulevard, btwn SR-528 &amp; SR-417, Orlando) w/ 37 others http://t.co/F6wIByIw
Sat, 19 Nov 2011 04:47:20 +0000</description><styleUrl>#hideLabel</styleUrl>
<Point><coordinates>-81.315833,28.428889,0</coordinates></Point></Placemark>
<Placemark><name>Gasolineheart77</name><description>This feels like the beginning of a Chevy Chase movie (@ Orlando International Airport (MCO) w/ 37 others) http://t.co/xlG6jYFM
Sat, 19 Nov 2011 05:18:37 +0000</description><styleUrl>#hideLabel</styleUrl>
<Point><coordinates>-81.308400,28.430900,0</coordinates></Point></Placemark>
<Placemark><name>LarryLebron</name><description>Finally here! Glad im outta da cold #PartyTime
Sat, 19 Nov 2011 05:56:15 +0000</description><styleUrl>#hideLabel</styleUrl>
<Point><coordinates>-81.306600,28.429700,0</coordinates></Point></Placemark>
<Placemark><name>ellenost</name><description>I'm at Orlando International Airport (MCO) (1 Jeff Fuqua Boulevard, btwn SR-528 &amp; SR-417, Orlando) w/ 59 others http://t.co/hpMpAoMM
Sat, 19 Nov 2011 17:29:35 +0000</description><styleUrl>#hideLabel</styleUrl>
<Point><coordinates>-81.315833,28.428889,0</coordinates></Point></Placemark>
<Placemark><name>Agent3308</name><description>Double the balls, double the fun :-) http://t.co/F7jdi1Bc
Sat, 19 Nov 2011 17:28:52 +0000</description><styleUrl>#hideLabel</styleUrl>
<Point><coordinates>-81.302104,28.427449,0</coordinates></Point></Placemark>
<Placemark><name>LaDolceVita28</name><description>I'm at Orlando International Airport (MCO) (1 Jeff Fuqua Boulevard, btwn SR-528 &amp; SR-417, Orlando) w/ 57 others http://t.co/XjvVngID
Sat, 19 Nov 2011 17:28:46 +0000</description><styleUrl>#hideLabel</styleUrl>
<Point><coordinates>-81.315833,28.428889,0</coordinates></Point></Placemark>
<Placemark><name>blueorder</name><description>I'm at Orlando International Airport (MCO) (1 Jeff Fuqua Boulevard, btwn SR-528 &amp; SR-417, Orlando) w/ 54 others http://t.co/ny51nIWb
Sat, 19 Nov 2011 17:15:35 +0000</description><styleUrl>#hideLabel</styleUrl>
<Point><coordinates>-81.315833,28.428889,0</coordinates></Point></Placemark>
<Placemark><name>guzcar</name><description>I'm at Orlando International Airport (MCO) (1 Jeff Fuqua Boulevard, btwn SR-528 &amp; SR-417, Orlando) w/ 56 others http://t.co/BEVDbZ8k
Sat, 19 Nov 2011 17:12:55 +0000</description><styleUrl>#hideLabel</styleUrl>
<Point><coordinates>-81.315833,28.428889,0</coordinates></Point></Placemark>
<Placemark><name>Tweet3po</name><description>#911HangUp 9200 AIRPORT BV 32827 (11/19 12:19) #Orlando #OrlandoInternationalAirport
Sat, 19 Nov 2011 17:33:45 +0000</description><styleUrl>#hideLabel</styleUrl>
<Point><coordinates>-81.305200,28.431200,0</coordinates></Point></Placemark>
<Placemark><name>geoff_vaughan</name><description>I'm coming home. (@ Orlando International Airport (MCO) w/ 58 others) http://t.co/kbKzDwO6
Sat, 19 Nov 2011 17:37:10 +0000</description><styleUrl>#hideLabel</styleUrl>
<Point><coordinates>-81.308400,28.430900,0</coordinates></Point></Placemark>
<Placemark><name>rodericku</name><description>I'm at Orlando International Airport (MCO) (1 Jeff Fuqua Boulevard, btwn SR-528 &amp; SR-417, Orlando) w/ 61 others http://t.co/k3Vvrt48
Sat, 19 Nov 2011 17:38:52 +0000</description><styleUrl>#hideLabel</styleUrl>
<Point><coordinates>-81.315833,28.428889,0</coordinates></Point></Placemark>
<Placemark><name>Themendous</name><description>Heading home after a great #IAAPA show. See u next year or on YouTube (@ Orlando International Airport (MCO)) http://t.co/v5y54HEb
Sat, 19 Nov 2011 17:37:28 +0000</description><styleUrl>#hideLabel</styleUrl>
<Point><coordinates>-81.308400,28.430900,0</coordinates></Point></Placemark>
<Placemark><name>Taranchyla</name><description>I'm at Orlando International Airport (MCO) (1 Jeff Fuqua Boulevard, btwn SR-528 &amp; SR-417, Orlando) w/ 64 others http://t.co/3N5AgIch
Sat, 19 Nov 2011 17:53:09 +0000</description><styleUrl>#hideLabel</styleUrl>
<Point><coordinates>-81.315833,28.428889,0</coordinates></Point></Placemark>
<Placemark><name>doctormeatusa</name><description>Thanks to @myconnectfm, the three boys and I are enjoying a most excellent Illini game where they are current ahead of Wisconsin 14-0.
Sat, 19 Nov 2011 17:58:24 +0000</description><styleUrl>#hideLabel</styleUrl>
<Point><coordinates>-81.315366,28.435723,0</coordinates></Point></Placemark>
<Placemark><name>MegHatesLiars</name><description>Picking up my Snooki :) (@ Orlando International Airport (MCO) w/ 62 others) http://t.co/5WTe7z6j
Sat, 19 Nov 2011 18:01:43 +0000</description><styleUrl>#hideLabel</styleUrl>
<Point><coordinates>-81.308400,28.430900,0</coordinates></Point></Placemark>
<Placemark><name>AaronMMorgan</name><description>I'm at Orlando International Airport (MCO) (1 Jeff Fuqua Boulevard, btwn SR-528 &amp; SR-417, Orlando) w/ 69 others http://t.co/9BvC38rm
Sat, 19 Nov 2011 18:12:49 +0000</description><styleUrl>#hideLabel</styleUrl>
<Point><coordinates>-81.315833,28.428889,0</coordinates></Point></Placemark>
<Placemark><name>MegHatesLiars</name><description>Celebrating Daddy's home with Grandma :) (@ Chili's Grill &amp; Bar) http://t.co/S9naIHv3
Sat, 19 Nov 2011 18:24:47 +0000</description><styleUrl>#hideLabel</styleUrl>
<Point><coordinates>-81.309300,28.431800,0</coordinates></Point></Placemark>
<Placemark><name>80zkidzklub</name><description>Dead roses ..beauty  http://t.co/VuppRc0E
Sat, 19 Nov 2011 18:36:00 +0000</description><styleUrl>#hideLabel</styleUrl>
<Point><coordinates>-81.306218,28.429698,0</coordinates></Point></Placemark>
<Placemark><name>mattrent</name><description>I'm at Orlando International Airport (MCO) (1 Jeff Fuqua Boulevard, btwn SR-528 &amp; SR-417, Orlando) w/ 53 others http://t.co/Oz7Figsa
Sat, 19 Nov 2011 18:52:19 +0000</description><styleUrl>#hideLabel</styleUrl>
<Point><coordinates>-81.315833,28.428889,0</coordinates></Point></Placemark>
<Placemark><name>80zkidzklub</name><description>#roses #flowers #dead #instagram A beautiful death  http://t.co/zCSAmWnk
Sat, 19 Nov 2011 18:53:37 +0000</description><styleUrl>#hideLabel</styleUrl>
<Point><coordinates>-81.306218,28.429698,0</coordinates></Point></Placemark>
<Placemark><name>Geesu</name><description>Hey AT&amp;T you suck ass - gfs iPhone 4s on Verizon checked in before I even had a signal #attfail http://t.co/gJIdAt2N
Sat, 19 Nov 2011 19:23:56 +0000</description><styleUrl>#hideLabel</styleUrl>
<Point><coordinates>-81.308400,28.430900,0</coordinates></Point></Placemark>
<Placemark><name>DjFloMatic</name><description>I'm at Orlando International Airport (MCO) (1 Jeff Fuqua Boulevard, btwn SR-528 &amp; SR-417, Orlando) w/ 67 others http://t.co/NOd7kSE5
Sat, 19 Nov 2011 19:30:20 +0000</description><styleUrl>#hideLabel</styleUrl>
<Point><coordinates>-81.315833,28.428889,0</coordinates></Point></Placemark>
<Placemark><name>favorcraver</name><description>Homeward bound (@ Orlando International Airport (MCO) w/ 69 others) http://t.co/Xm1l0dcJ
Sat, 19 Nov 2011 19:36:16 +0000</description><styleUrl>#hideLabel</styleUrl>
<Point><coordinates>-81.308400,28.430900,0</coordinates></Point></Placemark>
<Placemark><name>tj76MCO</name><description>I'm at Orlando International Airport (MCO) (1 Jeff Fuqua Boulevard, btwn SR-528 &amp; SR-417, Orlando) w/ 71 others http://t.co/DMBsrVTJ
Sat, 19 Nov 2011 19:37:31 +0000</description><styleUrl>#hideLabel</styleUrl>
<Point><coordinates>-81.315833,28.428889,0</coordinates></Point></Placemark>
<Placemark><name>amanda_hocking</name><description>@matthieu_k Not sure about Austin, haha. We're in Florida on our way back from vacation so I won't find out til we get back tonight.
Sat, 19 Nov 2011 19:50:02 +0000</description><styleUrl>#hideLabel</styleUrl>
<Point><coordinates>-81.301000,28.425200,0</coordinates></Point></Placemark>
<Placemark><name>fgiotto</name><description>After an awesome vacation, there's nothing like getting some starbucks at the airport ;)
Sat, 19 Nov 2011 19:49:54 +0000</description><styleUrl>#hideLabel</styleUrl>
<Point><coordinates>-81.315500,28.434000,0</coordinates></Point></Placemark>
<Placemark><name>amanda_hocking</name><description>Minnesota peeps: Can you give me an update on the weather?
Sat, 19 Nov 2011 19:54:09 +0000</description><styleUrl>#hideLabel</styleUrl>
<Point><coordinates>-81.301000,28.427800,0</coordinates></Point></Placemark>
<Placemark><name>C_RUST</name><description>I'm at Orlando International Airport (MCO) (1 Jeff Fuqua Boulevard, btwn SR-528 &amp; SR-417, Orlando) w/ 74 others http://t.co/1UqUTy2F
Sat, 19 Nov 2011 20:07:56 +0000</description><styleUrl>#hideLabel</styleUrl>
<Point><coordinates>-81.315833,28.428889,0</coordinates></Point></Placemark>
<Placemark><name>imtheirmommy</name><description>We are early!! I can't remember the last time this happened.  Rei's almost off to Ga for thanksgiving. (@ Gate 110) http://t.co/jWXMcPLr
Sat, 19 Nov 2011 20:16:51 +0000</description><styleUrl>#hideLabel</styleUrl>
<Point><coordinates>-81.301700,28.435700,0</coordinates></Point></Placemark>
<Placemark><name>fjvargasfsu</name><description>Off work! (@ Orlando International Airport (MCO) w/ 71 others) http://t.co/Rgt01vNC
Sat, 19 Nov 2011 20:42:21 +0000</description><styleUrl>#hideLabel</styleUrl>
<Point><coordinates>-81.308400,28.430900,0</coordinates></Point></Placemark>
<Placemark><name>amanda_hocking</name><description>Yay! I'm never getting home. Thanks Delta Airlines for delaying me indefinitely in the airport. What a treat.
Sat, 19 Nov 2011 20:41:26 +0000</description><styleUrl>#hideLabel</styleUrl>
<Point><coordinates>-81.301000,28.427800,0</coordinates></Point></Placemark>
<Placemark><name>alb3</name><description>Welcome back. #Posey
Sat, 19 Nov 2011 20:45:50 +0000</description><styleUrl>#hideLabel</styleUrl>
<Point><coordinates>-81.298378,28.434547,0</coordinates></Point></Placemark>
<Placemark><name>Bsch6</name><description>Dont want to leave yet (@ Orlando International Airport (MCO) w/ 67 others) http://t.co/ESnVR1Qz
Sat, 19 Nov 2011 20:53:07 +0000</description><styleUrl>#hideLabel</styleUrl>
<Point><coordinates>-81.308400,28.430900,0</coordinates></Point></Placemark>
<Placemark><name>alb3</name><description>Yeah, review that shit
Sat, 19 Nov 2011 20:54:24 +0000</description><styleUrl>#hideLabel</styleUrl>
<Point><coordinates>-81.298378,28.434547,0</coordinates></Point></Placemark>
<Placemark><name>jjfidelak</name><description>I'm at Orlando International Airport (MCO) (1 Jeff Fuqua Boulevard, btwn SR-528 &amp; SR-417, Orlando) w/ 66 others http://t.co/Qqec3dka
Sat, 19 Nov 2011 21:00:08 +0000</description><styleUrl>#hideLabel</styleUrl>
<Point><coordinates>-81.315833,28.428889,0</coordinates></Point></Placemark>
<Placemark><name>Tweet3po</name><description>#UnknownTrouble 9733 AIRPORT BV 32827 (11/19 15:52) #Orlando #OrlandoInternationalAirport
Sat, 19 Nov 2011 21:01:47 +0000</description><styleUrl>#hideLabel</styleUrl>
<Point><coordinates>-81.305900,28.434600,0</coordinates></Point></Placemark>
<Placemark><name>FrankPMichael</name><description>Headed home. (@ Orlando International Airport (MCO) w/ 65 others) http://t.co/9NiGfdrf
Sat, 19 Nov 2011 21:00:56 +0000</description><styleUrl>#hideLabel</styleUrl>
<Point><coordinates>-81.308400,28.430900,0</coordinates></Point></Placemark>
<Placemark><name>orlpol32827</name><description>#UnknownTrouble at 9733 Airport Blvd. #orlpol
Sat, 19 Nov 2011 21:05:15 +0000</description><styleUrl>#hideLabel</styleUrl>
<Point><coordinates>-81.306200,28.427700,0</coordinates></Point></Placemark>
<Placemark><name>MaasMaasWhatup</name><description>At the Orlando airport. Fat, ugly and rather smelly tourists errwhere
Sat, 19 Nov 2011 21:07:44 +0000</description><styleUrl>#hideLabel</styleUrl>
<Point><coordinates>-81.306800,28.431200,0</coordinates></Point></Placemark>
<Placemark><name>MikeNorby</name><description>I'm at Orlando International Airport (MCO) (1 Jeff Fuqua Boulevard, btwn SR-528 &amp; SR-417, Orlando) w/ 62 others http://t.co/P6MDSF3s
Sat, 19 Nov 2011 21:25:28 +0000</description><styleUrl>#hideLabel</styleUrl>
<Point><coordinates>-81.315833,28.428889,0</coordinates></Point></Placemark>
<Placemark><name>alb3</name><description>Yay another punt
Sat, 19 Nov 2011 21:31:13 +0000</description><styleUrl>#hideLabel</styleUrl>
<Point><coordinates>-81.298378,28.434547,0</coordinates></Point></Placemark>
<Placemark><name>MaasMaasWhatup</name><description>Hey guy wearing an eagles jersey and a pittsburgh hat, we get it. You're from penn. nobody gives a shit
Sat, 19 Nov 2011 21:34:36 +0000</description><styleUrl>#hideLabel</styleUrl>
<Point><coordinates>-81.301900,28.435300,0</coordinates></Point></Placemark>
<Placemark><name>alb3</name><description>Bollman.  Enjoy your last game
Sat, 19 Nov 2011 21:37:23 +0000</description><styleUrl>#hideLabel</styleUrl>
<Point><coordinates>-81.298378,28.434547,0</coordinates></Point></Placemark>
<Placemark><name>alb3</name><description>Bollman has resorted to using a Voodoo doll
Sat, 19 Nov 2011 21:41:15 +0000</description><styleUrl>#hideLabel</styleUrl>
<Point><coordinates>-81.298378,28.434547,0</coordinates></Point></Placemark>
<Placemark><name>amanda_hocking</name><description>I do not understand people who wear nice dresses &amp; heels on a plane.
Sat, 19 Nov 2011 21:55:14 +0000</description><styleUrl>#hideLabel</styleUrl>
<Point><coordinates>-81.301500,28.427700,0</coordinates></Point></Placemark>
<Placemark><name>amanda_hocking</name><description>@jennyd95 No. Just some random chick that walked by all dolled up at the airport.
Sat, 19 Nov 2011 21:57:01 +0000</description><styleUrl>#hideLabel</styleUrl>
<Point><coordinates>-81.301000,28.427600,0</coordinates></Point></Placemark>
<Placemark><name>bhah7</name><description>I'm at Orlando International Airport (MCO) (1 Jeff Fuqua Boulevard, btwn SR-528 &amp; SR-417, Orlando) w/ 67 others http://t.co/d5yS8zJd
Sat, 19 Nov 2011 22:07:54 +0000</description><styleUrl>#hideLabel</styleUrl>
<Point><coordinates>-81.315833,28.428889,0</coordinates></Point></Placemark>
<Placemark><name>amanda_hocking</name><description>This hot dog place smells like body odor. That's a good sign, right?
Sat, 19 Nov 2011 22:11:21 +0000</description><styleUrl>#hideLabel</styleUrl>
<Point><coordinates>-81.300900,28.427700,0</coordinates></Point></Placemark>
<Placemark><name>elizterry</name><description>Orlando airport has super fast free wifi - how unexpected.
Sat, 19 Nov 2011 22:12:46 +0000</description><styleUrl>#hideLabel</styleUrl>
<Point><coordinates>-81.298900,28.424700,0</coordinates></Point></Placemark>
<Placemark><name>80zkidzklub</name><description>Nap was insane ...just woke up now I feel like the life has been sucked out of me lol LAAAAZY
Sat, 19 Nov 2011 22:26:05 +0000</description><styleUrl>#hideLabel</styleUrl>
<Point><coordinates>-81.306218,28.429698,0</coordinates></Point></Placemark>
<Placemark><name>alb3</name><description>And that was my brother with Woods if you're watching the game. Percussion Instructor for TBDBITL
Sat, 19 Nov 2011 22:24:47 +0000</description><styleUrl>#hideLabel</styleUrl>
<Point><coordinates>-81.298378,28.434547,0</coordinates></Point></Placemark>
<Placemark><name>tristancoolman</name><description>Hello free Wifi!!!!!!!! I've missed you so much.
Sat, 19 Nov 2011 22:22:17 +0000</description><styleUrl>#hideLabel</styleUrl>
<Point><coordinates>-81.308800,28.431900,0</coordinates></Point></Placemark>
<Placemark><name>FxckOffMyDreads</name><description>RT @JusSlimNOChaser: Im proud of my little brother Morehouse fits him so they better let him in there! Plus he'll be closer to me :)
Sat, 19 Nov 2011 22:22:16 +0000</description><styleUrl>#hideLabel</styleUrl>
<Point><coordinates>-81.310300,28.433100,0</coordinates></Point></Placemark>
<Placemark><name>elengeeee</name><description>All through security and waiting for our flight home w/  @beatsmakeher (@ Orlando International Airport (MCO)) http://t.co/t0ajLDx8
Sat, 19 Nov 2011 22:19:25 +0000</description><styleUrl>#hideLabel</styleUrl>
<Point><coordinates>-81.308400,28.430900,0</coordinates></Point></Placemark>
<Placemark><name>mattjohnsonn</name><description>Three hour &quot;layover&quot;? I accept the challenge.  @ Chili's Too http://t.co/eAOMlAJh
Sat, 19 Nov 2011 22:18:27 +0000</description><styleUrl>#hideLabel</styleUrl>
<Point><coordinates>-81.309300,28.431800,0</coordinates></Point></Placemark>
<Placemark><name>Kremmling</name><description>Back in the States, decompressing and relaxing http://t.co/Qc2hKnmQ
Sat, 19 Nov 2011 22:28:14 +0000</description><styleUrl>#hideLabel</styleUrl>
<Point><coordinates>-81.306600,28.430400,0</coordinates></Point></Placemark>
<Placemark><name>FxckOffMyDreads</name><description>@JusSlimNOChaser haha lol YES INDEED!!
Sat, 19 Nov 2011 22:30:02 +0000</description><styleUrl>#hideLabel</styleUrl>
<Point><coordinates>-81.308100,28.430400,0</coordinates></Point></Placemark>
<Placemark><name>alb3</name><description>@jaredwolfgang I'll have to crack on him for no thousand yard state.  Haha
Sat, 19 Nov 2011 22:29:58 +0000</description><styleUrl>#hideLabel</styleUrl>
<Point><coordinates>-81.298378,28.434547,0</coordinates></Point></Placemark>
<Placemark><name>Tweet3po</name><description>#GeneralInvestigation 9323B AIRPORT BV 32827 (11/19 17:16) #Orlando #OrlandoInternationalAirport
Sat, 19 Nov 2011 22:29:46 +0000</description><styleUrl>#hideLabel</styleUrl>
<Point><coordinates>-81.305100,28.431200,0</coordinates></Point></Placemark>
<Placemark><name>Kremmling</name><description>@CheyenneDestiny congrats on butt wiping material !!
Sat, 19 Nov 2011 22:29:25 +0000</description><styleUrl>#hideLabel</styleUrl>
<Point><coordinates>-81.306700,28.430600,0</coordinates></Point></Placemark>
<Placemark><name>80zkidzklub</name><description>“@persdevquotes: It is a fine thing to be honest, but it is also very important to be right. ~ W. Churchill http://t.co/PFIwtIQh”
Sat, 19 Nov 2011 22:29:21 +0000</description><styleUrl>#hideLabel</styleUrl>
<Point><coordinates>-81.306218,28.429698,0</coordinates></Point></Placemark>
<Placemark><name>80zkidzklub</name><description>Wake up $500 more in my account now time to reinvest
Sat, 19 Nov 2011 22:28:31 +0000</description><styleUrl>#hideLabel</styleUrl>
<Point><coordinates>-81.306218,28.429698,0</coordinates></Point></Placemark>
<Placemark><name>elizterry</name><description>Had a great time at Discovery Cove today - felt a dolphin's heartbeat under my hand.
Sat, 19 Nov 2011 22:31:35 +0000</description><styleUrl>#hideLabel</styleUrl>
<Point><coordinates>-81.300000,28.424400,0</coordinates></Point></Placemark>
<Placemark><name>80zkidzklub</name><description>You live once go see the world ...turn that next page in ya book (me streets of London) http://t.co/gQ2RQ7dD
Sat, 19 Nov 2011 22:32:33 +0000</description><styleUrl>#hideLabel</styleUrl>
<Point><coordinates>-81.306218,28.429698,0</coordinates></Point></Placemark>
<Placemark><name>brklynwegohard</name><description>The security at this airport is a fuckin' JOKE!!! If u only knew what I just strolled onto the plane with.....
Sat, 19 Nov 2011 22:34:30 +0000</description><styleUrl>#hideLabel</styleUrl>
<Point><coordinates>-81.315000,28.435700,0</coordinates></Point></Placemark>
<Placemark><name>jeanclessio</name><description>Lotadooooooo. Pqp, ate aqui tem essa comedia! (@ American Airlines Baggage Service Office) [pic]: http://t.co/YzifmbKz
Sat, 19 Nov 2011 22:36:34 +0000</description><styleUrl>#hideLabel</styleUrl>
<Point><coordinates>-81.308800,28.431900,0</coordinates></Point></Placemark>
<Placemark><name>elizterry</name><description>Sad to hear about the deterioration of the protests in the US - important we find ways to disagree peacefully.
Sat, 19 Nov 2011 22:36:07 +0000</description><styleUrl>#hideLabel</styleUrl>
<Point><coordinates>-81.300000,28.424400,0</coordinates></Point></Placemark>
<Placemark><name>amanda_hocking</name><description>@michellewitte It is. It's actually a line from Labyrinth.
Sat, 19 Nov 2011 22:38:39 +0000</description><styleUrl>#hideLabel</styleUrl>
<Point><coordinates>-81.300900,28.427700,0</coordinates></Point></Placemark>
<Placemark><name>alb3</name><description>There it is.  #AlwaysSomething
Sat, 19 Nov 2011 22:42:56 +0000</description><styleUrl>#hideLabel</styleUrl>
<Point><coordinates>-81.298378,28.434547,0</coordinates></Point></Placemark>
<Placemark><name>andraxa</name><description>So the travel begins again.. Heading Warsaw for looong (@ Orlando International Airport (MCO) w/ 58 others) http://t.co/isqwzoua
Sat, 19 Nov 2011 22:42:13 +0000</description><styleUrl>#hideLabel</styleUrl>
<Point><coordinates>-81.308400,28.430900,0</coordinates></Point></Placemark>
<Placemark><name>brklynwegohard</name><description>@CitiFieldSheas I carried a Gatorade on Lol
Sat, 19 Nov 2011 22:46:51 +0000</description><styleUrl>#hideLabel</styleUrl>
<Point><coordinates>-81.315000,28.435700,0</coordinates></Point></Placemark>
<Placemark><name>jrm258147</name><description>I'm at Orlando International Airport (MCO) (1 Jeff Fuqua Boulevard, btwn SR-528 &amp; SR-417, Orlando) w/ 55 others http://t.co/PQg4q65M
Sat, 19 Nov 2011 22:51:09 +0000</description><styleUrl>#hideLabel</styleUrl>
<Point><coordinates>-81.315833,28.428889,0</coordinates></Point></Placemark>
<Placemark><name>Kremmling</name><description>Just got carded for beer @Pznarach 
Bahahahahaha
Sat, 19 Nov 2011 22:56:22 +0000</description><styleUrl>#hideLabel</styleUrl>
<Point><coordinates>-81.308800,28.431000,0</coordinates></Point></Placemark>
<Placemark><name>bhah7</name><description>I'm at Orlando International Airport (MCO) (1 Jeff Fuqua Boulevard, btwn SR-528 &amp; SR-417, Orlando) w/ 57 others http://t.co/NBXBontB
Sat, 19 Nov 2011 23:00:44 +0000</description><styleUrl>#hideLabel</styleUrl>
<Point><coordinates>-81.315833,28.428889,0</coordinates></Point></Placemark>
<Placemark><name>KirstieGrant2</name><description>I'm at Orlando International Airport (MCO) (1 Jeff Fuqua Boulevard, btwn SR-528 &amp; SR-417, Orlando) w/ 60 others http://t.co/YxIvDG0A
Sat, 19 Nov 2011 23:06:07 +0000</description><styleUrl>#hideLabel</styleUrl>
<Point><coordinates>-81.315833,28.428889,0</coordinates></Point></Placemark>
<Placemark><name>thmcdonald1</name><description>Going to blow some serious cash on @Ssnyder1835 hardcovers this week. American Vampire vols 1-3 and Batman: Black Mirror will be mine
Sat, 19 Nov 2011 23:09:53 +0000</description><styleUrl>#hideLabel</styleUrl>
<Point><coordinates>-81.301900,28.435300,0</coordinates></Point></Placemark>
<Placemark><name>alb3</name><description>Damn you!!!
Sat, 19 Nov 2011 23:09:47 +0000</description><styleUrl>#hideLabel</styleUrl>
<Point><coordinates>-81.298378,28.434547,0</coordinates></Point></Placemark>
<Placemark><name>brklynwegohard</name><description>@NickSpano They coming for my Gatorade I strolled thru with????
Sat, 19 Nov 2011 23:11:40 +0000</description><styleUrl>#hideLabel</styleUrl>
<Point><coordinates>-81.315000,28.435700,0</coordinates></Point></Placemark>
<Placemark><name>alb3</name><description>God dammit
Sat, 19 Nov 2011 23:10:57 +0000</description><styleUrl>#hideLabel</styleUrl>
<Point><coordinates>-81.298378,28.434547,0</coordinates></Point></Placemark>
<Placemark><name>PZNARACH</name><description>Ok, this would be an AWESOME homecoming if the Buckeyes could pull this one out of their butt!
Sat, 19 Nov 2011 23:13:55 +0000</description><styleUrl>#hideLabel</styleUrl>
<Point><coordinates>-81.308700,28.431000,0</coordinates></Point></Placemark>
<Placemark><name>80zkidzklub</name><description>Quick Workout
Sat, 19 Nov 2011 23:12:39 +0000</description><styleUrl>#hideLabel</styleUrl>
<Point><coordinates>-81.306218,28.429698,0</coordinates></Point></Placemark>
<Placemark><name>orlpol32827</name><description>#GeneralDisturbance at 9474 Airport Blvd. #orlpol
Sat, 19 Nov 2011 23:15:11 +0000</description><styleUrl>#hideLabel</styleUrl>
<Point><coordinates>-81.309100,28.426400,0</coordinates></Point></Placemark>
<Placemark><name>Tweet3po</name><description>#GeneralDisturbance 9474 AIRPORT BV 32827 (11/19 18:01) #Orlando #OrlandoInternationalAirport
Sat, 19 Nov 2011 23:14:46 +0000</description><styleUrl>#hideLabel</styleUrl>
<Point><coordinates>-81.305200,28.431200,0</coordinates></Point></Placemark>
<Placemark><name>alb3</name><description>One game season, kids. Get it going; it's Beat M*ch*g*n Week. Scratch that. It's Fuck M*ch*g*n Week.
Sat, 19 Nov 2011 23:14:35 +0000</description><styleUrl>#hideLabel</styleUrl>
<Point><coordinates>-81.298378,28.434547,0</coordinates></Point></Placemark>
<Placemark><name>PZNARACH</name><description>Can Fickell use some of his unused time outs from previous games tonight PLEEEEEASE????
Sat, 19 Nov 2011 23:16:18 +0000</description><styleUrl>#hideLabel</styleUrl>
<Point><coordinates>-81.306500,28.433200,0</coordinates></Point></Placemark>
<Placemark><name>smailtronic</name><description>RT @alb3: One game season, kids. Get it going; it's Beat M*ch*g*n Week. Scratch that. It's Fuck M*ch*g*n Week.
Sat, 19 Nov 2011 23:19:39 +0000</description><styleUrl>#hideLabel</styleUrl>
<Point><coordinates>-81.298378,28.434547,0</coordinates></Point></Placemark>
<Placemark><name>Oper8ter</name><description>The descent into Orlando at night is amazing, never have I seen so many awesome amber lights in a vast distance lik... http://t.co/aS6u7zkn
Sat, 19 Nov 2011 23:30:25 +0000</description><styleUrl>#hideLabel</styleUrl>
<Point><coordinates>-81.308400,28.430900,0</coordinates></Point></Placemark>
<Placemark><name>80zkidzklub</name><description>Candy #instagram  http://t.co/V2UyLc6x
Sat, 19 Nov 2011 23:35:33 +0000</description><styleUrl>#hideLabel</styleUrl>
<Point><coordinates>-81.306218,28.429698,0</coordinates></Point></Placemark>
<Placemark><name>HosZula</name><description>I'm at Orlando International Airport (MCO) (1 Jeff Fuqua Boulevard, btwn SR-528 &amp; SR-417, Orlando) w/ 57 others http://t.co/JHMum1mT
Sat, 19 Nov 2011 23:35:42 +0000</description><styleUrl>#hideLabel</styleUrl>
<Point><coordinates>-81.315833,28.428889,0</coordinates></Point></Placemark>
<Placemark><name>amanda_hocking</name><description>@valerie_emery 2 more hours until the flight is supposed to leave.
Sat, 19 Nov 2011 23:37:53 +0000</description><styleUrl>#hideLabel</styleUrl>
<Point><coordinates>-81.300900,28.427700,0</coordinates></Point></Placemark>
<Placemark><name>amanda_hocking</name><description>@valerie_emery The flight has been bumped back to 10:30.
Sat, 19 Nov 2011 23:44:25 +0000</description><styleUrl>#hideLabel</styleUrl>
<Point><coordinates>-81.300900,28.427800,0</coordinates></Point></Placemark>
<Placemark><name>dasbacon</name><description>I hate how south west is the only gates with power outlets everywhere.
Sat, 19 Nov 2011 23:51:28 +0000</description><styleUrl>#hideLabel</styleUrl>
<Point><coordinates>-81.300800,28.426500,0</coordinates></Point></Placemark>
<Placemark><name>amanda_hocking</name><description>I'm on hour 5 at the airport. You don't need to tell me how jealous you are - I already know.
Sun, 20 Nov 2011 00:08:09 +0000</description><styleUrl>#hideLabel</styleUrl>
<Point><coordinates>-81.301100,28.427600,0</coordinates></Point></Placemark>
<Placemark><name>SkyGemini55</name><description>All done for the weekend! (@ Orlando International Airport (MCO) w/ 54 others) http://t.co/zUmrFN18
Sun, 20 Nov 2011 00:10:18 +0000</description><styleUrl>#hideLabel</styleUrl>
<Point><coordinates>-81.308400,28.430900,0</coordinates></Point></Placemark>
<Placemark><name>bop__</name><description>It's so nice out here lol total opposite of ny
Sun, 20 Nov 2011 00:19:37 +0000</description><styleUrl>#hideLabel</styleUrl>
<Point><coordinates>-81.307000,28.432200,0</coordinates></Point></Placemark>
<Placemark><name>Oper8ter</name><description>A check in here? Really? (@ Disney Magical Express) http://t.co/9jajySZO
Sun, 20 Nov 2011 00:21:25 +0000</description><styleUrl>#hideLabel</styleUrl>
<Point><coordinates>-81.309300,28.430100,0</coordinates></Point></Placemark>
<Placemark><name>Kremmling</name><description>Happiness is... http://t.co/OC8hLnAp
Sun, 20 Nov 2011 00:26:07 +0000</description><styleUrl>#hideLabel</styleUrl>
<Point><coordinates>-81.306500,28.430300,0</coordinates></Point></Placemark>
<Placemark><name>80zkidzklub</name><description>Be faithful in small things because it is in them that your strength lies
Sun, 20 Nov 2011 00:33:39 +0000</description><styleUrl>#hideLabel</styleUrl>
<Point><coordinates>-81.306218,28.429698,0</coordinates></Point></Placemark>
<Placemark><name>80zkidzklub</name><description>Every tomorrow has two handles. We can take hold of it with the handle of anxiety or the handle of faith.
Sun, 20 Nov 2011 00:34:32 +0000</description><styleUrl>#hideLabel</styleUrl>
<Point><coordinates>-81.306218,28.429698,0</coordinates></Point></Placemark>
<Placemark><name>80zkidzklub</name><description>I am me
Sun, 20 Nov 2011 00:38:22 +0000</description><styleUrl>#hideLabel</styleUrl>
<Point><coordinates>-81.306218,28.429698,0</coordinates></Point></Placemark>
<Placemark><name>sometimes_nat</name><description>&quot;Candy canes for you babe!&quot; -Bf. And that's why I love him.
Sun, 20 Nov 2011 00:40:19 +0000</description><styleUrl>#hideLabel</styleUrl>
<Point><coordinates>-81.318488,28.424062,0</coordinates></Point></Placemark>
<Placemark><name>KiMani_Divine</name><description>@EvolvingGoddess I've been practicing and sometimes that quiet is louder than noise. ;-) lol
Sun, 20 Nov 2011 00:44:35 +0000</description><styleUrl>#hideLabel</styleUrl>
<Point><coordinates>-81.313500,28.426400,0</coordinates></Point></Placemark>
<Placemark><name>Laz1974</name><description>I'm at Orlando International Airport (MCO) (1 Jeff Fuqua Boulevard, btwn SR-528 &amp; SR-417, Orlando) w/ 52 others http://t.co/fM7WVmJP
Sun, 20 Nov 2011 00:44:21 +0000</description><styleUrl>#hideLabel</styleUrl>
<Point><coordinates>-81.315833,28.428889,0</coordinates></Point></Placemark>
<Placemark><name>PZNARACH</name><description>@CheyenneDestiny ewwww! You have more guts than I do!
Sun, 20 Nov 2011 00:56:21 +0000</description><styleUrl>#hideLabel</styleUrl>
<Point><coordinates>-81.306700,28.430500,0</coordinates></Point></Placemark>
<Placemark><name>BelgiumRoland</name><description>@AirFranceFR boarding of flight 693 to Paris #fail
Sun, 20 Nov 2011 01:39:14 +0000</description><styleUrl>#hideLabel</styleUrl>
<Point><coordinates>-81.300800,28.425500,0</coordinates></Point></Placemark>
<Placemark><name>BelgiumRoland</name><description>@AirFranceFR flight 693 is supposed to depart in 10 minutes and the small children are not yet boarded. Let alone the rest of us. #fail
Sun, 20 Nov 2011 01:43:45 +0000</description><styleUrl>#hideLabel</styleUrl>
<Point><coordinates>-81.301400,28.426100,0</coordinates></Point></Placemark>
<Placemark><name>sometimes_nat</name><description>&quot;Diastereomers are stereoisomers that are not enantiomers.&quot; #organicchemlogic
Sun, 20 Nov 2011 01:50:24 +0000</description><styleUrl>#hideLabel</styleUrl>
<Point><coordinates>-81.318488,28.424062,0</coordinates></Point></Placemark>
<Placemark><name>BelgiumRoland</name><description>@AirFranceFR flight 693 was supposed to depart at 20:55. It's 21:24 and boarding is not completed. #fail
Sun, 20 Nov 2011 02:26:01 +0000</description><styleUrl>#hideLabel</styleUrl>
<Point><coordinates>-81.302500,28.426400,0</coordinates></Point></Placemark>
<Placemark><name>mrmikeflynn</name><description>@beckyquickcnbc @jimcramer money never sleeps.
Sun, 20 Nov 2011 02:36:35 +0000</description><styleUrl>#hideLabel</styleUrl>
<Point><coordinates>-81.300468,28.429033,0</coordinates></Point></Placemark>
<Placemark><name>mrmikeflynn</name><description>@Jay_Farber_LV damn dog. Not the money maker! Fix that joint.
Sun, 20 Nov 2011 02:38:11 +0000</description><styleUrl>#hideLabel</styleUrl>
<Point><coordinates>-81.300468,28.429033,0</coordinates></Point></Placemark>
<Placemark><name>amanda_hocking</name><description>We're closing in on hour 8 at the airport. Ironically, my cousin's 3 &amp; 5 year old kids seem to be handling the wait better than me.
Sun, 20 Nov 2011 02:42:19 +0000</description><styleUrl>#hideLabel</styleUrl>
<Point><coordinates>-81.301100,28.427200,0</coordinates></Point></Placemark>
<Placemark><name>amanda_hocking</name><description>@iamjustnatalie No. It's a broken plane. They're fixing it now.
Sun, 20 Nov 2011 02:46:01 +0000</description><styleUrl>#hideLabel</styleUrl>
<Point><coordinates>-81.301100,28.427200,0</coordinates></Point></Placemark>
<Placemark><name>orlpol32827</name><description>#AmbulanceEscort at 9738 Airport Blvd. #orlpol
Sun, 20 Nov 2011 03:15:25 +0000</description><styleUrl>#hideLabel</styleUrl>
<Point><coordinates>-81.306200,28.427700,0</coordinates></Point></Placemark>
<Placemark><name>haystackhater</name><description>Whenever I'm wearing a tie I like to listen to frank sinatra. It makes me feel classy
Sun, 20 Nov 2011 03:24:40 +0000</description><styleUrl>#hideLabel</styleUrl>
<Point><coordinates>-81.302200,28.428100,0</coordinates></Point></Placemark>
<Placemark><name>RyanLores</name><description>Waiting to board! Yes, it's a late flight, but we're stoked 2 be flying home 2 #PuertoRico 4 the holidays. Cheers!  =-) http://t.co/moYK4Muv
Sun, 20 Nov 2011 03:28:11 +0000</description><styleUrl>#hideLabel</styleUrl>
<Point><coordinates>-81.313900,28.434600,0</coordinates></Point></Placemark>
<Placemark><name>Kyle_Crews</name><description>@PAJohnson22 how many more flags are we going to get??
Sun, 20 Nov 2011 03:36:01 +0000</description><styleUrl>#hideLabel</styleUrl>
<Point><coordinates>-81.308300,28.432800,0</coordinates></Point></Placemark>
<Placemark><name>Kyle_Crews</name><description>@PAJohnson22 it's unbelievable how bad they are #ACCrefs
Sun, 20 Nov 2011 03:40:02 +0000</description><styleUrl>#hideLabel</styleUrl>
<Point><coordinates>-81.308300,28.432800,0</coordinates></Point></Placemark>
<Placemark><name>anythingicanbe</name><description>I'm at Orlando International Airport (MCO) (1 Jeff Fuqua Boulevard, btwn SR-528 &amp; SR-417, Orlando) w/ 40 others http://t.co/JYFqBP2Y
Sun, 20 Nov 2011 03:44:31 +0000</description><styleUrl>#hideLabel</styleUrl>
<Point><coordinates>-81.315833,28.428889,0</coordinates></Point></Placemark>
<Placemark><name>Tweet3po</name><description>#GeneralDisturbance 9729 AIRPORT BV 32827 (11/19 22:55) #Orlando #OrlandoInternationalAirport
Sun, 20 Nov 2011 04:08:47 +0000</description><styleUrl>#hideLabel</styleUrl>
<Point><coordinates>-81.305900,28.434600,0</coordinates></Point></Placemark>
<Placemark><name>orlpol32827</name><description>#GeneralDisturbance at 9729 Airport Blvd. #orlpol
Sun, 20 Nov 2011 04:10:12 +0000</description><styleUrl>#hideLabel</styleUrl>
<Point><coordinates>-81.306200,28.427700,0</coordinates></Point></Placemark>
<Placemark><name>tmdanger</name><description>Oregon ducks
Sun, 20 Nov 2011 04:29:10 +0000</description><styleUrl>#hideLabel</styleUrl>
<Point><coordinates>-81.306847,28.431223,0</coordinates></Point></Placemark>
<Placemark><name>krissyy_x3</name><description>wearing just a t-shirt at 11:30 at night in the middle of november. #floridaihavearrived
Sun, 20 Nov 2011 04:28:20 +0000</description><styleUrl>#hideLabel</styleUrl>
<Point><coordinates>-81.308400,28.434700,0</coordinates></Point></Placemark>
<Placemark><name>tmdanger</name><description>@garrettleland @Crashings2 @kodyroth @tylerdehaven @nathanfinochio   Kickers- Why  -- @nikestore
Sun, 20 Nov 2011 04:43:20 +0000</description><styleUrl>#hideLabel</styleUrl>
<Point><coordinates>-81.306847,28.431223,0</coordinates></Point></Placemark>
<Placemark><name>mrmikeflynn</name><description>@Brittany_Mason you like the prowler? I dunno about that one Brit!
Sun, 20 Nov 2011 04:53:58 +0000</description><styleUrl>#hideLabel</styleUrl>
<Point><coordinates>-81.300468,28.429033,0</coordinates></Point></Placemark>
<Placemark><name>mrmikeflynn</name><description>At Josephine with my team, we good and don't need a mascot.
Sun, 20 Nov 2011 04:55:54 +0000</description><styleUrl>#hideLabel</styleUrl>
<Point><coordinates>-81.300468,28.429033,0</coordinates></Point></Placemark>
<Placemark><name>TiNERRRROCKZYO</name><description>I'm at Orlando International Airport (MCO) (1 Jeff Fuqua Boulevard, btwn SR-528 &amp; SR-417, Orlando) w/ 28 others http://t.co/PyrrzF7G
Sun, 20 Nov 2011 05:19:27 +0000</description><styleUrl>#hideLabel</styleUrl>
<Point><coordinates>-81.315833,28.428889,0</coordinates></Point></Placemark>
<Placemark><name>mrmikeflynn</name><description>@Jav_Guzman @RandyTDistrict I think that sounds like a homecoming worth celebrating. Lezdothis !
Sun, 20 Nov 2011 05:26:14 +0000</description><styleUrl>#hideLabel</styleUrl>
<Point><coordinates>-81.300468,28.429033,0</coordinates></Point></Placemark>
<Placemark><name>mrmikeflynn</name><description>@RandyTDistrict bottle poppin.
Sun, 20 Nov 2011 06:45:34 +0000</description><styleUrl>#hideLabel</styleUrl>
<Point><coordinates>-81.300468,28.429033,0</coordinates></Point></Placemark>
<Placemark><name>mrmikeflynn</name><description>Fuck you Saturday.  http://t.co/RVv0Zn7p
Sun, 20 Nov 2011 06:50:57 +0000</description><styleUrl>#hideLabel</styleUrl>
<Point><coordinates>-81.300468,28.429033,0</coordinates></Point></Placemark>
<Placemark><name>mrmikeflynn</name><description>@ClintonSparks rocking my favorite DJ @ Josephine Washington DC!
Sun, 20 Nov 2011 07:13:12 +0000</description><styleUrl>#hideLabel</styleUrl>
<Point><coordinates>-81.300468,28.429033,0</coordinates></Point></Placemark>
<Placemark><name>syedbpeer</name><description>i dt thnk 850k is alot of money 2 the ABA. pretty narley nonetheless...Bank Lobby Plans Attack on Occupy Movement http://t.co/IqgjpEVJ
Sun, 20 Nov 2011 09:27:36 +0000</description><styleUrl>#hideLabel</styleUrl>
<Point><coordinates>-81.314323,28.434624,0</coordinates></Point></Placemark>
<Placemark><name>Xfactorbowling</name><description>I'm at Orlando International Airport (MCO) (1 Jeff Fuqua Boulevard, btwn SR-528 &amp; SR-417, Orlando) w/ 6 others http://t.co/mCEZJ27h
Sun, 20 Nov 2011 09:54:06 +0000</description><styleUrl>#hideLabel</styleUrl>
<Point><coordinates>-81.315833,28.428889,0</coordinates></Point></Placemark>
<Placemark><name>JasonMcManus</name><description>I'm at Orlando International Airport (MCO) (1 Jeff Fuqua Boulevard, btwn SR-528 &amp; SR-417, Orlando) w/ 16 others http://t.co/wQNSHCp9
Sun, 20 Nov 2011 10:26:53 +0000</description><styleUrl>#hideLabel</styleUrl>
<Point><coordinates>-81.315833,28.428889,0</coordinates></Point></Placemark>
<Placemark><name>nastyyy0</name><description>“@Juaneight7: fuc everything! I got my homies” true
Sun, 20 Nov 2011 10:29:39 +0000</description><styleUrl>#hideLabel</styleUrl>
<Point><coordinates>-81.314900,28.435700,0</coordinates></Point></Placemark>
<Placemark><name>80zkidzklub</name><description>Good morning peoples who's up with me
Sun, 20 Nov 2011 10:39:37 +0000</description><styleUrl>#hideLabel</styleUrl>
<Point><coordinates>-81.306218,28.429698,0</coordinates></Point></Placemark>
<Placemark><name>80zkidzklub</name><description>@JoleneSpencer go for it lol
Sun, 20 Nov 2011 10:41:43 +0000</description><styleUrl>#hideLabel</styleUrl>
<Point><coordinates>-81.306218,28.429698,0</coordinates></Point></Placemark>
<Placemark><name>80zkidzklub</name><description>This odd week is going by fast
Sun, 20 Nov 2011 10:43:10 +0000</description><styleUrl>#hideLabel</styleUrl>
<Point><coordinates>-81.306218,28.429698,0</coordinates></Point></Placemark>
<Placemark><name>80zkidzklub</name><description>No more locked doors
Sun, 20 Nov 2011 10:45:48 +0000</description><styleUrl>#hideLabel</styleUrl>
<Point><coordinates>-81.306218,28.429698,0</coordinates></Point></Placemark>
<Placemark><name>FenceMike</name><description>I'm at Orlando International Airport (MCO) (1 Jeff Fuqua Boulevard, btwn SR-528 &amp; SR-417, Orlando) w/ 23 others http://t.co/vS7kYE8h
Sun, 20 Nov 2011 11:11:32 +0000</description><styleUrl>#hideLabel</styleUrl>
<Point><coordinates>-81.315833,28.428889,0</coordinates></Point></Placemark>
<Placemark><name>ajphe410</name><description>MCO &gt; MIA &gt; SKB
Mixed feelings about travel and working over the #THANKSGIVING holiday
Sun, 20 Nov 2011 11:14:07 +0000</description><styleUrl>#hideLabel</styleUrl>
<Point><coordinates>-81.315000,28.435600,0</coordinates></Point></Placemark>
<Placemark><name>HotLikeFolarin_</name><description>got on my SnapBack lookin mighty good this moaninn !
Sun, 20 Nov 2011 11:33:06 +0000</description><styleUrl>#hideLabel</styleUrl>
<Point><coordinates>-81.315500,28.428400,0</coordinates></Point></Placemark>
<Placemark><name>Kremmling</name><description>Kinda bizarre to wake up &amp; not have sand in bed...
Sun, 20 Nov 2011 11:35:02 +0000</description><styleUrl>#hideLabel</styleUrl>
<Point><coordinates>-81.307900,28.429600,0</coordinates></Point></Placemark>
<Placemark><name>MaySeeH</name><description>I'm at Orlando International Airport (MCO) (1 Jeff Fuqua Boulevard, btwn SR-528 &amp; SR-417, Orlando) w/ 33 others http://t.co/CgwNgGbG
Sun, 20 Nov 2011 11:36:26 +0000</description><styleUrl>#hideLabel</styleUrl>
<Point><coordinates>-81.315833,28.428889,0</coordinates></Point></Placemark>
<Placemark><name>orlpol32827</name><description>#GeneralInvestigation at 9250 Airport Blvd. #orlpol
Sun, 20 Nov 2011 11:45:12 +0000</description><styleUrl>#hideLabel</styleUrl>
<Point><coordinates>-81.305500,28.433600,0</coordinates></Point></Placemark>
<Placemark><name>Tweet3po</name><description>#GeneralInvestigation 9250 AIRPORT BV 32827 (11/20 06:29) #Orlando #OrlandoInternationalAirport
Sun, 20 Nov 2011 11:44:20 +0000</description><styleUrl>#hideLabel</styleUrl>
<Point><coordinates>-81.305200,28.431200,0</coordinates></Point></Placemark>
<Placemark><name>sathyabcom</name><description>New York bound ... Vacation is over :( (@ Orlando International Airport (MCO) w/ 30 others) http://t.co/fhcX6K8A
Sun, 20 Nov 2011 11:53:25 +0000</description><styleUrl>#hideLabel</styleUrl>
<Point><coordinates>-81.308400,28.430900,0</coordinates></Point></Placemark>
<Placemark><name>sseekings</name><description>I'm at Orlando International Airport (MCO) (1 Jeff Fuqua Boulevard, btwn SR-528 &amp; SR-417, Orlando) w/ 30 others http://t.co/g2dbzaeO
Sun, 20 Nov 2011 12:04:27 +0000</description><styleUrl>#hideLabel</styleUrl>
<Point><coordinates>-81.315833,28.428889,0</coordinates></Point></Placemark>
<Placemark><name>sathyabcom</name><description>Gotta get something in my belly! :) (@ Starbucks) http://t.co/M9rLhbGR
Sun, 20 Nov 2011 12:16:56 +0000</description><styleUrl>#hideLabel</styleUrl>
<Point><coordinates>-81.314100,28.434700,0</coordinates></Point></Placemark>
<Placemark><name>Kremmling</name><description>So excited to see @kairacatrider @Akarst21 @CheyenneDestiny @failbecca &amp; Miss Sukie today!!
Sun, 20 Nov 2011 12:19:03 +0000</description><styleUrl>#hideLabel</styleUrl>
<Point><coordinates>-81.306500,28.430300,0</coordinates></Point></Placemark>
<Placemark><name>Kremmling</name><description>Anyone want pizza and Mountain Dew tonight? 

Reply when u wake up lol
Sun, 20 Nov 2011 12:20:39 +0000</description><styleUrl>#hideLabel</styleUrl>
<Point><coordinates>-81.306400,28.430200,0</coordinates></Point></Placemark>
<Placemark><name>PZNARACH</name><description>I don't know when you outgrow thinking its cool to watch planes takeoff &amp; land, but it's not 38!
Sun, 20 Nov 2011 12:22:32 +0000</description><styleUrl>#hideLabel</styleUrl>
<Point><coordinates>-81.306700,28.430900,0</coordinates></Point></Placemark>
<Placemark><name>RedDawn10</name><description>I'm at Orlando International Airport (MCO) (1 Jeff Fuqua Boulevard, btwn SR-528 &amp; SR-417, Orlando) w/ 36 others http://t.co/JmP7qk9Z
Sun, 20 Nov 2011 12:22:28 +0000</description><styleUrl>#hideLabel</styleUrl>
<Point><coordinates>-81.315833,28.428889,0</coordinates></Point></Placemark>
<Placemark><name>troycutchens</name><description>I'm at Orlando International Airport (MCO) (1 Jeff Fuqua Boulevard, btwn SR-528 &amp; SR-417, Orlando) w/ 37 others http://t.co/CuX4msRi
Sun, 20 Nov 2011 12:23:40 +0000</description><styleUrl>#hideLabel</styleUrl>
<Point><coordinates>-81.315833,28.428889,0</coordinates></Point></Placemark>
<Placemark><name>RedDawn10</name><description>I'm at Orlando International Airport (MCO) (1 Jeff Fuqua Boulevard, btwn SR-528 &amp; SR-417, Orlando) w/ 39 others http://t.co/R3qrbXBo
Sun, 20 Nov 2011 12:25:04 +0000</description><styleUrl>#hideLabel</styleUrl>
<Point><coordinates>-81.315833,28.428889,0</coordinates></Point></Placemark>
<Placemark><name>SkinnyGurlGenes</name><description>I'm at Orlando International Airport (MCO) (1 Jeff Fuqua Boulevard, btwn SR-528 &amp; SR-417, Orlando) w/ 39 others http://t.co/kxBc4kks
Sun, 20 Nov 2011 12:41:02 +0000</description><styleUrl>#hideLabel</styleUrl>
<Point><coordinates>-81.315833,28.428889,0</coordinates></Point></Placemark>
<Placemark><name>MrDamnHeTall12</name><description>@N_Yaseth de PR a Pequin
Sun, 20 Nov 2011 12:52:51 +0000</description><styleUrl>#hideLabel</styleUrl>
<Point><coordinates>-81.313900,28.435600,0</coordinates></Point></Placemark>
<Placemark><name>sathyabcom</name><description>Just boarded the aircraft .... Bye bye vacation and hello reality! (@ Gate 7) http://t.co/SjqWDfsR
Sun, 20 Nov 2011 13:02:12 +0000</description><styleUrl>#hideLabel</styleUrl>
<Point><coordinates>-81.315700,28.433700,0</coordinates></Point></Placemark>
<Placemark><name>viniciuskills</name><description>you can't choose what stays and what fades away
Sun, 20 Nov 2011 13:07:38 +0000</description><styleUrl>#hideLabel</styleUrl>
<Point><coordinates>-81.301300,28.427300,0</coordinates></Point></Placemark>
<Placemark><name>yaitzmee</name><description>@adamxdangelo hahah yo he gave it to me before his bags were out and he's missing 3.
Sun, 20 Nov 2011 13:19:10 +0000</description><styleUrl>#hideLabel</styleUrl>
<Point><coordinates>-81.306600,28.433100,0</coordinates></Point></Placemark>
<Placemark><name>yaitzmee</name><description>@ndorian92 and u better watch out for Arkansas jit
Sun, 20 Nov 2011 13:25:05 +0000</description><styleUrl>#hideLabel</styleUrl>
<Point><coordinates>-81.306600,28.433100,0</coordinates></Point></Placemark>
<Placemark><name>yaitzmee</name><description>@ndorian92 right now nigga ha I'm just taking this dude to the hyatt he already broke me off he's missing half his bags tho haha..
Sun, 20 Nov 2011 13:24:35 +0000</description><styleUrl>#hideLabel</styleUrl>
<Point><coordinates>-81.306600,28.433100,0</coordinates></Point></Placemark>
<Placemark><name>GRIZZLYDIPPER90</name><description>Super excited to see my dudes!!!! @babyburtch111 @honeybadger2000 @skibbyy @Vansickle8
Sun, 20 Nov 2011 13:26:02 +0000</description><styleUrl>#hideLabel</styleUrl>
<Point><coordinates>-81.301900,28.433900,0</coordinates></Point></Placemark>
<Placemark><name>edburns_nonwork</name><description>I'm at Orlando International Airport (MCO) (1 Jeff Fuqua Boulevard, btwn SR-528 &amp; SR-417, Orlando) w/ 34 others http://t.co/lhHCrnMU
Sun, 20 Nov 2011 13:31:56 +0000</description><styleUrl>#hideLabel</styleUrl>
<Point><coordinates>-81.315833,28.428889,0</coordinates></Point></Placemark>
<Placemark><name>Pr3ttyP_</name><description>I wish #Oomf wuld just delete their twitter. That how irritation their tweets r. Every last tweet
Sun, 20 Nov 2011 13:38:31 +0000</description><styleUrl>#hideLabel</styleUrl>
<Point><coordinates>-81.300900,28.434600,0</coordinates></Point></Placemark>
<Placemark><name>melgibbb</name><description>Wants to Vom all over the air port
Sun, 20 Nov 2011 13:39:57 +0000</description><styleUrl>#hideLabel</styleUrl>
<Point><coordinates>-81.309200,28.430300,0</coordinates></Point></Placemark>
<Placemark><name>yaitzmee</name><description>More
Sun, 20 Nov 2011 13:42:35 +0000</description><styleUrl>#hideLabel</styleUrl>
<Point><coordinates>-81.306600,28.433100,0</coordinates></Point></Placemark>
<Placemark><name>carlosnbarahona</name><description>Going back home! #NYC (@ Orlando International Airport (MCO) w/ 31 others) http://t.co/GGtEmBAx
Sun, 20 Nov 2011 13:45:53 +0000</description><styleUrl>#hideLabel</styleUrl>
<Point><coordinates>-81.308400,28.430900,0</coordinates></Point></Placemark>
<Placemark><name>Pr3ttyP_</name><description>DMV here I come. Hope I have a safe flight ✈
Sun, 20 Nov 2011 13:52:55 +0000</description><styleUrl>#hideLabel</styleUrl>
<Point><coordinates>-81.300900,28.434600,0</coordinates></Point></Placemark>
<Placemark><name>studoherty</name><description>I'm at Manchester Oxford Road Railway Station (MCO) (Oxford Rd., Whitworth Street West, Manchester) http://t.co/jboV9Gaz
Sun, 20 Nov 2011 13:56:45 +0000</description><styleUrl>#hideLabel</styleUrl>
<Point><coordinates>-81.315833,28.428889,0</coordinates></Point></Placemark>
<Placemark><name>jenali</name><description>Heading home (@ Orlando International Airport (MCO) w/ 39 others) http://t.co/a7hP5htr
Sun, 20 Nov 2011 14:10:29 +0000</description><styleUrl>#hideLabel</styleUrl>
<Point><coordinates>-81.308400,28.430900,0</coordinates></Point></Placemark>
<Placemark><name>Macon_Hare</name><description>@luster2020 the deer or the policeman clean up?
Sun, 20 Nov 2011 14:18:56 +0000</description><styleUrl>#hideLabel</styleUrl>
<Point><coordinates>-81.315000,28.426300,0</coordinates></Point></Placemark>
<Placemark><name>Macon_Hare</name><description>@melonymckaye isn't oatmeal one of the food groups in ND?
Sun, 20 Nov 2011 14:20:45 +0000</description><styleUrl>#hideLabel</styleUrl>
<Point><coordinates>-81.315000,28.426300,0</coordinates></Point></Placemark>
<Placemark><name>Smockonallama</name><description>I'm at Orlando International Airport (MCO) (1 Jeff Fuqua Boulevard, btwn SR-528 &amp; SR-417, Orlando) w/ 36 others http://t.co/XGw8C12X
Sun, 20 Nov 2011 14:22:56 +0000</description><styleUrl>#hideLabel</styleUrl>
<Point><coordinates>-81.315833,28.428889,0</coordinates></Point></Placemark>
<Placemark><name>yaitzmee</name><description>@iamOrland0 true haha rock paper scissors tho
Sun, 20 Nov 2011 14:24:52 +0000</description><styleUrl>#hideLabel</styleUrl>
<Point><coordinates>-81.315500,28.433100,0</coordinates></Point></Placemark>
<Placemark><name>BrigMur</name><description>Chicago bound. Eeeee so excited!
Sun, 20 Nov 2011 14:46:55 +0000</description><styleUrl>#hideLabel</styleUrl>
<Point><coordinates>-81.309100,28.432100,0</coordinates></Point></Placemark>
<Placemark><name>alyssa_weglarz</name><description>My ears hurt :( I hate planes
Sun, 20 Nov 2011 15:17:32 +0000</description><styleUrl>#hideLabel</styleUrl>
<Point><coordinates>-81.321300,28.430400,0</coordinates></Point></Placemark>
<Placemark><name>alyssa_weglarz</name><description>poool day (y) its as hot as a mother out here.
Sun, 20 Nov 2011 15:22:35 +0000</description><styleUrl>#hideLabel</styleUrl>
<Point><coordinates>-81.321300,28.430400,0</coordinates></Point></Placemark>
<Placemark><name>karineimagine</name><description>At the airport. Daria is sick. Wish us luck.   @ Orlando International Airport (MCO) http://t.co/5B36YYuj
Sun, 20 Nov 2011 15:34:53 +0000</description><styleUrl>#hideLabel</styleUrl>
<Point><coordinates>-81.308400,28.430900,0</coordinates></Point></Placemark>
<Placemark><name>superstarjenny</name><description>I'm at Orlando International Airport (MCO) (1 Jeff Fuqua Boulevard, btwn SR-528 &amp; SR-417, Orlando) w/ 46 others http://t.co/P0DYNZUd
Sun, 20 Nov 2011 15:37:45 +0000</description><styleUrl>#hideLabel</styleUrl>
<Point><coordinates>-81.315833,28.428889,0</coordinates></Point></Placemark>
<Placemark><name>Dwoody83</name><description>I'm at Orlando International Airport (MCO) (1 Jeff Fuqua Boulevard, btwn SR-528 &amp; SR-417, Orlando) w/ 54 others http://t.co/hQHS4HXQ
Sun, 20 Nov 2011 15:46:23 +0000</description><styleUrl>#hideLabel</styleUrl>
<Point><coordinates>-81.315833,28.428889,0</coordinates></Point></Placemark>
<Placemark><name>alyssa_weglarz</name><description>Ughhh so sexyyyyyy http://t.co/lyS959De
Sun, 20 Nov 2011 16:03:26 +0000</description><styleUrl>#hideLabel</styleUrl>
<Point><coordinates>-81.307400,28.432300,0</coordinates></Point></Placemark>
<Placemark><name>Dorv</name><description>I'm at Orlando International Airport (MCO) (1 Jeff Fuqua Boulevard, btwn SR-528 &amp; SR-417, Orlando) w/ 67 others http://t.co/VZ278HRD
Sun, 20 Nov 2011 16:11:07 +0000</description><styleUrl>#hideLabel</styleUrl>
<Point><coordinates>-81.315833,28.428889,0</coordinates></Point></Placemark>
<Placemark><name>Kremmling</name><description>You can't find &quot;CHEYENNE&quot; on any keychains pre-made

Boo!!!
Sun, 20 Nov 2011 16:13:26 +0000</description><styleUrl>#hideLabel</styleUrl>
<Point><coordinates>-81.301600,28.435100,0</coordinates></Point></Placemark>
<Placemark><name>Dorv</name><description>Headed home. In the WAAAAAAAAY back seat. (@ Gate 73) http://t.co/mRDWmGO2
Sun, 20 Nov 2011 16:11:53 +0000</description><styleUrl>#hideLabel</styleUrl>
<Point><coordinates>-81.300400,28.428200,0</coordinates></Point></Placemark>
<Placemark><name>alyssa_weglarz</name><description>@cjelser hahahahahah I told you to come in my suitcase..
Sun, 20 Nov 2011 16:14:53 +0000</description><styleUrl>#hideLabel</styleUrl>
<Point><coordinates>-81.311400,28.431000,0</coordinates></Point></Placemark>
<Placemark><name>alyssa_weglarz</name><description>Ahhh can't believe I'm in Florida. http://t.co/a2tRvgNY
Sun, 20 Nov 2011 16:14:52 +0000</description><styleUrl>#hideLabel</styleUrl>
<Point><coordinates>-81.311400,28.431000,0</coordinates></Point></Placemark>
<Placemark><name>alyssa_weglarz</name><description>@LeanneCastelli thanks girlie&lt;33
Sun, 20 Nov 2011 16:16:23 +0000</description><styleUrl>#hideLabel</styleUrl>
<Point><coordinates>-81.311400,28.431000,0</coordinates></Point></Placemark>
<Placemark><name>alyssa_weglarz</name><description>Man Down by Rihanna is totally setting the mood for me right now.
Sun, 20 Nov 2011 16:16:11 +0000</description><styleUrl>#hideLabel</styleUrl>
<Point><coordinates>-81.311400,28.431000,0</coordinates></Point></Placemark>
<Placemark><name>PZNARACH</name><description>we miss you guys too!! @failbecca
Sun, 20 Nov 2011 16:17:48 +0000</description><styleUrl>#hideLabel</styleUrl>
<Point><coordinates>-81.302100,28.435300,0</coordinates></Point></Placemark>
<Placemark><name>kathleennorton</name><description>I'm at Orlando International Airport (MCO) (1 Jeff Fuqua Boulevard, btwn SR-528 &amp; SR-417, Orlando) w/ 68 others http://t.co/nva8jZEa
Sun, 20 Nov 2011 16:19:28 +0000</description><styleUrl>#hideLabel</styleUrl>
<Point><coordinates>-81.315833,28.428889,0</coordinates></Point></Placemark>
<Placemark><name>KelvinMoonLoh</name><description>I always wondered what douche buys this stuff at the airport vending machine. #ohwaitme http://t.co/ftAjJtov
Sun, 20 Nov 2011 16:21:05 +0000</description><styleUrl>#hideLabel</styleUrl>
<Point><coordinates>-81.315500,28.433100,0</coordinates></Point></Placemark>
<Placemark><name>Tweet3po</name><description>#GeneralInvestigation 9400 AIRPORT BV 32827 (11/20 11:07) #Orlando #OrlandoInternationalAirport
Sun, 20 Nov 2011 16:22:21 +0000</description><styleUrl>#hideLabel</styleUrl>
<Point><coordinates>-81.305200,28.431200,0</coordinates></Point></Placemark>
<Placemark><name>mrmikeflynn</name><description>I always forget about the pink Cadillac option http://t.co/MFyAPLNi
Sun, 20 Nov 2011 16:25:59 +0000</description><styleUrl>#hideLabel</styleUrl>
<Point><coordinates>-81.300468,28.429033,0</coordinates></Point></Placemark>
<Placemark><name>Emily_R13</name><description>At the airport #californiahereicome
Sun, 20 Nov 2011 16:27:27 +0000</description><styleUrl>#hideLabel</styleUrl>
<Point><coordinates>-81.309200,28.432200,0</coordinates></Point></Placemark>
<Placemark><name>zannaland</name><description>Picking up me mudda! (@ Orlando International Airport (MCO) w/ 67 others) http://t.co/VDczQefU
Sun, 20 Nov 2011 16:29:02 +0000</description><styleUrl>#hideLabel</styleUrl>
<Point><coordinates>-81.308400,28.430900,0</coordinates></Point></Placemark>
<Placemark><name>KelvinMoonLoh</name><description>@alissaladerer I was so fed up with screaming children and my earbuds were not doing it!!!
Sun, 20 Nov 2011 16:32:53 +0000</description><styleUrl>#hideLabel</styleUrl>
<Point><coordinates>-81.315500,28.433100,0</coordinates></Point></Placemark>
<Placemark><name>zannaland</name><description>I'm GOOFY for airports!  @ Disney's Earport http://t.co/yIV6ZBjL
Sun, 20 Nov 2011 16:35:39 +0000</description><styleUrl>#hideLabel</styleUrl>
<Point><coordinates>-81.307500,28.431100,0</coordinates></Point></Placemark>
<Placemark><name>KelvinMoonLoh</name><description>@alissaladerer they are amazeballs.  I've not head my music like this ever!!!
Sun, 20 Nov 2011 16:37:24 +0000</description><styleUrl>#hideLabel</styleUrl>
<Point><coordinates>-81.315500,28.433100,0</coordinates></Point></Placemark>
<Placemark><name>jeo31197</name><description>We landed. So excited. #wootwoot
Sun, 20 Nov 2011 16:47:14 +0000</description><styleUrl>#hideLabel</styleUrl>
<Point><coordinates>-81.313100,28.426800,0</coordinates></Point></Placemark>
<Placemark><name>CodeeCB</name><description>Luggage tram (@ Airside 3) http://t.co/HwUSs4XT
Sun, 20 Nov 2011 16:58:07 +0000</description><styleUrl>#hideLabel</styleUrl>
<Point><coordinates>-81.314200,28.427400,0</coordinates></Point></Placemark>
<Placemark><name>SteveDunne</name><description>I'm at Orlando International Airport (MCO) (1 Jeff Fuqua Boulevard, btwn SR-528 &amp; SR-417, Orlando) w/ 66 others http://t.co/wiOfKgp9
Sun, 20 Nov 2011 17:08:44 +0000</description><styleUrl>#hideLabel</styleUrl>
<Point><coordinates>-81.315833,28.428889,0</coordinates></Point></Placemark>
<Placemark><name>wallyatkins</name><description>I'm at Orlando International Airport (MCO) (1 Jeff Fuqua Boulevard, btwn SR-528 &amp; SR-417, Orlando) w/ 71 others http://t.co/bhjQnQAN
Sun, 20 Nov 2011 17:10:14 +0000</description><styleUrl>#hideLabel</styleUrl>
<Point><coordinates>-81.315833,28.428889,0</coordinates></Point></Placemark>
<Placemark><name>CodeeCB</name><description>I'm at Orlando International Airport (MCO) (1 Jeff Fuqua Boulevard, btwn SR-528 &amp; SR-417, Orlando) w/ 70 others http://t.co/PyTJedRc
Sun, 20 Nov 2011 17:10:03 +0000</description><styleUrl>#hideLabel</styleUrl>
<Point><coordinates>-81.315833,28.428889,0</coordinates></Point></Placemark>
<Placemark><name>JuanAristi</name><description>I'm at Orlando International Airport (MCO) (1 Jeff Fuqua Boulevard, btwn SR-528 &amp; SR-417, Orlando) w/ 69 others http://t.co/7YzYDPXQ
Sun, 20 Nov 2011 17:16:00 +0000</description><styleUrl>#hideLabel</styleUrl>
<Point><coordinates>-81.315833,28.428889,0</coordinates></Point></Placemark>
<Placemark><name>DJRenegadeUSA</name><description>I'm at Orlando International Airport (MCO) (1 Jeff Fuqua Boulevard, btwn SR-528 &amp; SR-417, Orlando) w/ 73 others http://t.co/adMqzEtA
Sun, 20 Nov 2011 17:22:30 +0000</description><styleUrl>#hideLabel</styleUrl>
<Point><coordinates>-81.315833,28.428889,0</coordinates></Point></Placemark>
<Placemark><name>yaitzmee</name><description>I just call her boo #2chainzzzzz
Sun, 20 Nov 2011 17:46:06 +0000</description><styleUrl>#hideLabel</styleUrl>
<Point><coordinates>-81.306700,28.433500,0</coordinates></Point></Placemark>
<Placemark><name>sprjrx</name><description>Picking up Iruga and these huge birds were just bro'ing it up by the truck.  http://t.co/a3KWN4Ko #hipster
Sun, 20 Nov 2011 18:04:15 +0000</description><styleUrl>#hideLabel</styleUrl>
<Point><coordinates>-81.306000,28.415000,0</coordinates></Point></Placemark>
<Placemark><name>alb3</name><description>@BrooklishBabble Screw them. Go to the fruit company! #Apple
Sun, 20 Nov 2011 18:11:12 +0000</description><styleUrl>#hideLabel</styleUrl>
<Point><coordinates>-81.298378,28.434547,0</coordinates></Point></Placemark>
<Placemark><name>traviswarren</name><description>@ridederty what a game.  Brian Hall was shooting me txt msgs.  Congrats!
Sun, 20 Nov 2011 18:24:39 +0000</description><styleUrl>#hideLabel</styleUrl>
<Point><coordinates>-81.314100,28.434300,0</coordinates></Point></Placemark>
<Placemark><name>AnnetteLeeal</name><description>I'm at Orlando International Airport (MCO) (1 Jeff Fuqua Boulevard, btwn SR-528 &amp; SR-417, Orlando) w/ 60 others http://t.co/6hXM4PMt
Sun, 20 Nov 2011 18:27:10 +0000</description><styleUrl>#hideLabel</styleUrl>
<Point><coordinates>-81.315833,28.428889,0</coordinates></Point></Placemark>
<Placemark><name>TheHarleyGuy</name><description>Not nearly as much Holiday Travel mayhem as I expected today. Packers getting ready to score. Titans may even win.... http://t.co/otPVKfE2
Sun, 20 Nov 2011 18:29:03 +0000</description><styleUrl>#hideLabel</styleUrl>
<Point><coordinates>-81.308400,28.430900,0</coordinates></Point></Placemark>
<Placemark><name>kaytlynnfaloon</name><description>@TimTebow #Tebowing http://t.co/dvaPmwl8
Sun, 20 Nov 2011 18:41:23 +0000</description><styleUrl>#hideLabel</styleUrl>
<Point><coordinates>-81.305200,28.442200,0</coordinates></Point></Placemark>
<Placemark><name>sometimes_nat</name><description>Would you listen for once?
Sun, 20 Nov 2011 18:52:11 +0000</description><styleUrl>#hideLabel</styleUrl>
<Point><coordinates>-81.318488,28.424062,0</coordinates></Point></Placemark>
<Placemark><name>foreverLFC</name><description>Friends with ios5. Let's stalk/see each other more. PM me your email addresses!! #fb
Sun, 20 Nov 2011 18:58:00 +0000</description><styleUrl>#hideLabel</styleUrl>
<Point><coordinates>-81.315500,28.433200,0</coordinates></Point></Placemark>
<Placemark><name>orlpol32827</name><description>#AmbulanceEscort at 9746 Airport Blvd. #orlpol
Sun, 20 Nov 2011 19:00:16 +0000</description><styleUrl>#hideLabel</styleUrl>
<Point><coordinates>-81.306200,28.427700,0</coordinates></Point></Placemark>
<Placemark><name>TarvinMorres</name><description>I'm at Orlando International Airport (MCO) (1 Jeff Fuqua Boulevard, btwn SR-528 &amp; SR-417, Orlando) w/ 53 others http://t.co/0spz0mFx
Sun, 20 Nov 2011 19:04:46 +0000</description><styleUrl>#hideLabel</styleUrl>
<Point><coordinates>-81.315833,28.428889,0</coordinates></Point></Placemark>
<Placemark><name>jason_reyna</name><description>I'm at Orlando International Airport (MCO) (1 Jeff Fuqua Boulevard, btwn SR-528 &amp; SR-417, Orlando) w/ 50 others http://t.co/hWUppAV2
Sun, 20 Nov 2011 19:07:26 +0000</description><styleUrl>#hideLabel</styleUrl>
<Point><coordinates>-81.315833,28.428889,0</coordinates></Point></Placemark>
<Placemark><name>JoshuaKeller</name><description>I just unlocked the &quot;Service&quot; badge on @foursquare! Here's to all the troops. http://t.co/M6WuH2lq
Sun, 20 Nov 2011 19:22:41 +0000</description><styleUrl>#hideLabel</styleUrl>
<Point><coordinates>-81.303286,28.427399,0</coordinates></Point></Placemark>
<Placemark><name>80zkidzklub</name><description>I think if i sit down I'll pass out for about 5 hours
Sun, 20 Nov 2011 19:25:57 +0000</description><styleUrl>#hideLabel</styleUrl>
<Point><coordinates>-81.306218,28.429698,0</coordinates></Point></Placemark>
<Placemark><name>johnraser</name><description>Off to Santo Domingo to spend Thanksgiving with my mom &amp; sister! (@ Orlando International Airport (MCO) w/ @gqmike) http://t.co/ZAjcgIt1
Sun, 20 Nov 2011 19:25:51 +0000</description><styleUrl>#hideLabel</styleUrl>
<Point><coordinates>-81.308400,28.430900,0</coordinates></Point></Placemark>
<Placemark><name>derekkhubbard</name><description>Just talked #NFL w/ a gent at the airport.
Sun, 20 Nov 2011 20:08:35 +0000</description><styleUrl>#hideLabel</styleUrl>
<Point><coordinates>-81.306600,28.431900,0</coordinates></Point></Placemark>
<Placemark><name>80zkidzklub</name><description>Standing is become more difficult at this point been up too long
Sun, 20 Nov 2011 20:15:33 +0000</description><styleUrl>#hideLabel</styleUrl>
<Point><coordinates>-81.306218,28.429698,0</coordinates></Point></Placemark>
<Placemark><name>TarvinMorres</name><description>I'm confused - do I poo in the trash can? ✈  @ Orlando International Airport (MCO) http://t.co/1LizcOtH
Sun, 20 Nov 2011 20:20:45 +0000</description><styleUrl>#hideLabel</styleUrl>
<Point><coordinates>-81.308400,28.430900,0</coordinates></Point></Placemark>
<Placemark><name>Tweet3po</name><description>#Weapons/Armed 9250 AIRPORT BV 32827 (11/20 15:18) #Orlando #OrlandoInternationalAirport
Sun, 20 Nov 2011 20:30:22 +0000</description><styleUrl>#hideLabel</styleUrl>
<Point><coordinates>-81.305200,28.431200,0</coordinates></Point></Placemark>
<Placemark><name>kissy62</name><description>ridiculous! #boomer “@tonyjefferson1: Dang the fans in wal Mart weren't very happy with me, got a ear full the whole time I was there.&quot;
Sun, 20 Nov 2011 20:30:21 +0000</description><styleUrl>#hideLabel</styleUrl>
<Point><coordinates>-81.300600,28.428100,0</coordinates></Point></Placemark>
<Placemark><name>mrmikeflynn</name><description>Americans will not consider any tax increases without officials cutting spending FIRST. We already don't trust you with our money #debt
Sun, 20 Nov 2011 20:32:49 +0000</description><styleUrl>#hideLabel</styleUrl>
<Point><coordinates>-81.300468,28.429033,0</coordinates></Point></Placemark>
<Placemark><name>orlpol32827</name><description>#AmbulanceEscort at #MCO, 9025 Airport Blvd. #orlpol
Sun, 20 Nov 2011 20:35:16 +0000</description><styleUrl>#hideLabel</styleUrl>
<Point><coordinates>-81.305600,28.433800,0</coordinates></Point></Placemark>
<Placemark><name>jrm258147</name><description>I'm at Orlando International Airport (MCO) (1 Jeff Fuqua Boulevard, btwn SR-528 &amp; SR-417, Orlando) w/ 42 others http://t.co/gXLtRw4W
Sun, 20 Nov 2011 20:40:40 +0000</description><styleUrl>#hideLabel</styleUrl>
<Point><coordinates>-81.315833,28.428889,0</coordinates></Point></Placemark>
<Placemark><name>80zkidzklub</name><description>#instagram #style #selfshot #photography  http://t.co/wMFAvXbN
Sun, 20 Nov 2011 20:43:07 +0000</description><styleUrl>#hideLabel</styleUrl>
<Point><coordinates>-81.306218,28.429698,0</coordinates></Point></Placemark>
<Placemark><name>surodrig</name><description>I'm at Orlando International Airport (MCO) (1 Jeff Fuqua Boulevard, btwn SR-528 &amp; SR-417, Orlando) w/ 41 others http://t.co/7o5ODnOx
Sun, 20 Nov 2011 20:49:48 +0000</description><styleUrl>#hideLabel</styleUrl>
<Point><coordinates>-81.315833,28.428889,0</coordinates></Point></Placemark>
<Placemark><name>TonyBellissimo</name><description>“@callmeCaYFrYe:  &amp; the rest of the Tremaine fam just killed it in the facility show #werk -- good seeing you Tone !!!!” #teamTremaine
Sun, 20 Nov 2011 20:56:10 +0000</description><styleUrl>#hideLabel</styleUrl>
<Point><coordinates>-81.315500,28.433100,0</coordinates></Point></Placemark>
<Placemark><name>TonyBellissimo</name><description>“@MikeRisco: @TonyBellissimo where your @buffalobills at son?!?! Am I seeing that score correctly?!? Dammmm” #nothappy
Sun, 20 Nov 2011 20:55:42 +0000</description><styleUrl>#hideLabel</styleUrl>
<Point><coordinates>-81.315500,28.433100,0</coordinates></Point></Placemark>
<Placemark><name>t_j_thompson</name><description>Who's the leader of the band that's made for you and me? (@ Orlando International Airport (MCO) w/ 42 others) http://t.co/7yFgBk1w
Sun, 20 Nov 2011 20:59:01 +0000</description><styleUrl>#hideLabel</styleUrl>
<Point><coordinates>-81.308400,28.430900,0</coordinates></Point></Placemark>
<Placemark><name>alb3</name><description>The Browns are rarely on TV in O-town but they were today b/c of JAX. So they just won and they play Journey? Wow. Glad I'm not a Browns fan
Sun, 20 Nov 2011 21:00:49 +0000</description><styleUrl>#hideLabel</styleUrl>
<Point><coordinates>-81.298378,28.434547,0</coordinates></Point></Placemark>
<Placemark><name>t_j_thompson</name><description>The race to the bathroom is on (@ Gate 56) http://t.co/CS6eaJpo
Sun, 20 Nov 2011 21:03:41 +0000</description><styleUrl>#hideLabel</styleUrl>
<Point><coordinates>-81.315600,28.428400,0</coordinates></Point></Placemark>
<Placemark><name>YoungWolf</name><description>I'm at Orlando International Airport (MCO) (1 Jeff Fuqua Boulevard, btwn SR-528 &amp; SR-417, Orlando) w/ 41 others http://t.co/rhEugVcT
Sun, 20 Nov 2011 21:05:18 +0000</description><styleUrl>#hideLabel</styleUrl>
<Point><coordinates>-81.315833,28.428889,0</coordinates></Point></Placemark>
<Placemark><name>sometimes_nat</name><description>Lights out? Great! #sarcasm Amazing how this day just gets worst and worst.
Sun, 20 Nov 2011 21:18:59 +0000</description><styleUrl>#hideLabel</styleUrl>
<Point><coordinates>-81.318488,28.424062,0</coordinates></Point></Placemark>
<Placemark><name>skittlesness</name><description>Finally here!!!! (@ Orlando International Airport (MCO) w/ 46 others) http://t.co/AGYtDv6x
Sun, 20 Nov 2011 21:22:51 +0000</description><styleUrl>#hideLabel</styleUrl>
<Point><coordinates>-81.308400,28.430900,0</coordinates></Point></Placemark>
<Placemark><name>Tweet3po</name><description>#GeneralInvestigation 9321 AIRPORT BV 32827 (11/20 16:08) #Orlando #OrlandoInternationalAirport
Sun, 20 Nov 2011 21:23:22 +0000</description><styleUrl>#hideLabel</styleUrl>
<Point><coordinates>-81.305100,28.431200,0</coordinates></Point></Placemark>
<Placemark><name>GreenGoSolar</name><description>RT @Mitsuaki: I'm at Orlando International Airport (MCO) (1 Jeff Fuqua Boulevard, btwn SR-528 &amp; SR-417, Orlando) w/ 34 others http://t.co/7Jid0ybK
Sun, 20 Nov 2011 21:29:51 +0000</description><styleUrl>#hideLabel</styleUrl>
<Point><coordinates>-81.315833,28.428889,0</coordinates></Point></Placemark>
<Placemark><name>t_j_thompson</name><description>Disney getting us trained to wait in long lines.  Just trying to board - aargh! (@ Disney Magical Express) http://t.co/lhCuw9NR
Sun, 20 Nov 2011 21:31:43 +0000</description><styleUrl>#hideLabel</styleUrl>
<Point><coordinates>-81.309300,28.430100,0</coordinates></Point></Placemark>
<Placemark><name>TonyBellissimo</name><description>“@RacheyBieber101: @TonyBellissimo ! http://t.co/ux5zcxrC” #teamTremaine looks fresh-
Sun, 20 Nov 2011 21:31:34 +0000</description><styleUrl>#hideLabel</styleUrl>
<Point><coordinates>-81.315500,28.435700,0</coordinates></Point></Placemark>
<Placemark><name>todd_watt</name><description>I'm at Orlando International Airport (MCO) (1 Jeff Fuqua Boulevard, btwn SR-528 &amp; SR-417, Orlando) w/ 53 others http://t.co/vFRq8SmD
Sun, 20 Nov 2011 21:44:32 +0000</description><styleUrl>#hideLabel</styleUrl>
<Point><coordinates>-81.315833,28.428889,0</coordinates></Point></Placemark>
<Placemark><name>Tweet3po</name><description>#MissingPersonAdult 9729 AIRPORT BV 32827 (11/20 16:37) #Orlando #OrlandoInternationalAirport
Sun, 20 Nov 2011 21:49:23 +0000</description><styleUrl>#hideLabel</styleUrl>
<Point><coordinates>-81.305900,28.434600,0</coordinates></Point></Placemark>
<Placemark><name>datcoletrain</name><description>I'm at Orlando International Airport (MCO) (1 Jeff Fuqua Boulevard, btwn SR-528 &amp; SR-417, Orlando) w/ 53 others http://t.co/EMwHzlRc
Sun, 20 Nov 2011 21:55:30 +0000</description><styleUrl>#hideLabel</styleUrl>
<Point><coordinates>-81.315833,28.428889,0</coordinates></Point></Placemark>
<Placemark><name>GeekyGal8</name><description>I'm at Orlando International Airport (MCO) (1 Jeff Fuqua Boulevard, btwn SR-528 &amp; SR-417, Orlando) w/ 55 others http://t.co/qtww1APn
Sun, 20 Nov 2011 22:25:03 +0000</description><styleUrl>#hideLabel</styleUrl>
<Point><coordinates>-81.315833,28.428889,0</coordinates></Point></Placemark>
<Placemark><name>IamAntonioIV</name><description>I'm at Orlando International Airport (MCO) (1 Jeff Fuqua Boulevard, btwn SR-528 &amp; SR-417, Orlando) w/ 56 others http://t.co/OLX9iF1i
Sun, 20 Nov 2011 22:28:14 +0000</description><styleUrl>#hideLabel</styleUrl>
<Point><coordinates>-81.315833,28.428889,0</coordinates></Point></Placemark>
<Placemark><name>christinee279</name><description>I'm at Orlando International Airport (MCO) (1 Jeff Fuqua Boulevard, btwn SR-528 &amp; SR-417, Orlando) w/ 62 others http://t.co/yaP9X6NT
Sun, 20 Nov 2011 22:30:07 +0000</description><styleUrl>#hideLabel</styleUrl>
<Point><coordinates>-81.315833,28.428889,0</coordinates></Point></Placemark>
<Placemark><name>ohnezu</name><description>Back in Orlando :-/ (@ Orlando International Airport (MCO) w/ 61 others) http://t.co/mPpNmIuf
Sun, 20 Nov 2011 22:29:59 +0000</description><styleUrl>#hideLabel</styleUrl>
<Point><coordinates>-81.308400,28.430900,0</coordinates></Point></Placemark>