<?xml version="1.0" encoding="UTF-8"?><kml xmlns="http://www.opengis.net/kml/2.2"><Document>
<Style id="hideLabel"><LabelStyle><scale>0</scale></LabelStyle></Style>
<Placemark><name>DJXtreme4DBT</name><description>I'm at Hilton Houston Hobby Airport (HOU) (8181 Airport Blvd, Houston) http://t.co/lyLQbFac
Fri, 18 Nov 2011 16:53:04 +0000</description><styleUrl>#hideLabel</styleUrl>
<Point><coordinates>-95.278889,29.645278,0</coordinates></Point></Placemark>
<Placemark><name>PLAY4TEAMIPHONE</name><description>I'm at William P Hobby Airport (HOU) (7800 Airport Blvd, Houston) w/ 20 others http://t.co/CE2Oh1m7
Fri, 18 Nov 2011 18:26:51 +0000</description><styleUrl>#hideLabel</styleUrl>
<Point><coordinates>-95.278889,29.645278,0</coordinates></Point></Placemark>
<Placemark><name>nvore</name><description>A hop, skip, and a jump...off to Orlando!!! (@ Houston International Airport w/ 2 others) http://t.co/Dvih3iHh
Fri, 18 Nov 2011 19:01:26 +0000</description><styleUrl>#hideLabel</styleUrl>
<Point><coordinates>-95.275100,29.653000,0</coordinates></Point></Placemark>
<Placemark><name>CellarReserve</name><description>I'm at William P Hobby Airport (HOU) (7800 Airport Blvd, Houston) w/ 20 others http://t.co/GQLESzcv
Fri, 18 Nov 2011 19:09:39 +0000</description><styleUrl>#hideLabel</styleUrl>
<Point><coordinates>-95.278889,29.645278,0</coordinates></Point></Placemark>
<Placemark><name>WendiPoole</name><description>Some times a walk through Central Market is just what the doctor ordered.  @ Central Market http://t.co/9Urr2PU2
Fri, 18 Nov 2011 20:01:41 +0000</description><styleUrl>#hideLabel</styleUrl>
<Point><coordinates>-95.286781,29.657331,0</coordinates></Point></Placemark>
<Placemark><name>ZeOheeNoWhy</name><description>Wow that was the first time someone put me Ina #ff and I got followed.
Fri, 18 Nov 2011 20:26:34 +0000</description><styleUrl>#hideLabel</styleUrl>
<Point><coordinates>-95.269100,29.660900,0</coordinates></Point></Placemark>
<Placemark><name>JacknDiet</name><description>I'm at William P Hobby Airport (HOU) (7800 Airport Blvd, Houston) w/ 17 others http://t.co/5WLizFSI
Fri, 18 Nov 2011 20:53:10 +0000</description><styleUrl>#hideLabel</styleUrl>
<Point><coordinates>-95.278889,29.645278,0</coordinates></Point></Placemark>
<Placemark><name>ramirez138</name><description>Hobby Airport...
I took someone here and picked them up when they came back. 
Ahhh how I want to go back to those times. &quot;/
Fri, 18 Nov 2011 21:12:04 +0000</description><styleUrl>#hideLabel</styleUrl>
<Point><coordinates>-95.286900,29.634700,0</coordinates></Point></Placemark>
<Placemark><name>txelectionlaw</name><description>I'm at William P Hobby Airport (HOU) (7800 Airport Blvd, Houston) w/ 11 others http://t.co/Ud7tDvj4
Fri, 18 Nov 2011 21:43:10 +0000</description><styleUrl>#hideLabel</styleUrl>
<Point><coordinates>-95.278889,29.645278,0</coordinates></Point></Placemark>
<Placemark><name>TheReyBlanco</name><description>Yay for delayed flights!
Fri, 18 Nov 2011 21:56:20 +0000</description><styleUrl>#hideLabel</styleUrl>
<Point><coordinates>-95.276500,29.654100,0</coordinates></Point></Placemark>
<Placemark><name>ZeOheeNoWhy</name><description>I really hate that I miss my mother. /:  it really bums me out that she's such a fucking bitch.
Fri, 18 Nov 2011 22:44:21 +0000</description><styleUrl>#hideLabel</styleUrl>
<Point><coordinates>-95.269200,29.660900,0</coordinates></Point></Placemark>
<Placemark><name>elliszeigler</name><description>Just landed. (@ William P Hobby Airport (HOU) w/ 12 others) http://t.co/UZmyoqOJ
Fri, 18 Nov 2011 22:45:45 +0000</description><styleUrl>#hideLabel</styleUrl>
<Point><coordinates>-95.276900,29.646700,0</coordinates></Point></Placemark>
<Placemark><name>sarge1</name><description>I'm at William P Hobby Airport (HOU) (7800 Airport Blvd, Houston) w/ 9 others http://t.co/fVSfCWG4
Fri, 18 Nov 2011 23:02:10 +0000</description><styleUrl>#hideLabel</styleUrl>
<Point><coordinates>-95.278889,29.645278,0</coordinates></Point></Placemark>
<Placemark><name>prettykryss</name><description>I want a tattoo!
Fri, 18 Nov 2011 23:15:39 +0000</description><styleUrl>#hideLabel</styleUrl>
<Point><coordinates>-95.292200,29.638900,0</coordinates></Point></Placemark>
<Placemark><name>prettykryss</name><description>Going to the movies at midnight for the midnight premiere
Fri, 18 Nov 2011 23:33:17 +0000</description><styleUrl>#hideLabel</styleUrl>
<Point><coordinates>-95.292200,29.638600,0</coordinates></Point></Placemark>
<Placemark><name>doubleup300</name><description>At Houston airport heading to GA
Fri, 18 Nov 2011 23:39:51 +0000</description><styleUrl>#hideLabel</styleUrl>
<Point><coordinates>-95.263400,29.652800,0</coordinates></Point></Placemark>
<Placemark><name>prettykryss</name><description>@LittleMsMariee_ Wyd tonight?
Fri, 18 Nov 2011 23:42:40 +0000</description><styleUrl>#hideLabel</styleUrl>
<Point><coordinates>-95.292400,29.638600,0</coordinates></Point></Placemark>
<Placemark><name>antpowell</name><description>@jylovesyou_145 gotcha
Fri, 18 Nov 2011 23:53:08 +0000</description><styleUrl>#hideLabel</styleUrl>
<Point><coordinates>-95.272900,29.659200,0</coordinates></Point></Placemark>
<Placemark><name>prettykryss</name><description>@LittleMsMariee_ you being sneaky you text me marie
Fri, 18 Nov 2011 23:52:13 +0000</description><styleUrl>#hideLabel</styleUrl>
<Point><coordinates>-95.292300,29.638700,0</coordinates></Point></Placemark>
<Placemark><name>jasonact</name><description>About to board for Orlando (@ Gate 21 w/ 2 others) [pic]: http://t.co/itnH0RZ9
Sat, 19 Nov 2011 00:07:00 +0000</description><styleUrl>#hideLabel</styleUrl>
<Point><coordinates>-95.276200,29.652700,0</coordinates></Point></Placemark>
<Placemark><name>kimboswift</name><description>Going through security with Houston's soccer team is a good sign...
Sat, 19 Nov 2011 00:11:17 +0000</description><styleUrl>#hideLabel</styleUrl>
<Point><coordinates>-95.276400,29.654700,0</coordinates></Point></Placemark>
<Placemark><name>DallasKink</name><description>I'm at William P Hobby Airport (HOU) (7800 Airport Blvd, Houston) w/ 12 others http://t.co/432rHBK8
Sat, 19 Nov 2011 00:29:34 +0000</description><styleUrl>#hideLabel</styleUrl>
<Point><coordinates>-95.278889,29.645278,0</coordinates></Point></Placemark>
<Placemark><name>ashbigcash</name><description>Home baby!!! All of the lights... (@ William P Hobby Airport (HOU) w/ 17 others) [pic]: http://t.co/eWilRJnd
Sat, 19 Nov 2011 00:53:08 +0000</description><styleUrl>#hideLabel</styleUrl>
<Point><coordinates>-95.276900,29.646700,0</coordinates></Point></Placemark>
<Placemark><name>amazonsheena</name><description>@sarrahdee dm me your # ho! I'm in houston biatch!
Sat, 19 Nov 2011 01:04:51 +0000</description><styleUrl>#hideLabel</styleUrl>
<Point><coordinates>-95.280800,29.655200,0</coordinates></Point></Placemark>
<Placemark><name>stephen_cole</name><description>Balsamic Glazed Chicken Baby!! Hangin w the Kaci &amp; Josh Baldwin..#goodtimes http://t.co/WvgC0VoJ
Sat, 19 Nov 2011 01:29:28 +0000</description><styleUrl>#hideLabel</styleUrl>
<Point><coordinates>-95.263916,29.653152,0</coordinates></Point></Placemark>
<Placemark><name>crossfit_premi</name><description>I'm at William P Hobby Airport (HOU) (7800 Airport Blvd, Houston) w/ 18 others http://t.co/AXPYXK1g
Sat, 19 Nov 2011 02:37:43 +0000</description><styleUrl>#hideLabel</styleUrl>
<Point><coordinates>-95.278889,29.645278,0</coordinates></Point></Placemark>
<Placemark><name>whoami2you</name><description>@1lifeintweets No wifi on my SWA flight bleh
Sat, 19 Nov 2011 02:39:51 +0000</description><styleUrl>#hideLabel</styleUrl>
<Point><coordinates>-95.283400,29.656700,0</coordinates></Point></Placemark>
<Placemark><name>_DamnLilHOE</name><description>@IngloriousWords Liyah I miss you
Sat, 19 Nov 2011 03:48:59 +0000</description><styleUrl>#hideLabel</styleUrl>
<Point><coordinates>-95.271100,29.660700,0</coordinates></Point></Placemark>
<Placemark><name>_DamnLilHOE</name><description>60-50 Galveston Ball WON!
Sat, 19 Nov 2011 03:50:31 +0000</description><styleUrl>#hideLabel</styleUrl>
<Point><coordinates>-95.271100,29.660700,0</coordinates></Point></Placemark>
<Placemark><name>_DamnLilHOE</name><description>Chavez vs. Galveston Ball
Sat, 19 Nov 2011 03:49:49 +0000</description><styleUrl>#hideLabel</styleUrl>
<Point><coordinates>-95.271100,29.660700,0</coordinates></Point></Placemark>
<Placemark><name>_DamnLilHOE</name><description>@IHave_AFuTure meeeee
Sat, 19 Nov 2011 03:54:18 +0000</description><styleUrl>#hideLabel</styleUrl>
<Point><coordinates>-95.271100,29.660700,0</coordinates></Point></Placemark>
<Placemark><name>_DamnLilHOE</name><description>@IngloriousWords how you been ?
Sat, 19 Nov 2011 03:53:31 +0000</description><styleUrl>#hideLabel</styleUrl>
<Point><coordinates>-95.271100,29.660700,0</coordinates></Point></Placemark>
<Placemark><name>_DamnLilHOE</name><description>@IngloriousWords ehhh same oh same oh. I text Goodmorning every now &amp; then &amp; no reply
Sat, 19 Nov 2011 03:56:52 +0000</description><styleUrl>#hideLabel</styleUrl>
<Point><coordinates>-95.270900,29.660200,0</coordinates></Point></Placemark>
<Placemark><name>deetae15</name><description>What's up doug
Sat, 19 Nov 2011 03:59:52 +0000</description><styleUrl>#hideLabel</styleUrl>
<Point><coordinates>-95.277300,29.662200,0</coordinates></Point></Placemark>
<Placemark><name>_DamnLilHOE</name><description>I have class tomorrow.
Sat, 19 Nov 2011 03:58:50 +0000</description><styleUrl>#hideLabel</styleUrl>
<Point><coordinates>-95.270900,29.660200,0</coordinates></Point></Placemark>
<Placemark><name>_DamnLilHOE</name><description>@IngloriousWords it's cool 
Sat, 19 Nov 2011 04:01:24 +0000</description><styleUrl>#hideLabel</styleUrl>
<Point><coordinates>-95.271100,29.660700,0</coordinates></Point></Placemark>
<Placemark><name>deetae15</name><description>What's up @Team_Mcknight1
Sat, 19 Nov 2011 04:03:48 +0000</description><styleUrl>#hideLabel</styleUrl>
<Point><coordinates>-95.277700,29.662100,0</coordinates></Point></Placemark>
<Placemark><name>_DamnLilHOE</name><description>@Stalling_XXIV I'm Donna text right now , I'm sorry 
Sat, 19 Nov 2011 04:03:45 +0000</description><styleUrl>#hideLabel</styleUrl>
<Point><coordinates>-95.271100,29.660700,0</coordinates></Point></Placemark>
<Placemark><name>_DamnLilHOE</name><description>@Stalling_XXIV i just did
Sat, 19 Nov 2011 04:06:34 +0000</description><styleUrl>#hideLabel</styleUrl>
<Point><coordinates>-95.271100,29.660700,0</coordinates></Point></Placemark>
<Placemark><name>liindsgreen</name><description>Omg.. #MileHighClub got so many jack n diet fo free on my flight to htown.. Wooo #ILiveWhiskey especially free whiskey #DrunkGirlProblems
Sat, 19 Nov 2011 04:12:53 +0000</description><styleUrl>#hideLabel</styleUrl>
<Point><coordinates>-95.276300,29.654300,0</coordinates></Point></Placemark>
<Placemark><name>_DamnLilHOE</name><description>@Lilbeezy_22 yes
Sat, 19 Nov 2011 04:12:34 +0000</description><styleUrl>#hideLabel</styleUrl>
<Point><coordinates>-95.270700,29.659700,0</coordinates></Point></Placemark>
<Placemark><name>deetae15</name><description>I wonder what advice did I give my bestfriend
Sat, 19 Nov 2011 04:12:32 +0000</description><styleUrl>#hideLabel</styleUrl>
<Point><coordinates>-95.277400,29.662200,0</coordinates></Point></Placemark>
<Placemark><name>deetae15</name><description>You got me fucked up.... Lol @ServeNdCollect_
Sat, 19 Nov 2011 04:51:38 +0000</description><styleUrl>#hideLabel</styleUrl>
<Point><coordinates>-95.277200,29.662200,0</coordinates></Point></Placemark>
<Placemark><name>TanManSam</name><description>@ifollowLashae Wachu gettin into this weekend?
Sat, 19 Nov 2011 05:57:21 +0000</description><styleUrl>#hideLabel</styleUrl>
<Point><coordinates>-95.282200,29.654000,0</coordinates></Point></Placemark>
<Placemark><name>TanManSam</name><description>@ifollowLashae oomf #notTheBuisness
Sat, 19 Nov 2011 06:01:25 +0000</description><styleUrl>#hideLabel</styleUrl>
<Point><coordinates>-95.279600,29.657300,0</coordinates></Point></Placemark>
<Placemark><name>TanManSam</name><description>Im kinda upset I cudnt tweet in the clouds.
Sat, 19 Nov 2011 06:20:56 +0000</description><styleUrl>#hideLabel</styleUrl>
<Point><coordinates>-95.279600,29.657300,0</coordinates></Point></Placemark>
<Placemark><name>TanManSam</name><description>It don't really get cold here at night
Sat, 19 Nov 2011 06:31:43 +0000</description><styleUrl>#hideLabel</styleUrl>
<Point><coordinates>-95.279600,29.657300,0</coordinates></Point></Placemark>
<Placemark><name>btwshe_thicktho</name><description>Now following @MizzFreakyBay follow back
Sat, 19 Nov 2011 07:41:06 +0000</description><styleUrl>#hideLabel</styleUrl>
<Point><coordinates>-95.277800,29.662800,0</coordinates></Point></Placemark>
<Placemark><name>btwshe_thicktho</name><description>Now following @BadBxtchGettin follow back
Sat, 19 Nov 2011 07:43:42 +0000</description><styleUrl>#hideLabel</styleUrl>
<Point><coordinates>-95.277800,29.662800,0</coordinates></Point></Placemark>
<Placemark><name>btwshe_thicktho</name><description>I'm almost there
Sat, 19 Nov 2011 07:50:19 +0000</description><styleUrl>#hideLabel</styleUrl>
<Point><coordinates>-95.278100,29.663100,0</coordinates></Point></Placemark>
<Placemark><name>btwshe_thicktho</name><description>You sumthan else! RT @ysbdre_dae: @btwshe_thicktho believe dat la bby
Sat, 19 Nov 2011 08:19:32 +0000</description><styleUrl>#hideLabel</styleUrl>
<Point><coordinates>-95.277900,29.662800,0</coordinates></Point></Placemark>
<Placemark><name>btwshe_thicktho</name><description>Me to but its boring but i aint trynna go to sleep RT @WolfSanchez_: @btwshe_thicktho lol. Coolin at me casa.
Sat, 19 Nov 2011 08:18:33 +0000</description><styleUrl>#hideLabel</styleUrl>
<Point><coordinates>-95.278100,29.663100,0</coordinates></Point></Placemark>
<Placemark><name>btwshe_thicktho</name><description>Lmaooo that mention&gt;&gt;&gt;
Sat, 19 Nov 2011 08:21:24 +0000</description><styleUrl>#hideLabel</styleUrl>
<Point><coordinates>-95.277800,29.662800,0</coordinates></Point></Placemark>
<Placemark><name>btwshe_thicktho</name><description>What you got on lol jpRT @WolfSanchez_: @btwshe_thicktho We Feel the same wayy. Lol
Sat, 19 Nov 2011 08:21:05 +0000</description><styleUrl>#hideLabel</styleUrl>
<Point><coordinates>-95.277800,29.662800,0</coordinates></Point></Placemark>
<Placemark><name>btwshe_thicktho</name><description>Ha run that shit back
Sat, 19 Nov 2011 08:20:30 +0000</description><styleUrl>#hideLabel</styleUrl>
<Point><coordinates>-95.277800,29.662800,0</coordinates></Point></Placemark>
<Placemark><name>btwshe_thicktho</name><description>Late night str8 pipe that ain't nothing new to you!
Sat, 19 Nov 2011 08:20:11 +0000</description><styleUrl>#hideLabel</styleUrl>
<Point><coordinates>-95.277800,29.662800,0</coordinates></Point></Placemark>
<Placemark><name>btwshe_thicktho</name><description>I hate txtn but for some reason I feel like texting so somebody should txt my line=)
Sat, 19 Nov 2011 08:24:36 +0000</description><styleUrl>#hideLabel</styleUrl>
<Point><coordinates>-95.277800,29.662800,0</coordinates></Point></Placemark>
<Placemark><name>btwshe_thicktho</name><description>Dead men's keep the ppl Fed $$$
Sat, 19 Nov 2011 08:23:21 +0000</description><styleUrl>#hideLabel</styleUrl>
<Point><coordinates>-95.277800,29.662800,0</coordinates></Point></Placemark>
<Placemark><name>Kush_Issues</name><description>I don't know why I like 2 fuck so much......
Sat, 19 Nov 2011 08:31:04 +0000</description><styleUrl>#hideLabel</styleUrl>
<Point><coordinates>-95.272100,29.660800,0</coordinates></Point></Placemark>
<Placemark><name>btwshe_thicktho</name><description>O_o but what you no?!RT @ysbdre_dae: @btwshe_thicktho wat u peeppin tell me sumthin idnt kno
Sat, 19 Nov 2011 08:33:34 +0000</description><styleUrl>#hideLabel</styleUrl>
<Point><coordinates>-95.278000,29.663000,0</coordinates></Point></Placemark>
<Placemark><name>Kush_Issues</name><description>Ugh pissed
Sat, 19 Nov 2011 12:39:56 +0000</description><styleUrl>#hideLabel</styleUrl>
<Point><coordinates>-95.272100,29.660800,0</coordinates></Point></Placemark>
<Placemark><name>Kush_Issues</name><description>Ugh agg.......
Sat, 19 Nov 2011 12:42:54 +0000</description><styleUrl>#hideLabel</styleUrl>
<Point><coordinates>-95.272100,29.660800,0</coordinates></Point></Placemark>
<Placemark><name>Kush_Issues</name><description>2 missed Cll anit hear em at all
Sat, 19 Nov 2011 12:41:08 +0000</description><styleUrl>#hideLabel</styleUrl>
<Point><coordinates>-95.272100,29.660800,0</coordinates></Point></Placemark>
<Placemark><name>Kush_Issues</name><description>If he can't keep a conversation going don't expect him to keep a relationship going either.
Sat, 19 Nov 2011 12:40:39 +0000</description><styleUrl>#hideLabel</styleUrl>
<Point><coordinates>-95.272100,29.660800,0</coordinates></Point></Placemark>
<Placemark><name>Kush_Issues</name><description>RT @_iPublicist_ceo: @Kush_Issues can we all plz go sit dwn in foxwood like old times Lmao....LMAO (cont) http://t.co/VBLQkXRT
Sat, 19 Nov 2011 12:58:36 +0000</description><styleUrl>#hideLabel</styleUrl>
<Point><coordinates>-95.272100,29.660800,0</coordinates></Point></Placemark>
<Placemark><name>_DamnLilHOE</name><description>I'm not going to class today , I'm tooo tired!
Sat, 19 Nov 2011 13:01:09 +0000</description><styleUrl>#hideLabel</styleUrl>
<Point><coordinates>-95.270100,29.659800,0</coordinates></Point></Placemark>
<Placemark><name>Kush_Issues</name><description>Sometimes I look at my friends &amp; think to myself ''Where did I meet these crazy people?'' But then I think ''What would I do without them?''
Sat, 19 Nov 2011 13:02:28 +0000</description><styleUrl>#hideLabel</styleUrl>
<Point><coordinates>-95.272100,29.660800,0</coordinates></Point></Placemark>
<Placemark><name>Kush_Issues</name><description>I said I'm over you. But every time my phone vibrates, my heart still wishes it's a text from you.
Sat, 19 Nov 2011 13:02:03 +0000</description><styleUrl>#hideLabel</styleUrl>
<Point><coordinates>-95.272100,29.660800,0</coordinates></Point></Placemark>
<Placemark><name>Kush_Issues</name><description>@_iPublicist_ceo you think cowboy will light up the pit for us nd throw down...lol
Sat, 19 Nov 2011 13:04:31 +0000</description><styleUrl>#hideLabel</styleUrl>
<Point><coordinates>-95.272100,29.660800,0</coordinates></Point></Placemark>
<Placemark><name>Kush_Issues</name><description>@_iPublicist_ceo Kmsl!!! Mmmmmmmm alright know Mrs Peggy voice
Sat, 19 Nov 2011 13:08:02 +0000</description><styleUrl>#hideLabel</styleUrl>
<Point><coordinates>-95.272100,29.660800,0</coordinates></Point></Placemark>
<Placemark><name>Kush_Issues</name><description>fox wood reunion today...LOL
Sat, 19 Nov 2011 13:11:05 +0000</description><styleUrl>#hideLabel</styleUrl>
<Point><coordinates>-95.272100,29.660800,0</coordinates></Point></Placemark>
<Placemark><name>Kush_Issues</name><description>Cum nd chill wiid dj @_iPublicist_ceo!!!! It's going down for foxwood reunion today!!! Free food, (cont) http://t.co/uNVy4tlq
Sat, 19 Nov 2011 13:15:05 +0000</description><styleUrl>#hideLabel</styleUrl>
<Point><coordinates>-95.272100,29.660800,0</coordinates></Point></Placemark>
<Placemark><name>Kush_Issues</name><description>#remindme to expect less so I won't get disappointed.
Sat, 19 Nov 2011 13:19:11 +0000</description><styleUrl>#hideLabel</styleUrl>
<Point><coordinates>-95.272100,29.660800,0</coordinates></Point></Placemark>
<Placemark><name>Kush_Issues</name><description>Bitch, who told you had to like me? Last time I checked, life will go on regardless of your opinion or approval.
Sat, 19 Nov 2011 13:18:25 +0000</description><styleUrl>#hideLabel</styleUrl>
<Point><coordinates>-95.272100,29.660800,0</coordinates></Point></Placemark>
<Placemark><name>Kush_Issues</name><description>It's going dwn
Sat, 19 Nov 2011 13:24:00 +0000</description><styleUrl>#hideLabel</styleUrl>
<Point><coordinates>-95.272100,29.660800,0</coordinates></Point></Placemark>
<Placemark><name>Kush_Issues</name><description>@_iPublicist_ceo you forgot the special performance by Ck nd Ron c
Sat, 19 Nov 2011 13:22:55 +0000</description><styleUrl>#hideLabel</styleUrl>
<Point><coordinates>-95.272100,29.660800,0</coordinates></Point></Placemark>
<Placemark><name>Kush_Issues</name><description>DEA where all the pimps players ballers nd CEO==&gt;&gt;&gt;&gt;&gt;&gt;&gt; @_iPublicist_ceo!!!
Sat, 19 Nov 2011 13:26:07 +0000</description><styleUrl>#hideLabel</styleUrl>
<Point><coordinates>-95.272100,29.660800,0</coordinates></Point></Placemark>
<Placemark><name>Kush_Issues</name><description>RT @_RonJohnson1483: Bish, I got money too... #GetDaFuckFromRoundHere
Sat, 19 Nov 2011 13:29:26 +0000</description><styleUrl>#hideLabel</styleUrl>
<Point><coordinates>-95.272100,29.660800,0</coordinates></Point></Placemark>
<Placemark><name>Kush_Issues</name><description>RT @ImOnlyB: I thank God fa wakin me up dis mornin allowin me to see anutha day n fa health n strength #tooblessed
Sat, 19 Nov 2011 13:29:02 +0000</description><styleUrl>#hideLabel</styleUrl>
<Point><coordinates>-95.272100,29.660800,0</coordinates></Point></Placemark>
<Placemark><name>wmcraven</name><description>I'm at William P Hobby Airport (HOU) (7800 Airport Blvd, Houston) w/ 6 others http://t.co/UhWt0gns
Sat, 19 Nov 2011 13:28:38 +0000</description><styleUrl>#hideLabel</styleUrl>
<Point><coordinates>-95.278889,29.645278,0</coordinates></Point></Placemark>
<Placemark><name>Kush_Issues</name><description>its a SOUTHSIDE thang but its a DEADEND click!!
Sat, 19 Nov 2011 13:27:58 +0000</description><styleUrl>#hideLabel</styleUrl>
<Point><coordinates>-95.272100,29.660800,0</coordinates></Point></Placemark>
<Placemark><name>_DamnLilHOE</name><description>Got off the phone early last night , I was sleepy after that game
Sat, 19 Nov 2011 13:36:48 +0000</description><styleUrl>#hideLabel</styleUrl>
<Point><coordinates>-95.269500,29.660200,0</coordinates></Point></Placemark>
<Placemark><name>_DamnLilHOE</name><description>@FuckinBased wyd today ?
Sat, 19 Nov 2011 13:39:11 +0000</description><styleUrl>#hideLabel</styleUrl>
<Point><coordinates>-95.269500,29.660200,0</coordinates></Point></Placemark>
<Placemark><name>_DamnLilHOE</name><description>I wanna go too the gallo today.
Sat, 19 Nov 2011 13:38:39 +0000</description><styleUrl>#hideLabel</styleUrl>
<Point><coordinates>-95.269500,29.660200,0</coordinates></Point></Placemark>
<Placemark><name>ezrahezekiah</name><description>I'm at William P Hobby Airport (HOU) (7800 Airport Blvd, Houston) w/ 8 others http://t.co/jywDLCAl
Sat, 19 Nov 2011 14:22:05 +0000</description><styleUrl>#hideLabel</styleUrl>
<Point><coordinates>-95.278889,29.645278,0</coordinates></Point></Placemark>
<Placemark><name>SUPA_VILLIAN</name><description>@DunnGOT_Lesha run with me , hail marry
Sat, 19 Nov 2011 15:02:59 +0000</description><styleUrl>#hideLabel</styleUrl>
<Point><coordinates>-95.262300,29.652900,0</coordinates></Point></Placemark>
<Placemark><name>_DamnLilHOE</name><description>Watching yates and manvel game on tv
Sat, 19 Nov 2011 15:42:37 +0000</description><styleUrl>#hideLabel</styleUrl>
<Point><coordinates>-95.271100,29.660700,0</coordinates></Point></Placemark>
<Placemark><name>Kush_Issues</name><description>Fustration
Sat, 19 Nov 2011 15:54:01 +0000</description><styleUrl>#hideLabel</styleUrl>
<Point><coordinates>-95.272100,29.660800,0</coordinates></Point></Placemark>
<Placemark><name>Kush_Issues</name><description>Ugh
Sat, 19 Nov 2011 15:54:16 +0000</description><styleUrl>#hideLabel</styleUrl>
<Point><coordinates>-95.272100,29.660800,0</coordinates></Point></Placemark>
<Placemark><name>globalq</name><description>Protect your new iPhone from accidents with @SquareTrade's top-rated warranty. Take $5 off with my link! http://t.co/Kk7IDv6c
Sat, 19 Nov 2011 16:05:59 +0000</description><styleUrl>#hideLabel</styleUrl>
<Point><coordinates>-95.281448,29.634726,0</coordinates></Point></Placemark>
<Placemark><name>stephen_cole</name><description>So....... was watching the OSU game last nite &amp; thought it a sure win so we left BJ's and went home. Little did i know...should've stayed
Sat, 19 Nov 2011 16:28:50 +0000</description><styleUrl>#hideLabel</styleUrl>
<Point><coordinates>-95.263916,29.653152,0</coordinates></Point></Placemark>
<Placemark><name>AdrienneFord</name><description>First stop Little Rock! #OperationDisney is Go Live! (@ William P Hobby Airport (HOU) w/ 11 others) http://t.co/koHqasDD
Sat, 19 Nov 2011 16:31:24 +0000</description><styleUrl>#hideLabel</styleUrl>
<Point><coordinates>-95.276900,29.646700,0</coordinates></Point></Placemark>
<Placemark><name>k2daj2004</name><description>579 all day n everday
Sat, 19 Nov 2011 16:50:19 +0000</description><styleUrl>#hideLabel</styleUrl>
<Point><coordinates>-95.276700,29.663100,0</coordinates></Point></Placemark>
<Placemark><name>k2daj2004</name><description>http://t.co/T7QCAxMY
Sat, 19 Nov 2011 16:59:10 +0000</description><styleUrl>#hideLabel</styleUrl>
<Point><coordinates>-95.274400,29.659200,0</coordinates></Point></Placemark>
<Placemark><name>_DamnLilHOE</name><description>Cham is a character I swear 
Sat, 19 Nov 2011 17:08:50 +0000</description><styleUrl>#hideLabel</styleUrl>
<Point><coordinates>-95.271100,29.660700,0</coordinates></Point></Placemark>
<Placemark><name>k2daj2004</name><description>Bro n law tweets n on tha fone @ da same ty I guess @HE_TO_COOL
Sat, 19 Nov 2011 17:12:33 +0000</description><styleUrl>#hideLabel</styleUrl>
<Point><coordinates>-95.275500,29.658100,0</coordinates></Point></Placemark>
<Placemark><name>_DamnLilHOE</name><description>He's making me smile w/ his bio(:
Sat, 19 Nov 2011 17:13:18 +0000</description><styleUrl>#hideLabel</styleUrl>
<Point><coordinates>-95.271100,29.660700,0</coordinates></Point></Placemark>
<Placemark><name>NinjaHooker</name><description>Home! (@ Houston Hobby Baggage Claim) http://t.co/SISoxvfw
Sat, 19 Nov 2011 18:05:27 +0000</description><styleUrl>#hideLabel</styleUrl>
<Point><coordinates>-95.276400,29.654400,0</coordinates></Point></Placemark>
<Placemark><name>_DamnLilHOE</name><description>My mama gone tell me she ain't get none of my texts , &quot; I told her she better look at her text msgs real quick &quot; she talking bout GIRL OKAY!
Sat, 19 Nov 2011 18:40:44 +0000</description><styleUrl>#hideLabel</styleUrl>
<Point><coordinates>-95.271100,29.660700,0</coordinates></Point></Placemark>
<Placemark><name>_DamnLilHOE</name><description>@FuckinBased I wanted to come over and go shopping toooooooooo!
Sat, 19 Nov 2011 18:43:45 +0000</description><styleUrl>#hideLabel</styleUrl>
<Point><coordinates>-95.271100,29.660700,0</coordinates></Point></Placemark>
<Placemark><name>_DamnLilHOE</name><description>@FuckinBased or just say no , that's work
Sat, 19 Nov 2011 18:57:37 +0000</description><styleUrl>#hideLabel</styleUrl>
<Point><coordinates>-95.271100,29.660700,0</coordinates></Point></Placemark>
<Placemark><name>Jay_Campbell11</name><description>Home baby! LA ima miss you but Texas im glad I'm here #nofeelin
Sat, 19 Nov 2011 19:01:12 +0000</description><styleUrl>#hideLabel</styleUrl>
<Point><coordinates>-95.276200,29.655400,0</coordinates></Point></Placemark>
<Placemark><name>_DamnLilHOE</name><description>@Imma90sBaby_ you wanna be a cowboy ?
Sat, 19 Nov 2011 19:10:44 +0000</description><styleUrl>#hideLabel</styleUrl>
<Point><coordinates>-95.271100,29.660700,0</coordinates></Point></Placemark>
<Placemark><name>_DamnLilHOE</name><description>@FuckinBased lol nothing
Sat, 19 Nov 2011 19:11:10 +0000</description><styleUrl>#hideLabel</styleUrl>
<Point><coordinates>-95.271100,29.660700,0</coordinates></Point></Placemark>
<Placemark><name>lpmanager2002</name><description>I'm at William P Hobby Airport (HOU) (7800 Airport Blvd, Houston) w/ 10 others http://t.co/e26DMbMl
Sat, 19 Nov 2011 19:28:40 +0000</description><styleUrl>#hideLabel</styleUrl>
<Point><coordinates>-95.278889,29.645278,0</coordinates></Point></Placemark>
<Placemark><name>stephen_cole</name><description>Great day hanging w my bride today. Beautiful outside too! Headed to my nephews championship football game! Get 'em Kobe!!
Sat, 19 Nov 2011 19:37:56 +0000</description><styleUrl>#hideLabel</styleUrl>
<Point><coordinates>-95.263916,29.653152,0</coordinates></Point></Placemark>
<Placemark><name>rctalley</name><description>@JohnKleinTW love the cattlemen's steakhouse. Grew up going there in the summertime w my grandparents. And love the sun bowl, too...
Sat, 19 Nov 2011 19:57:13 +0000</description><styleUrl>#hideLabel</styleUrl>
<Point><coordinates>-95.268600,29.654900,0</coordinates></Point></Placemark>
<Placemark><name>wkethman</name><description>I'm at William P Hobby Airport (HOU) (7800 Airport Blvd, Houston) w/ 10 others http://t.co/yfhcnsDu
Sat, 19 Nov 2011 19:56:10 +0000</description><styleUrl>#hideLabel</styleUrl>
<Point><coordinates>-95.278889,29.645278,0</coordinates></Point></Placemark>
<Placemark><name>prettykryss</name><description>@JiveAssNigga what's wrong brother call me 2818789178
Sat, 19 Nov 2011 20:27:05 +0000</description><styleUrl>#hideLabel</styleUrl>
<Point><coordinates>-95.292200,29.639000,0</coordinates></Point></Placemark>
<Placemark><name>WendiPoole</name><description>Funny quotes of the day said to me. &quot;you look just like my mom!&quot; &quot;don't worry his mom is really pretty.&quot;
Sat, 19 Nov 2011 20:55:00 +0000</description><styleUrl>#hideLabel</styleUrl>
<Point><coordinates>-95.286781,29.657331,0</coordinates></Point></Placemark>
<Placemark><name>ZKeating</name><description>Old man flossing next to me and a women breast feeding on the plane. #iloveairtravel #airswag #
Sat, 19 Nov 2011 20:59:21 +0000</description><styleUrl>#hideLabel</styleUrl>
<Point><coordinates>-95.281200,29.655600,0</coordinates></Point></Placemark>
<Placemark><name>TabithaFancy</name><description>Slept all day in the airport. Looking for a #move
Sat, 19 Nov 2011 21:06:02 +0000</description><styleUrl>#hideLabel</styleUrl>
<Point><coordinates>-95.281500,29.656000,0</coordinates></Point></Placemark>
<Placemark><name>TabithaFancy</name><description>I hope I don't wreck when I get in my car. I havnt drove in 4 months.
Sat, 19 Nov 2011 21:08:35 +0000</description><styleUrl>#hideLabel</styleUrl>
<Point><coordinates>-95.280700,29.655100,0</coordinates></Point></Placemark>
<Placemark><name>TabithaFancy</name><description>@TitsMageeeeeee r u here too?? ☺
Sat, 19 Nov 2011 21:12:44 +0000</description><styleUrl>#hideLabel</styleUrl>
<Point><coordinates>-95.280800,29.655200,0</coordinates></Point></Placemark>
<Placemark><name>TabithaFancy</name><description>@TitsMageeeeeee I knoww but I was riding stand by so that gave me a reason to come a little earlier lol dm me your number!
Sat, 19 Nov 2011 21:16:05 +0000</description><styleUrl>#hideLabel</styleUrl>
<Point><coordinates>-95.280800,29.655200,0</coordinates></Point></Placemark>
<Placemark><name>TabithaFancy</name><description>My crew out front in the lac posted up waiting for me (granny, mr Romeo, and @TheByrdFlock ) #realniggas
Sat, 19 Nov 2011 21:15:04 +0000</description><styleUrl>#hideLabel</styleUrl>
<Point><coordinates>-95.280800,29.655200,0</coordinates></Point></Placemark>
<Placemark><name>stephen_cole</name><description>Well my nephew played hard but they lost. Still proud of him! Good job Kobe!! Now off to the church! Come hang w us @LifeChurchNW 5&amp;6:30
Sat, 19 Nov 2011 21:14:46 +0000</description><styleUrl>#hideLabel</styleUrl>
<Point><coordinates>-95.263916,29.653152,0</coordinates></Point></Placemark>
<Placemark><name>Jamesppierce</name><description>Ready to rock... Congratulations to Chris and Elizabeth! (@ University Club) [pic]: http://t.co/dbp1qGvR
Sat, 19 Nov 2011 22:04:50 +0000</description><styleUrl>#hideLabel</styleUrl>
<Point><coordinates>-95.281438,29.653527,0</coordinates></Point></Placemark>
<Placemark><name>_DamnLilHOE</name><description>I'm walking too #ommf house &amp; it starts to rain , I hurried up &amp; called her &amp; said , &quot; Sorry I'm not coming &quot;
Sat, 19 Nov 2011 22:38:38 +0000</description><styleUrl>#hideLabel</styleUrl>
<Point><coordinates>-95.270700,29.659700,0</coordinates></Point></Placemark>
<Placemark><name>_DamnLilHOE</name><description>Stop fucking up &amp; expecting me too take you back afterwards.
Sat, 19 Nov 2011 22:46:49 +0000</description><styleUrl>#hideLabel</styleUrl>
<Point><coordinates>-95.271100,29.660700,0</coordinates></Point></Placemark>
<Placemark><name>prettykryss</name><description>Been at work since two oh btw I'm watching movies while at work!
Sat, 19 Nov 2011 22:53:10 +0000</description><styleUrl>#hideLabel</styleUrl>
<Point><coordinates>-95.292100,29.638500,0</coordinates></Point></Placemark>
<Placemark><name>prettykryss</name><description>Seeing Jaree today she delivering that baby 2mrrow. Even if I gotta go in there and take him out myself!
Sat, 19 Nov 2011 22:56:52 +0000</description><styleUrl>#hideLabel</styleUrl>
<Point><coordinates>-95.292200,29.638600,0</coordinates></Point></Placemark>
<Placemark><name>_DamnLilHOE</name><description>Damn
Sat, 19 Nov 2011 23:25:40 +0000</description><styleUrl>#hideLabel</styleUrl>
<Point><coordinates>-95.270900,29.660200,0</coordinates></Point></Placemark>
<Placemark><name>_DamnLilHOE</name><description>Suppose to be going to the Bayou Classic.
Sat, 19 Nov 2011 23:28:06 +0000</description><styleUrl>#hideLabel</styleUrl>
<Point><coordinates>-95.271100,29.660700,0</coordinates></Point></Placemark>
<Placemark><name>_DamnLilHOE</name><description>I changed it back
Sat, 19 Nov 2011 23:30:29 +0000</description><styleUrl>#hideLabel</styleUrl>
<Point><coordinates>-95.271100,29.660700,0</coordinates></Point></Placemark>
<Placemark><name>_DamnLilHOE</name><description>@TraeGotDrive :/ nothing I'm finna change it
Sat, 19 Nov 2011 23:28:48 +0000</description><styleUrl>#hideLabel</styleUrl>
<Point><coordinates>-95.271100,29.660700,0</coordinates></Point></Placemark>
<Placemark><name>prettykryss</name><description>@TeeLivesOn you down at pv?
Sat, 19 Nov 2011 23:33:08 +0000</description><styleUrl>#hideLabel</styleUrl>
<Point><coordinates>-95.292200,29.638800,0</coordinates></Point></Placemark>
<Placemark><name>_DamnLilHOE</name><description>@TraeGotDrive I didn't like it. &amp; it's cool
Sat, 19 Nov 2011 23:32:58 +0000</description><styleUrl>#hideLabel</styleUrl>
<Point><coordinates>-95.271100,29.660700,0</coordinates></Point></Placemark>
<Placemark><name>_DamnLilHOE</name><description>I hate when my aunt &amp; grandma &amp; mama ask me do I have a boyfriend , all I do is look at them &amp; walk away
Sat, 19 Nov 2011 23:38:57 +0000</description><styleUrl>#hideLabel</styleUrl>
<Point><coordinates>-95.271100,29.660700,0</coordinates></Point></Placemark>
<Placemark><name>prettykryss</name><description>@My_Wet_Candy tiara you down at pv? Is it live?
Sat, 19 Nov 2011 23:37:22 +0000</description><styleUrl>#hideLabel</styleUrl>
<Point><coordinates>-95.292200,29.638600,0</coordinates></Point></Placemark>
<Placemark><name>prettykryss</name><description>@TeeLivesOn it's live?
Sat, 19 Nov 2011 23:41:09 +0000</description><styleUrl>#hideLabel</styleUrl>
<Point><coordinates>-95.292200,29.638600,0</coordinates></Point></Placemark>
<Placemark><name>prettykryss</name><description>@My_Wet_Candy ughh u was hoping you had already been there so you could tell me.
Sat, 19 Nov 2011 23:39:22 +0000</description><styleUrl>#hideLabel</styleUrl>
<Point><coordinates>-95.292100,29.638700,0</coordinates></Point></Placemark>
<Placemark><name>reredboss</name><description>I'm luvin it.
Sat, 19 Nov 2011 23:54:51 +0000</description><styleUrl>#hideLabel</styleUrl>
<Point><coordinates>-95.277300,29.652700,0</coordinates></Point></Placemark>
<Placemark><name>iamMARCOPOLO254</name><description>@UNMaterialistic I GOT THE EMAIL and I MUST SAY THAT IS ONE HELL OF A BUSINESS PROPOSITION, how do I go about investing stock? &amp;u ain't call
Sun, 20 Nov 2011 00:00:58 +0000</description><styleUrl>#hideLabel</styleUrl>
<Point><coordinates>-95.278200,29.653600,0</coordinates></Point></Placemark>
<Placemark><name>_DamnLilHOE</name><description>@WHERESCHAM I will okay don't worry bout that (:
Sun, 20 Nov 2011 00:39:17 +0000</description><styleUrl>#hideLabel</styleUrl>
<Point><coordinates>-95.271100,29.660700,0</coordinates></Point></Placemark>
<Placemark><name>_DamnLilHOE</name><description>LSU what's good 
Sun, 20 Nov 2011 00:39:52 +0000</description><styleUrl>#hideLabel</styleUrl>
<Point><coordinates>-95.271100,29.660700,0</coordinates></Point></Placemark>
<Placemark><name>txelectionlaw</name><description>I'm at William P Hobby Airport (HOU) (7800 Airport Blvd, Houston) w/ 9 others http://t.co/QNahepU8
Sun, 20 Nov 2011 00:52:36 +0000</description><styleUrl>#hideLabel</styleUrl>
<Point><coordinates>-95.278889,29.645278,0</coordinates></Point></Placemark>
<Placemark><name>_DamnLilHOE</name><description>What's really good ?
Sun, 20 Nov 2011 00:58:21 +0000</description><styleUrl>#hideLabel</styleUrl>
<Point><coordinates>-95.271100,29.660700,0</coordinates></Point></Placemark>
<Placemark><name>sidneystoper</name><description>I'm at William P Hobby Airport (HOU) (7800 Airport Blvd, Houston) w/ 10 others http://t.co/PYJqEkxN
Sun, 20 Nov 2011 01:15:34 +0000</description><styleUrl>#hideLabel</styleUrl>
<Point><coordinates>-95.278889,29.645278,0</coordinates></Point></Placemark>
<Placemark><name>jeff_mcneill</name><description>Waiting for my ride after a very interesting day of traveling! (@ Houston Hobby Passenger Pickup) [pic]: http://t.co/tFqkq6po
Sun, 20 Nov 2011 01:22:42 +0000</description><styleUrl>#hideLabel</styleUrl>
<Point><coordinates>-95.278300,29.656300,0</coordinates></Point></Placemark>
<Placemark><name>_DamnLilHOE</name><description>Derrick Rose is so sexyyyyy 
Sun, 20 Nov 2011 01:38:16 +0000</description><styleUrl>#hideLabel</styleUrl>
<Point><coordinates>-95.271100,29.660700,0</coordinates></Point></Placemark>
<Placemark><name>_DamnLilHOE</name><description>@akelaANDthebee i am following you.
Sun, 20 Nov 2011 01:42:12 +0000</description><styleUrl>#hideLabel</styleUrl>
<Point><coordinates>-95.271100,29.660700,0</coordinates></Point></Placemark>
<Placemark><name>_DamnLilHOE</name><description>Touchdowns out the ass!
Sun, 20 Nov 2011 01:58:12 +0000</description><styleUrl>#hideLabel</styleUrl>
<Point><coordinates>-95.269400,29.659900,0</coordinates></Point></Placemark>
<Placemark><name>_DamnLilHOE</name><description>Gotta new handshake(:
Sun, 20 Nov 2011 03:03:28 +0000</description><styleUrl>#hideLabel</styleUrl>
<Point><coordinates>-95.270700,29.659700,0</coordinates></Point></Placemark>
<Placemark><name>stephen_cole</name><description>Home from @vinceparker 's housewarming party. Love that family an happy for them:) now to finish watching this #OU game! #Boomer
Sun, 20 Nov 2011 03:45:08 +0000</description><styleUrl>#hideLabel</styleUrl>
<Point><coordinates>-95.263916,29.653152,0</coordinates></Point></Placemark>
<Placemark><name>_DamnLilHOE</name><description>@duane_luther boost mobile phone keep going off. Lmfaoooooo!
Sun, 20 Nov 2011 04:02:19 +0000</description><styleUrl>#hideLabel</styleUrl>
<Point><coordinates>-95.270900,29.660200,0</coordinates></Point></Placemark>
<Placemark><name>nicci29</name><description>#fearthefork #ASU
Sun, 20 Nov 2011 04:38:48 +0000</description><styleUrl>#hideLabel</styleUrl>
<Point><coordinates>-95.263879,29.655439,0</coordinates></Point></Placemark>
<Placemark><name>stephen_cole</name><description>Nooo!!!! Was totally thinking the game was over but then we jumped...let's get em #Sooners
Sun, 20 Nov 2011 04:53:10 +0000</description><styleUrl>#hideLabel</styleUrl>
<Point><coordinates>-95.263916,29.653152,0</coordinates></Point></Placemark>
<Placemark><name>stephen_cole</name><description>Wha? #OU
Sun, 20 Nov 2011 04:58:14 +0000</description><styleUrl>#hideLabel</styleUrl>
<Point><coordinates>-95.263916,29.653152,0</coordinates></Point></Placemark>
<Placemark><name>stephen_cole</name><description>That's got to be one of the dumbest things I've seen in a while. #OU
Sun, 20 Nov 2011 05:01:17 +0000</description><styleUrl>#hideLabel</styleUrl>
<Point><coordinates>-95.263916,29.653152,0</coordinates></Point></Placemark>
<Placemark><name>stephen_cole</name><description>At least we weren't the only top team beat tonight #lookingonthebrightsside
Sun, 20 Nov 2011 05:09:02 +0000</description><styleUrl>#hideLabel</styleUrl>
<Point><coordinates>-95.263916,29.653152,0</coordinates></Point></Placemark>
<Placemark><name>AngelaKaldis</name><description>I'm at William P Hobby Airport (HOU) (7800 Airport Blvd, Houston) http://t.co/TBFNOCJn
Sun, 20 Nov 2011 05:44:20 +0000</description><styleUrl>#hideLabel</styleUrl>
<Point><coordinates>-95.278889,29.645278,0</coordinates></Point></Placemark>
<Placemark><name>_apryllatrice</name><description>With @TimaMarie_ and @ChaylaQ  on the way to the club
Sun, 20 Nov 2011 05:49:21 +0000</description><styleUrl>#hideLabel</styleUrl>
<Point><coordinates>-95.283297,29.656569,0</coordinates></Point></Placemark>
<Placemark><name>_DamnLilHOE</name><description>@duane_luther I miss you. &lt;3
Sun, 20 Nov 2011 06:14:21 +0000</description><styleUrl>#hideLabel</styleUrl>
<Point><coordinates>-95.270900,29.660200,0</coordinates></Point></Placemark>
<Placemark><name>TimaMarie_</name><description>RT @_apryllatrice: With @TimaMarie_ and @ChaylaQ  on the way to the club
Sun, 20 Nov 2011 07:01:57 +0000</description><styleUrl>#hideLabel</styleUrl>
<Point><coordinates>-95.283297,29.656569,0</coordinates></Point></Placemark>
<Placemark><name>niksheasby</name><description>Missing @thetylerbryant @caleb_crosby @grahamwhitford @jakehartsfield @calviniswebster already! Love you bois!
Sun, 20 Nov 2011 08:17:17 +0000</description><styleUrl>#hideLabel</styleUrl>
<Point><coordinates>-95.279100,29.656100,0</coordinates></Point></Placemark>
<Placemark><name>ZeOheeNoWhy</name><description>I get home around 2:30 and hurry to get in bed thinking my dads asleep but noooo now he's wide awake coughing and on fb. So I'm &quot;sleeping&quot;
Sun, 20 Nov 2011 09:09:47 +0000</description><styleUrl>#hideLabel</styleUrl>
<Point><coordinates>-95.269500,29.661200,0</coordinates></Point></Placemark>
<Placemark><name>globalhike</name><description>Sitting by Roy Jones Jr. on flight. We are buds and all both being from Pensacola :)
Sun, 20 Nov 2011 13:40:29 +0000</description><styleUrl>#hideLabel</styleUrl>
<Point><coordinates>-95.274200,29.652400,0</coordinates></Point></Placemark>
<Placemark><name>_DamnLilHOE</name><description>I might go too the carshow(:
Sun, 20 Nov 2011 14:34:26 +0000</description><styleUrl>#hideLabel</styleUrl>
<Point><coordinates>-95.269500,29.660200,0</coordinates></Point></Placemark>
<Placemark><name>_DamnLilHOE</name><description>I don't think I went to sleep.
Sun, 20 Nov 2011 14:32:34 +0000</description><styleUrl>#hideLabel</styleUrl>
<Point><coordinates>-95.269500,29.660200,0</coordinates></Point></Placemark>
<Placemark><name>_DamnLilHOE</name><description>It don't even feel like a Sunday
Sun, 20 Nov 2011 14:32:30 +0000</description><styleUrl>#hideLabel</styleUrl>
<Point><coordinates>-95.269500,29.660200,0</coordinates></Point></Placemark>
<Placemark><name>_DamnLilHOE</name><description>@JSwaggdUp lol really ? :P
Sun, 20 Nov 2011 14:36:20 +0000</description><styleUrl>#hideLabel</styleUrl>
<Point><coordinates>-95.269500,29.660200,0</coordinates></Point></Placemark>
<Placemark><name>_DamnLilHOE</name><description>I'm so tired tho.
Sun, 20 Nov 2011 14:35:07 +0000</description><styleUrl>#hideLabel</styleUrl>
<Point><coordinates>-95.269500,29.660200,0</coordinates></Point></Placemark>
<Placemark><name>_DamnLilHOE</name><description>@JSwaggdUp for the Bayou Classic ?
Sun, 20 Nov 2011 14:41:53 +0000</description><styleUrl>#hideLabel</styleUrl>
<Point><coordinates>-95.269500,29.660200,0</coordinates></Point></Placemark>
<Placemark><name>_DamnLilHOE</name><description>@JSwaggdUp I was suppose too go but my grandma cancelled the hotel room because our basketball team has a tournament and I have too go
Sun, 20 Nov 2011 15:12:19 +0000</description><styleUrl>#hideLabel</styleUrl>
<Point><coordinates>-95.271100,29.660700,0</coordinates></Point></Placemark>
<Placemark><name>_DamnLilHOE</name><description>@JSwaggdUp can you get me a shirt &amp; I'll talk my grandma into bringing me over there to pick it up! Pleasseeeee :(
Sun, 20 Nov 2011 15:16:18 +0000</description><styleUrl>#hideLabel</styleUrl>
<Point><coordinates>-95.271100,29.660700,0</coordinates></Point></Placemark>
<Placemark><name>_DamnLilHOE</name><description>I'm going to Motions thanksgiving night.
Sun, 20 Nov 2011 15:22:38 +0000</description><styleUrl>#hideLabel</styleUrl>
<Point><coordinates>-95.271100,29.660700,0</coordinates></Point></Placemark>
<Placemark><name>_DamnLilHOE</name><description>@i_lick_tweets lmfao Goodmorning Master
Sun, 20 Nov 2011 15:19:15 +0000</description><styleUrl>#hideLabel</styleUrl>
<Point><coordinates>-95.271100,29.660700,0</coordinates></Point></Placemark>
<Placemark><name>_DamnLilHOE</name><description>Can I get some goodmornings ?
Sun, 20 Nov 2011 15:25:33 +0000</description><styleUrl>#hideLabel</styleUrl>
<Point><coordinates>-95.271100,29.660700,0</coordinates></Point></Placemark>
<Placemark><name>_DamnLilHOE</name><description>@JSwaggdUp okay thanks love.
Sun, 20 Nov 2011 15:24:47 +0000</description><styleUrl>#hideLabel</styleUrl>
<Point><coordinates>-95.271100,29.660700,0</coordinates></Point></Placemark>
<Placemark><name>ErikGarrrza</name><description>I'm at William P Hobby Airport (HOU) (7800 Airport Blvd, Houston) w/ 6 others http://t.co/VwSyNV0k
Sun, 20 Nov 2011 16:57:24 +0000</description><styleUrl>#hideLabel</styleUrl>
<Point><coordinates>-95.278889,29.645278,0</coordinates></Point></Placemark>
<Placemark><name>antpowell</name><description>@joetta2008 hell to the yes
Sun, 20 Nov 2011 17:11:33 +0000</description><styleUrl>#hideLabel</styleUrl>
<Point><coordinates>-95.272900,29.659300,0</coordinates></Point></Placemark>
<Placemark><name>globalq</name><description>Give a man a fish and you feed him for a day. Teach a man to phish and he'll use your credit card to pay for dinner.
Sun, 20 Nov 2011 18:17:31 +0000</description><styleUrl>#hideLabel</styleUrl>
<Point><coordinates>-95.281448,29.634726,0</coordinates></Point></Placemark>
<Placemark><name>_DamnLilHOE</name><description>He's buying me a LSU shirt.
Sun, 20 Nov 2011 18:30:23 +0000</description><styleUrl>#hideLabel</styleUrl>
<Point><coordinates>-95.271100,29.660700,0</coordinates></Point></Placemark>
<Placemark><name>_DamnLilHOE</name><description>@JSwaggdUp nahhh just buy a LARGE(:
Sun, 20 Nov 2011 18:29:32 +0000</description><styleUrl>#hideLabel</styleUrl>
<Point><coordinates>-95.271100,29.660700,0</coordinates></Point></Placemark>
<Placemark><name>_DamnLilHOE</name><description>@JSwaggdUp bring me a shirt ( Large or X-Large )
Sun, 20 Nov 2011 18:29:06 +0000</description><styleUrl>#hideLabel</styleUrl>
<Point><coordinates>-95.271100,29.660700,0</coordinates></Point></Placemark>
<Placemark><name>callonkembo</name><description>Oh hay houston!
Sun, 20 Nov 2011 18:34:20 +0000</description><styleUrl>#hideLabel</styleUrl>
<Point><coordinates>-95.283400,29.655900,0</coordinates></Point></Placemark>
<Placemark><name>datadriver</name><description>impressive http://t.co/q7rMPzQj
Sun, 20 Nov 2011 18:56:16 +0000</description><styleUrl>#hideLabel</styleUrl>
<Point><coordinates>-95.271317,29.647186,0</coordinates></Point></Placemark>
<Placemark><name>crossfit_premi</name><description>I'm at William P Hobby Airport (HOU) (7800 Airport Blvd, Houston) w/ 11 others http://t.co/XPgrFW1G
Sun, 20 Nov 2011 19:35:02 +0000</description><styleUrl>#hideLabel</styleUrl>
<Point><coordinates>-95.278889,29.645278,0</coordinates></Point></Placemark>
<Placemark><name>theonlypaulcook</name><description>RT @globalq: Give a man a fish and you feed him for a day. Teach a man to phish and he'll use your credit card to pay for dinner.
Sun, 20 Nov 2011 19:39:41 +0000</description><styleUrl>#hideLabel</styleUrl>
<Point><coordinates>-95.281448,29.634726,0</coordinates></Point></Placemark>
<Placemark><name>_DamnLilHOE</name><description>Chavez vs. Elkins 23rd at the Toyota Center $5 presale &amp; $7 at the door! BigGAME
Sun, 20 Nov 2011 20:28:44 +0000</description><styleUrl>#hideLabel</styleUrl>
<Point><coordinates>-95.270900,29.660200,0</coordinates></Point></Placemark>
<Placemark><name>_DamnLilHOE</name><description>Pass the word on. Thanks
Sun, 20 Nov 2011 20:27:45 +0000</description><styleUrl>#hideLabel</styleUrl>
<Point><coordinates>-95.270900,29.660200,0</coordinates></Point></Placemark>
<Placemark><name>_DamnLilHOE</name><description>Please Come Support Chavez Lady Lobos Wednesday at The Toyota Center. $5 presale tickets and $7 at the door we play at 4:30
Sun, 20 Nov 2011 20:27:25 +0000</description><styleUrl>#hideLabel</styleUrl>
<Point><coordinates>-95.270900,29.660200,0</coordinates></Point></Placemark>
<Placemark><name>_DamnLilHOE</name><description>@iCreatedTyler_ Varsity vs. Elkins at The Toyota Center Wednesday
Sun, 20 Nov 2011 20:31:25 +0000</description><styleUrl>#hideLabel</styleUrl>
<Point><coordinates>-95.271100,29.660700,0</coordinates></Point></Placemark>
<Placemark><name>_DamnLilHOE</name><description>Coach Ortiz says &quot; Bring Your Ass &quot;
Sun, 20 Nov 2011 20:30:21 +0000</description><styleUrl>#hideLabel</styleUrl>
<Point><coordinates>-95.270900,29.660200,0</coordinates></Point></Placemark>
<Placemark><name>_DamnLilHOE</name><description>If you attend Chavez we will be selling tickets during lunch &amp; after-school.
Sun, 20 Nov 2011 20:29:40 +0000</description><styleUrl>#hideLabel</styleUrl>
<Point><coordinates>-95.270900,29.660200,0</coordinates></Point></Placemark>
<Placemark><name>_DamnLilHOE</name><description>@iCreatedTyler_ Tessa , yo ugly ass should come foo.
Sun, 20 Nov 2011 20:34:35 +0000</description><styleUrl>#hideLabel</styleUrl>
<Point><coordinates>-95.270900,29.660200,0</coordinates></Point></Placemark>
<Placemark><name>_DamnLilHOE</name><description>@iCreatedTyler_ lmfao , damn bitch I know you read it right the first time.
Sun, 20 Nov 2011 20:36:58 +0000</description><styleUrl>#hideLabel</styleUrl>
<Point><coordinates>-95.270900,29.660200,0</coordinates></Point></Placemark>
<Placemark><name>_DamnLilHOE</name><description>@iCreatedTyler_ damn foo , who in the hell told you that shit. Lmfao you know I'm kidding! You cute but you ain't all that.
Sun, 20 Nov 2011 20:39:51 +0000</description><styleUrl>#hideLabel</styleUrl>
<Point><coordinates>-95.271100,29.660700,0</coordinates></Point></Placemark>
<Placemark><name>_DamnLilHOE</name><description>@iCreatedTyler_ alright then lil bitch. GoodDAY! 
Sun, 20 Nov 2011 20:45:21 +0000</description><styleUrl>#hideLabel</styleUrl>
<Point><coordinates>-95.270900,29.660200,0</coordinates></Point></Placemark>
<Placemark><name>_DamnLilHOE</name><description>I'm on the  &amp; then all of a sudden I get up &amp;  to the . But my  in there taking  &amp; I'm outside the door like  &amp; he's like  so I just
Sun, 20 Nov 2011 20:49:42 +0000</description><styleUrl>#hideLabel</styleUrl>
<Point><coordinates>-95.270900,29.660200,0</coordinates></Point></Placemark>
<Placemark><name>mandymford</name><description>@TCase1026 I LOVE EL FENIX!!!!!!! Take those words back!!
Sun, 20 Nov 2011 21:01:36 +0000</description><styleUrl>#hideLabel</styleUrl>
<Point><coordinates>-95.276500,29.652700,0</coordinates></Point></Placemark>
<Placemark><name>mandymford</name><description>@TCase1026 haha I really can't believe you!! I seriously love el fenix!
Sun, 20 Nov 2011 21:04:02 +0000</description><styleUrl>#hideLabel</styleUrl>
<Point><coordinates>-95.276000,29.652800,0</coordinates></Point></Placemark>
<Placemark><name>mandymford</name><description>Wondering why everyone at the airport is sitting across from and not next to me. Oh the game is on behind me... Or I smell.
Sun, 20 Nov 2011 21:03:39 +0000</description><styleUrl>#hideLabel</styleUrl>
<Point><coordinates>-95.275800,29.652800,0</coordinates></Point></Placemark>
<Placemark><name>stephen_cole</name><description>#Cowboys may pull this off! #HowBoutThemCowboys
Sun, 20 Nov 2011 21:38:02 +0000</description><styleUrl>#hideLabel</styleUrl>
<Point><coordinates>-95.263916,29.653152,0</coordinates></Point></Placemark>
<Placemark><name>stephen_cole</name><description>He barely made that field goal but he made it and thats all that matters! #HowBoutThemCowboys
Sun, 20 Nov 2011 21:41:20 +0000</description><styleUrl>#hideLabel</styleUrl>
<Point><coordinates>-95.263916,29.653152,0</coordinates></Point></Placemark>
<Placemark><name>stephen_cole</name><description>@baltimorec thanks!
Sun, 20 Nov 2011 21:53:38 +0000</description><styleUrl>#hideLabel</styleUrl>
<Point><coordinates>-95.263916,29.653152,0</coordinates></Point></Placemark>
<Placemark><name>MakenziH</name><description>LOVE coming to see the Harrison's but HATE having to say goodbye  http://t.co/MPiUlxNU
Sun, 20 Nov 2011 22:04:39 +0000</description><styleUrl>#hideLabel</styleUrl>
<Point><coordinates>-95.276500,29.654100,0</coordinates></Point></Placemark>
<Placemark><name>SidittyNdPretty</name><description>FUCK EVERYBODY INCLUDIN THE NIGGA WHO MADE ME LATE  #pissedthefukkoff
Sun, 20 Nov 2011 22:22:04 +0000</description><styleUrl>#hideLabel</styleUrl>
<Point><coordinates>-95.277500,29.652800,0</coordinates></Point></Placemark>
<Placemark><name>Kush_Issues</name><description>Ant faces ass bitch hey them drugs is really ruining you really
Sun, 20 Nov 2011 22:29:44 +0000</description><styleUrl>#hideLabel</styleUrl>
<Point><coordinates>-95.272100,29.660800,0</coordinates></Point></Placemark>
<Placemark><name>SidittyNdPretty</name><description>Waitin at the airport #pissed
Sun, 20 Nov 2011 22:31:11 +0000</description><styleUrl>#hideLabel</styleUrl>
<Point><coordinates>-95.277500,29.652800,0</coordinates></Point></Placemark>
<Placemark><name>SidittyNdPretty</name><description>How Can yu Make Yourself Stop Have Feelings for someone
Sun, 20 Nov 2011 22:34:14 +0000</description><styleUrl>#hideLabel</styleUrl>
<Point><coordinates>-95.277500,29.652800,0</coordinates></Point></Placemark>
<Placemark><name>SidittyNdPretty</name><description>Charge it to the Game BUT In My Mind I dont FUKKK WIT YOU #YouOl'BITCH
Sun, 20 Nov 2011 22:36:16 +0000</description><styleUrl>#hideLabel</styleUrl>
<Point><coordinates>-95.277400,29.652900,0</coordinates></Point></Placemark>
<Placemark><name>SidittyNdPretty</name><description>RT @DaKid_BabyW: lil dip new avi &gt; *wipes forehead* lawd hammercy .....WHO? , D ......... Seeeeeeeeeeee lol
Sun, 20 Nov 2011 22:46:43 +0000</description><styleUrl>#hideLabel</styleUrl>
<Point><coordinates>-95.283100,29.638100,0</coordinates></Point></Placemark>
<Placemark><name>SidittyNdPretty</name><description>Time For TAKEOFF
Sun, 20 Nov 2011 22:53:39 +0000</description><styleUrl>#hideLabel</styleUrl>
<Point><coordinates>-95.283100,29.638100,0</coordinates></Point></Placemark>
<Placemark><name>SidittyNdPretty</name><description>Too Bad this #Pilot sitting next to Me old Ass Fukk ,,he Kinda cute hell lol
Sun, 20 Nov 2011 22:52:00 +0000</description><styleUrl>#hideLabel</styleUrl>
<Point><coordinates>-95.284000,29.632500,0</coordinates></Point></Placemark>
<Placemark><name>msboo314</name><description>Forgot to do this one earlier. (@ Wendy's) http://t.co/68zoVpmR
Sun, 20 Nov 2011 23:13:07 +0000</description><styleUrl>#hideLabel</styleUrl>
<Point><coordinates>-95.276700,29.652900,0</coordinates></Point></Placemark>
<Placemark><name>_DamnLilHOE</name><description>Bad Decisions Good Intentions.
Sun, 20 Nov 2011 23:46:14 +0000</description><styleUrl>#hideLabel</styleUrl>
<Point><coordinates>-95.271100,29.660700,0</coordinates></Point></Placemark>
<Placemark><name>_DamnLilHOE</name><description>Bad decisions Goos intentions.
Sun, 20 Nov 2011 23:45:51 +0000</description><styleUrl>#hideLabel</styleUrl>
<Point><coordinates>-95.270900,29.660200,0</coordinates></Point></Placemark>
<Placemark><name>Kush_Issues</name><description>@WarrenFrddy thanks
Mon, 21 Nov 2011 00:10:55 +0000</description><styleUrl>#hideLabel</styleUrl>
<Point><coordinates>-95.272100,29.660800,0</coordinates></Point></Placemark>
<Placemark><name>Leena143</name><description>I'm at William P Hobby Airport (HOU) (7800 Airport Blvd, Houston) w/ 15 others http://t.co/UuZmOBGH
Mon, 21 Nov 2011 00:23:29 +0000</description><styleUrl>#hideLabel</styleUrl>
<Point><coordinates>-95.278889,29.645278,0</coordinates></Point></Placemark>
<Placemark><name>sparkleesquire</name><description>They held my flight! Love southwest! (@ Houston Hobby departures) http://t.co/srs4eRJB
Mon, 21 Nov 2011 00:54:48 +0000</description><styleUrl>#hideLabel</styleUrl>
<Point><coordinates>-95.277600,29.655200,0</coordinates></Point></Placemark>
<Placemark><name>stephen_cole</name><description>Soo.....home and watching the #AMA2011 's hope it's good
Mon, 21 Nov 2011 01:07:55 +0000</description><styleUrl>#hideLabel</styleUrl>
<Point><coordinates>-95.263916,29.653152,0</coordinates></Point></Placemark>
<Placemark><name>KozmicKris</name><description>What's up Houston?  It's been a few days. 2 hour layover before heading home (@ William P Hobby Airport (HOU)) http://t.co/OAAw38ej
Mon, 21 Nov 2011 01:20:48 +0000</description><styleUrl>#hideLabel</styleUrl>
<Point><coordinates>-95.276900,29.646700,0</coordinates></Point></Placemark>
<Placemark><name>nicci29</name><description>@kassemg my sister swears you're at pita jungle in Az right now. Can you confirm or deny?
Mon, 21 Nov 2011 01:22:49 +0000</description><styleUrl>#hideLabel</styleUrl>
<Point><coordinates>-95.263879,29.655439,0</coordinates></Point></Placemark>
<Placemark><name>stephen_cole</name><description>What was Beiber wearing??? #AMA2011
Mon, 21 Nov 2011 01:21:25 +0000</description><styleUrl>#hideLabel</styleUrl>
<Point><coordinates>-95.263916,29.653152,0</coordinates></Point></Placemark>
<Placemark><name>nicci29</name><description>Am busy unfollowing people. It's empowering. #unfollowfrenzy
Mon, 21 Nov 2011 01:37:05 +0000</description><styleUrl>#hideLabel</styleUrl>
<Point><coordinates>-95.263879,29.655439,0</coordinates></Point></Placemark>
<Placemark><name>_DamnLilHOE</name><description>I would live to save hoes but I'm not that heroic
Mon, 21 Nov 2011 01:52:35 +0000</description><styleUrl>#hideLabel</styleUrl>
<Point><coordinates>-95.271100,29.660700,0</coordinates></Point></Placemark>
<Placemark><name>_DamnLilHOE</name><description>Hell yeaah
Mon, 21 Nov 2011 01:57:19 +0000</description><styleUrl>#hideLabel</styleUrl>
<Point><coordinates>-95.270900,29.660200,0</coordinates></Point></Placemark>
<Placemark><name>stephen_cole</name><description>Mary J still hangin in there! Ha! (that drummer is killing it!) #AMA2011
Mon, 21 Nov 2011 02:53:12 +0000</description><styleUrl>#hideLabel</styleUrl>
<Point><coordinates>-95.263916,29.653152,0</coordinates></Point></Placemark>
<Placemark><name>rayson</name><description>RT @stephen_cole: Mary J still hangin in there! Ha! (that drummer is killing it!) #AMA2011
Mon, 21 Nov 2011 02:53:52 +0000</description><styleUrl>#hideLabel</styleUrl>
<Point><coordinates>-95.263916,29.653152,0</coordinates></Point></Placemark>
<Placemark><name>stephen_cole</name><description>So.....is Beyonce really pregnant? I'm not seeing it. #AMA2011
Mon, 21 Nov 2011 02:57:42 +0000</description><styleUrl>#hideLabel</styleUrl>
<Point><coordinates>-95.263916,29.653152,0</coordinates></Point></Placemark>
<Placemark><name>KozmicKris</name><description>Boarding flight to MCO (@ Gate 48) http://t.co/ajv7dyhA
Mon, 21 Nov 2011 03:09:01 +0000</description><styleUrl>#hideLabel</styleUrl>
<Point><coordinates>-95.278500,29.652600,0</coordinates></Point></Placemark>
<Placemark><name>stephen_cole</name><description>@nickyvender well its good to know she's pregnant. But dang...she was bustin out
Mon, 21 Nov 2011 03:19:11 +0000</description><styleUrl>#hideLabel</styleUrl>
<Point><coordinates>-95.263916,29.653152,0</coordinates></Point></Placemark>
<Placemark><name>stephen_cole</name><description>@bwitham thanks bro!
Mon, 21 Nov 2011 03:20:49 +0000</description><styleUrl>#hideLabel</styleUrl>
<Point><coordinates>-95.263916,29.653152,0</coordinates></Point></Placemark>
<Placemark><name>_DamnLilHOE</name><description>Someone DM Me.
Mon, 21 Nov 2011 03:45:14 +0000</description><styleUrl>#hideLabel</styleUrl>
<Point><coordinates>-95.271100,29.660700,0</coordinates></Point></Placemark>
<Placemark><name>JJ_Htown</name><description>Home again. (@ William P Hobby Airport (HOU) w/ 19 others) http://t.co/jpsNYp05
Mon, 21 Nov 2011 03:53:12 +0000</description><styleUrl>#hideLabel</styleUrl>
<Point><coordinates>-95.276900,29.646700,0</coordinates></Point></Placemark>
<Placemark><name>DaniDrizz</name><description>@Tayrobbs @labyrinthtwk @d4vidhouse_ I just want the friendship.......
Mon, 21 Nov 2011 03:54:31 +0000</description><styleUrl>#hideLabel</styleUrl>
<Point><coordinates>-95.276900,29.656800,0</coordinates></Point></Placemark>
<Placemark><name>DaniDrizz</name><description>@D4vidHouse_ 
 @labyrinthtwk this conversation is over, y'all are so awkward especially David. Sorry you have to deal with this @Tayrobbs
Mon, 21 Nov 2011 03:57:39 +0000</description><styleUrl>#hideLabel</styleUrl>
<Point><coordinates>-95.276900,29.656800,0</coordinates></Point></Placemark>
<Placemark><name>SHORTEEFAY</name><description>http://t.co/VMJpFGyw
Mon, 21 Nov 2011 04:09:01 +0000</description><styleUrl>#hideLabel</styleUrl>
<Point><coordinates>-95.270262,29.655736,0</coordinates></Point></Placemark>
<Placemark><name>_DamnLilHOE</name><description>@AyooCjayy it's cool.
Mon, 21 Nov 2011 05:15:30 +0000</description><styleUrl>#hideLabel</styleUrl>
<Point><coordinates>-95.271000,29.660600,0</coordinates></Point></Placemark>
<Placemark><name>_DamnLilHOE</name><description>@AyooCjayy I'm not ignoring you. I'm just in a bad mood &amp; trying my best not to take my anger out on you nor anybody else!
Mon, 21 Nov 2011 05:14:33 +0000</description><styleUrl>#hideLabel</styleUrl>
<Point><coordinates>-95.269500,29.660100,0</coordinates></Point></Placemark>
<Placemark><name>ShamoneLaMarra</name><description>Houston is HOME!!!
Mon, 21 Nov 2011 05:31:06 +0000</description><styleUrl>#hideLabel</styleUrl>
<Point><coordinates>-95.286000,29.655900,0</coordinates></Point></Placemark>
<Placemark><name>ShamoneLaMarra</name><description>Houston im HOME!!!
Mon, 21 Nov 2011 05:31:28 +0000</description><styleUrl>#hideLabel</styleUrl>
<Point><coordinates>-95.286000,29.655900,0</coordinates></Point></Placemark>
<Placemark><name>_DamnLilHOE</name><description>@JSwaggdUp is it that boring out there!
Mon, 21 Nov 2011 05:38:16 +0000</description><styleUrl>#hideLabel</styleUrl>
<Point><coordinates>-95.271000,29.660600,0</coordinates></Point></Placemark>
<Placemark><name>_DamnLilHOE</name><description>@JSwaggdUp lol poor baby need some love(:
Mon, 21 Nov 2011 05:43:08 +0000</description><styleUrl>#hideLabel</styleUrl>
<Point><coordinates>-95.271000,29.660600,0</coordinates></Point></Placemark>
<Placemark><name>_DamnLilHOE</name><description>Watching Chuck &amp; Larry. &amp; the black guy was dancing in the shower!
Mon, 21 Nov 2011 05:42:42 +0000</description><styleUrl>#hideLabel</styleUrl>
<Point><coordinates>-95.270300,29.660000,0</coordinates></Point></Placemark>
<Placemark><name>_DamnLilHOE</name><description>Lmfaoo that part is so funny.
Mon, 21 Nov 2011 05:42:09 +0000</description><styleUrl>#hideLabel</styleUrl>
<Point><coordinates>-95.270300,29.660000,0</coordinates></Point></Placemark>
<Placemark><name>_DamnLilHOE</name><description>@JSwaggdUp oh no I'm not making no sandwich lol(:
Mon, 21 Nov 2011 05:45:12 +0000</description><styleUrl>#hideLabel</styleUrl>
<Point><coordinates>-95.270100,29.660000,0</coordinates></Point></Placemark>
<Placemark><name>jsf115</name><description>I'm at William P Hobby Airport (HOU) (7800 Airport Blvd, Houston) w/ 12 others http://t.co/5oVZ1Cbi
Mon, 21 Nov 2011 05:48:52 +0000</description><styleUrl>#hideLabel</styleUrl>
<Point><coordinates>-95.278889,29.645278,0</coordinates></Point></Placemark>
<Placemark><name>_DamnLilHOE</name><description>@JSwaggdUp you gone make me something to eat
Mon, 21 Nov 2011 05:47:56 +0000</description><styleUrl>#hideLabel</styleUrl>
<Point><coordinates>-95.270300,29.660000,0</coordinates></Point></Placemark>
<Placemark><name>_DamnLilHOE</name><description>@JSwaggdUp you so nasty but If that's what you want come get it :P
Mon, 21 Nov 2011 05:56:58 +0000</description><styleUrl>#hideLabel</styleUrl>
<Point><coordinates>-95.271000,29.660600,0</coordinates></Point></Placemark>
<Placemark><name>_DamnLilHOE</name><description>@JSwaggdUp you so nastyyyy , butif that's what you want then come get it :P
Mon, 21 Nov 2011 05:56:06 +0000</description><styleUrl>#hideLabel</styleUrl>
<Point><coordinates>-95.271000,29.660600,0</coordinates></Point></Placemark>
<Placemark><name>_DamnLilHOE</name><description>@JSwaggdUp I'll be ready to marry a nigga(:
Mon, 21 Nov 2011 05:59:45 +0000</description><styleUrl>#hideLabel</styleUrl>
<Point><coordinates>-95.271000,29.660600,0</coordinates></Point></Placemark>
<Placemark><name>julianbryce</name><description>I'm at William P Hobby Airport (HOU) (7800 Airport Blvd, Houston) w/ 7 others http://t.co/oc9kbS3O
Mon, 21 Nov 2011 06:01:19 +0000</description><styleUrl>#hideLabel</styleUrl>
<Point><coordinates>-95.278889,29.645278,0</coordinates></Point></Placemark>
<Placemark><name>_DamnLilHOE</name><description>I can't handle a relationship right now , &amp; if I tell you I'm ready I can't promise that'll I will give you 100% of me
Mon, 21 Nov 2011 06:05:36 +0000</description><styleUrl>#hideLabel</styleUrl>
<Point><coordinates>-95.271000,29.660600,0</coordinates></Point></Placemark>
<Placemark><name>_DamnLilHOE</name><description>@JSwaggdUp what's that Hun ?
Mon, 21 Nov 2011 06:09:49 +0000</description><styleUrl>#hideLabel</styleUrl>
<Point><coordinates>-95.271000,29.660600,0</coordinates></Point></Placemark>
<Placemark><name>_DamnLilHOE</name><description>Running around the house because of @JSwaggdUp DM. He is a freakkkkk! :P
Mon, 21 Nov 2011 06:12:55 +0000</description><styleUrl>#hideLabel</styleUrl>
<Point><coordinates>-95.271000,29.660600,0</coordinates></Point></Placemark>
<Placemark><name>_DamnLilHOE</name><description>@JSwaggdUp you really want me too ?
Mon, 21 Nov 2011 06:15:29 +0000</description><styleUrl>#hideLabel</styleUrl>
<Point><coordinates>-95.271000,29.660600,0</coordinates></Point></Placemark>
<Placemark><name>_DamnLilHOE</name><description>@JSwaggdUp I'll do it thennn(:
Mon, 21 Nov 2011 06:17:42 +0000</description><styleUrl>#hideLabel</styleUrl>
<Point><coordinates>-95.271000,29.660600,0</coordinates></Point></Placemark>
<Placemark><name>_DamnLilHOE</name><description>@JSwaggdUp lol you coming back just for me ?
Mon, 21 Nov 2011 06:20:12 +0000</description><styleUrl>#hideLabel</styleUrl>
<Point><coordinates>-95.271000,29.660600,0</coordinates></Point></Placemark>
<Placemark><name>_DamnLilHOE</name><description>@JSwaggdUp Goodnight(:
Mon, 21 Nov 2011 06:34:56 +0000</description><styleUrl>#hideLabel</styleUrl>
<Point><coordinates>-95.271000,29.660600,0</coordinates></Point></Placemark>
<Placemark><name>btwshe_thicktho</name><description>Make me want a and I ain't no smoking chick :)
Mon, 21 Nov 2011 07:11:05 +0000</description><styleUrl>#hideLabel</styleUrl>
<Point><coordinates>-95.277800,29.662800,0</coordinates></Point></Placemark>
<Placemark><name>btwshe_thicktho</name><description>Close the door, bed are Floor I can't Get enuff of you !
Mon, 21 Nov 2011 07:10:25 +0000</description><styleUrl>#hideLabel</styleUrl>
<Point><coordinates>-95.277800,29.662800,0</coordinates></Point></Placemark>
<Placemark><name>btwshe_thicktho</name><description>Baby I just wanna play UNTILL you take my breath away!
Mon, 21 Nov 2011 07:12:25 +0000</description><styleUrl>#hideLabel</styleUrl>
<Point><coordinates>-95.277800,29.662800,0</coordinates></Point></Placemark>
<Placemark><name>btwshe_thicktho</name><description>Put on a littal show just to let him no
Mon, 21 Nov 2011 07:11:44 +0000</description><styleUrl>#hideLabel</styleUrl>
<Point><coordinates>-95.277800,29.662800,0</coordinates></Point></Placemark>
<Placemark><name>btwshe_thicktho</name><description>What I got in store it's all of yours
Mon, 21 Nov 2011 07:11:26 +0000</description><styleUrl>#hideLabel</styleUrl>
<Point><coordinates>-95.277800,29.662800,0</coordinates></Point></Placemark>
<Placemark><name>btwshe_thicktho</name><description>Now following @DeeFcknBrown follow back :)
Mon, 21 Nov 2011 07:16:47 +0000</description><styleUrl>#hideLabel</styleUrl>
<Point><coordinates>-95.277800,29.662800,0</coordinates></Point></Placemark>
<Placemark><name>btwshe_thicktho</name><description>Complicated -Nivea
Mon, 21 Nov 2011 07:21:06 +0000</description><styleUrl>#hideLabel</styleUrl>
<Point><coordinates>-95.277800,29.662800,0</coordinates></Point></Placemark>
<Placemark><name>btwshe_thicktho</name><description>It's been a may world with out ya boy I love you I love you :)
Mon, 21 Nov 2011 07:20:55 +0000</description><styleUrl>#hideLabel</styleUrl>
<Point><coordinates>-95.277800,29.662800,0</coordinates></Point></Placemark>
<Placemark><name>btwshe_thicktho</name><description>Babe need to hurry up:)
Mon, 21 Nov 2011 07:22:26 +0000</description><styleUrl>#hideLabel</styleUrl>
<Point><coordinates>-95.277800,29.662800,0</coordinates></Point></Placemark>
<Placemark><name>btwshe_thicktho</name><description>When you down they Smile when you Up they Frowning aha
Mon, 21 Nov 2011 07:21:58 +0000</description><styleUrl>#hideLabel</styleUrl>
<Point><coordinates>-95.277800,29.662800,0</coordinates></Point></Placemark>
<Placemark><name>btwshe_thicktho</name><description>Moans and screams
Mon, 21 Nov 2011 07:26:46 +0000</description><styleUrl>#hideLabel</styleUrl>
<Point><coordinates>-95.277800,29.662800,0</coordinates></Point></Placemark>
<Placemark><name>btwshe_thicktho</name><description>During sex&gt;&gt;&gt;
Mon, 21 Nov 2011 07:26:33 +0000</description><styleUrl>#hideLabel</styleUrl>
<Point><coordinates>-95.277800,29.662800,0</coordinates></Point></Placemark>
<Placemark><name>btwshe_thicktho</name><description>All that loud talking save that shut for your Mammi
Mon, 21 Nov 2011 07:25:34 +0000</description><styleUrl>#hideLabel</styleUrl>
<Point><coordinates>-95.277800,29.662800,0</coordinates></Point></Placemark>
<Placemark><name>btwshe_thicktho</name><description>I ain't looking at you Nomore I'm looking past you!
Mon, 21 Nov 2011 07:24:38 +0000</description><styleUrl>#hideLabel</styleUrl>
<Point><coordinates>-95.277800,29.662800,0</coordinates></Point></Placemark>
<Placemark><name>dcharrison</name><description>After that TSA &quot;security&quot; check, I deserve a lobster dinner. 

#securitytheater
Mon, 21 Nov 2011 11:07:55 +0000</description><styleUrl>#hideLabel</styleUrl>
<Point><coordinates>-95.276500,29.653400,0</coordinates></Point></Placemark>
<Placemark><name>iBzdaBeezKnees</name><description>I'm up at work early den a birch and didn't even have to be here for another 3 hrs
Mon, 21 Nov 2011 11:16:27 +0000</description><styleUrl>#hideLabel</styleUrl>
<Point><coordinates>-95.282400,29.630200,0</coordinates></Point></Placemark>
<Placemark><name>iBzdaBeezKnees</name><description>FML!!!
Mon, 21 Nov 2011 11:16:50 +0000</description><styleUrl>#hideLabel</styleUrl>
<Point><coordinates>-95.282400,29.630200,0</coordinates></Point></Placemark>
<Placemark><name>BCourtneyWilson</name><description>@GeneMooreJr what's up man? You good?
Mon, 21 Nov 2011 11:58:43 +0000</description><styleUrl>#hideLabel</styleUrl>
<Point><coordinates>-95.267230,29.653053,0</coordinates></Point></Placemark>
<Placemark><name>_DamnLilHOE</name><description>Spend a lil cash , bust a nigga ass.
Mon, 21 Nov 2011 12:27:11 +0000</description><styleUrl>#hideLabel</styleUrl>
<Point><coordinates>-95.271000,29.660600,0</coordinates></Point></Placemark>
<Placemark><name>_DamnLilHOE</name><description>#NP : Fire Flame - Wayneee(:
Mon, 21 Nov 2011 12:26:40 +0000</description><styleUrl>#hideLabel</styleUrl>
<Point><coordinates>-95.271000,29.660600,0</coordinates></Point></Placemark>
<Placemark><name>668V</name><description>Best seat in the house #emergencyexitwindow http://t.co/LLXaO0wu
Mon, 21 Nov 2011 12:25:26 +0000</description><styleUrl>#hideLabel</styleUrl>
<Point><coordinates>-95.286700,29.658400,0</coordinates></Point></Placemark>
<Placemark><name>_DamnLilHOE</name><description>My son born rich.
Mon, 21 Nov 2011 12:28:49 +0000</description><styleUrl>#hideLabel</styleUrl>
<Point><coordinates>-95.271000,29.660600,0</coordinates></Point></Placemark>
<Placemark><name>_DamnLilHOE</name><description>Bitch I'm still the best overall jumper.
Mon, 21 Nov 2011 12:28:27 +0000</description><styleUrl>#hideLabel</styleUrl>
<Point><coordinates>-95.271000,29.660600,0</coordinates></Point></Placemark>
<Placemark><name>_DamnLilHOE</name><description>I got pussy coming too me.
Mon, 21 Nov 2011 12:28:06 +0000</description><styleUrl>#hideLabel</styleUrl>
<Point><coordinates>-95.271000,29.660600,0</coordinates></Point></Placemark>
<Placemark><name>_DamnLilHOE</name><description>Goodmorning Everyoneee(:
Mon, 21 Nov 2011 12:27:48 +0000</description><styleUrl>#hideLabel</styleUrl>
<Point><coordinates>-95.271000,29.660600,0</coordinates></Point></Placemark>
<Placemark><name>CYNTHIARENEE</name><description>I'm at William P Hobby Airport (HOU) (7800 Airport Blvd, Houston) w/ 5 others http://t.co/AyISVYt8
Mon, 21 Nov 2011 12:44:27 +0000</description><styleUrl>#hideLabel</styleUrl>
<Point><coordinates>-95.278889,29.645278,0</coordinates></Point></Placemark>
<Placemark><name>_DamnLilHOE</name><description>24,960th tweet(:
Mon, 21 Nov 2011 12:50:44 +0000</description><styleUrl>#hideLabel</styleUrl>
<Point><coordinates>-95.270300,29.660000,0</coordinates></Point></Placemark>
<Placemark><name>_DamnLilHOE</name><description>@ChopstickNPussy goodmorningg(:
Mon, 21 Nov 2011 12:49:56 +0000</description><styleUrl>#hideLabel</styleUrl>
<Point><coordinates>-95.270300,29.660000,0</coordinates></Point></Placemark>
<Placemark><name>djscoop</name><description>I'm at William P Hobby Airport (HOU) (7800 Airport Blvd, Houston) w/ 10 others http://t.co/OrjB3asx
Mon, 21 Nov 2011 13:21:47 +0000</description><styleUrl>#hideLabel</styleUrl>
<Point><coordinates>-95.278889,29.645278,0</coordinates></Point></Placemark>
<Placemark><name>jamesbalandran</name><description>I'm at William P Hobby Airport (HOU) (7800 Airport Blvd, Houston) w/ 16 others http://t.co/PrHK0MGL
Mon, 21 Nov 2011 13:31:46 +0000</description><styleUrl>#hideLabel</styleUrl>
<Point><coordinates>-95.278889,29.645278,0</coordinates></Point></Placemark>
<Placemark><name>StephenSegari</name><description>Airport dropoff! (@ William P. Hobby Airport) http://t.co/a9loW5Ku
Mon, 21 Nov 2011 13:47:30 +0000</description><styleUrl>#hideLabel</styleUrl>
<Point><coordinates>-95.264700,29.655300,0</coordinates></Point></Placemark>
<Placemark><name>taylor_salinas</name><description>Leaving on an airplane dont know when I'll be back again&lt;3
Mon, 21 Nov 2011 14:00:56 +0000</description><styleUrl>#hideLabel</styleUrl>
<Point><coordinates>-95.277800,29.652700,0</coordinates></Point></Placemark>
<Placemark><name>SocialCompassJD</name><description>I'm at William P Hobby Airport (HOU) (7800 Airport Blvd, Houston) w/ 15 others http://t.co/7LDpKOyL
Mon, 21 Nov 2011 14:05:22 +0000</description><styleUrl>#hideLabel</styleUrl>
<Point><coordinates>-95.278889,29.645278,0</coordinates></Point></Placemark>
<Placemark><name>al_muh_dee</name><description>I'm at William P Hobby Airport (HOU) (7800 Airport Blvd, Houston) w/ 18 others http://t.co/3Km5Bu8s
Mon, 21 Nov 2011 14:16:06 +0000</description><styleUrl>#hideLabel</styleUrl>
<Point><coordinates>-95.278889,29.645278,0</coordinates></Point></Placemark>
<Placemark><name>ang5455</name><description>I'm at William P Hobby Airport (HOU) (7800 Airport Blvd, Houston) w/ 19 others http://t.co/l8wbbFPb
Mon, 21 Nov 2011 15:35:54 +0000</description><styleUrl>#hideLabel</styleUrl>
<Point><coordinates>-95.278889,29.645278,0</coordinates></Point></Placemark>
<Placemark><name>IndustreetCEO</name><description>@bka_Millsap 
All in the H and no sap
Mon, 21 Nov 2011 17:07:31 +0000</description><styleUrl>#hideLabel</styleUrl>
<Point><coordinates>-95.278300,29.652900,0</coordinates></Point></Placemark>
<Placemark><name>SHORTEEFAY</name><description>So i turn around and my husband is eating an oatmeal sandwich....ya oatmeal between 2 pieces of bread ugh....
Mon, 21 Nov 2011 17:05:38 +0000</description><styleUrl>#hideLabel</styleUrl>
<Point><coordinates>-95.270262,29.655736,0</coordinates></Point></Placemark>
<Placemark><name>IndustreetCEO</name><description>“@bka_Millsap: @IndustreetCEO boys ain't hit me where u at...let me guess Hobby Airport?” yup air richie
Mon, 21 Nov 2011 17:09:07 +0000</description><styleUrl>#hideLabel</styleUrl>
<Point><coordinates>-95.278200,29.652800,0</coordinates></Point></Placemark>
<Placemark><name>IndustreetCEO</name><description>“@lovely_SLiM: Need to be packing ...”where u goin
Mon, 21 Nov 2011 17:08:36 +0000</description><styleUrl>#hideLabel</styleUrl>
<Point><coordinates>-95.279200,29.653800,0</coordinates></Point></Placemark>
<Placemark><name>GONZOFOE</name><description>These airplanes coming looow
Mon, 21 Nov 2011 17:22:36 +0000</description><styleUrl>#hideLabel</styleUrl>
<Point><coordinates>-95.285600,29.657900,0</coordinates></Point></Placemark>
<Placemark><name>IndustreetCEO</name><description>“@bka_Millsap: I think me @HennyBo11 and @IndustreetCEO going to the D to fuck wit @_TeeZy_ at his show Wed”that nigga ain't even hit me
Mon, 21 Nov 2011 17:30:12 +0000</description><styleUrl>#hideLabel</styleUrl>
<Point><coordinates>-95.278100,29.652800,0</coordinates></Point></Placemark>
<Placemark><name>IndustreetCEO</name><description>“@lovely_SLiM: @IndustreetCEO OMW to da H ... to see @bka_Millsap !!!!!”I can dig it
Mon, 21 Nov 2011 17:29:36 +0000</description><styleUrl>#hideLabel</styleUrl>
<Point><coordinates>-95.280800,29.655200,0</coordinates></Point></Placemark>
<Placemark><name>MeganBranton</name><description>Our pilot...needs to learn how to land. #roughaf
Mon, 21 Nov 2011 17:42:00 +0000</description><styleUrl>#hideLabel</styleUrl>
<Point><coordinates>-95.275700,29.652800,0</coordinates></Point></Placemark>
<Placemark><name>MeganBranton</name><description>Chillin at Buffalo Wild Wings, waiting till my MRI appointment
Mon, 21 Nov 2011 17:41:42 +0000</description><styleUrl>#hideLabel</styleUrl>
<Point><coordinates>-95.275700,29.652800,0</coordinates></Point></Placemark>
<Placemark><name>Jamesppierce</name><description>Making reservations for tomorrow (@ Jack's Bar) http://t.co/nx0vXZ10
Mon, 21 Nov 2011 17:46:44 +0000</description><styleUrl>#hideLabel</styleUrl>
<Point><coordinates>-95.281438,29.653527,0</coordinates></Point></Placemark>
<Placemark><name>GONZOFOE</name><description>Its alotta white girls up here uhoooh
Mon, 21 Nov 2011 17:45:58 +0000</description><styleUrl>#hideLabel</styleUrl>
<Point><coordinates>-95.270500,29.655800,0</coordinates></Point></Placemark>
<Placemark><name>stephen_cole</name><description>Shooting video for #CarolsLC at Skyline Urban Ministries http://t.co/6n5Iu2Jw
Mon, 21 Nov 2011 18:00:15 +0000</description><styleUrl>#hideLabel</styleUrl>
<Point><coordinates>-95.263916,29.653152,0</coordinates></Point></Placemark>
<Placemark><name>Jamesppierce</name><description>I just ousted Rachel M. as the mayor of St. Nicholas Greek Orthodox Cathedral on @foursquare! http://t.co/SvOXWIxN
Mon, 21 Nov 2011 18:02:15 +0000</description><styleUrl>#hideLabel</styleUrl>
<Point><coordinates>-95.281438,29.653527,0</coordinates></Point></Placemark>
<Placemark><name>stephen_cole</name><description>Friends and music videos. Two of my favorite things #LCCarols http://t.co/EwoeTDNe
Mon, 21 Nov 2011 18:05:11 +0000</description><styleUrl>#hideLabel</styleUrl>
<Point><coordinates>-95.263916,29.653152,0</coordinates></Point></Placemark>
<Placemark><name>chriskuti</name><description>RT @stephen_cole: Friends and music videos. Two of my favorite things #LCCarols http://t.co/EwoeTDNe
Mon, 21 Nov 2011 18:23:29 +0000</description><styleUrl>#hideLabel</styleUrl>
<Point><coordinates>-95.263916,29.653152,0</coordinates></Point></Placemark>
<Placemark><name>btwshe_thicktho</name><description>Up ready and heading to my place of bizzness
Mon, 21 Nov 2011 18:26:00 +0000</description><styleUrl>#hideLabel</styleUrl>
<Point><coordinates>-95.277800,29.662800,0</coordinates></Point></Placemark>
<Placemark><name>btwshe_thicktho</name><description>Good afternoon Tweepers:)
Mon, 21 Nov 2011 18:25:20 +0000</description><styleUrl>#hideLabel</styleUrl>
<Point><coordinates>-95.277800,29.662800,0</coordinates></Point></Placemark>
<Placemark><name>btwshe_thicktho</name><description>I think I'm getting a cold
Mon, 21 Nov 2011 18:27:32 +0000</description><styleUrl>#hideLabel</styleUrl>
<Point><coordinates>-95.277800,29.662800,0</coordinates></Point></Placemark>
<Placemark><name>btwshe_thicktho</name><description>@PrettyBoyCed33 Why you didn't con last night
Mon, 21 Nov 2011 18:34:46 +0000</description><styleUrl>#hideLabel</styleUrl>
<Point><coordinates>-95.277800,29.662800,0</coordinates></Point></Placemark>
<Placemark><name>stephen_cole</name><description>@jtmurrell rockin the pipe organ! #LCcarols  http://t.co/TctUdztk
Mon, 21 Nov 2011 19:03:12 +0000</description><styleUrl>#hideLabel</styleUrl>
<Point><coordinates>-95.263916,29.653152,0</coordinates></Point></Placemark>
<Placemark><name>prettykryss</name><description>So you are still mad oh well damn
Mon, 21 Nov 2011 19:41:04 +0000</description><styleUrl>#hideLabel</styleUrl>
<Point><coordinates>-95.292700,29.638700,0</coordinates></Point></Placemark>
<Placemark><name>SHORTEEFAY</name><description>@NoWords4LYRIC i know huh
Mon, 21 Nov 2011 20:06:04 +0000</description><styleUrl>#hideLabel</styleUrl>
<Point><coordinates>-95.270262,29.655736,0</coordinates></Point></Placemark>
<Placemark><name>BCourtneyWilson</name><description>@jahboogie @staceygwilson and remember...everything is better with strawberries...
Mon, 21 Nov 2011 20:34:21 +0000</description><styleUrl>#hideLabel</styleUrl>
<Point><coordinates>-95.267230,29.653053,0</coordinates></Point></Placemark>
<Placemark><name>BCourtneyWilson</name><description>@jahboogie @staceygwilson sounds cool
Mon, 21 Nov 2011 20:33:40 +0000</description><styleUrl>#hideLabel</styleUrl>
<Point><coordinates>-95.267230,29.653053,0</coordinates></Point></Placemark>
<Placemark><name>alisongroves</name><description>Home with my people. (@ William P Hobby Airport (HOU) w/ 12 others) http://t.co/ptOJRkhP
Mon, 21 Nov 2011 20:41:30 +0000</description><styleUrl>#hideLabel</styleUrl>
<Point><coordinates>-95.276900,29.646700,0</coordinates></Point></Placemark>
<Placemark><name>alisongroves</name><description>Was into the boy on plane wearing a Padres hat and clutching a single vinyl record until I saw his Jansport backpack and Disney suitcase.
Mon, 21 Nov 2011 20:46:49 +0000</description><styleUrl>#hideLabel</styleUrl>
<Point><coordinates>-95.278300,29.652500,0</coordinates></Point></Placemark>
<Placemark><name>javi_mendoza</name><description>Dallas bound. Need a nap. (@ William P Hobby Southwest Checkin) http://t.co/Fzlwelwq
Mon, 21 Nov 2011 21:16:22 +0000</description><styleUrl>#hideLabel</styleUrl>
<Point><coordinates>-95.276600,29.654100,0</coordinates></Point></Placemark>
<Placemark><name>javi_mendoza</name><description>Here with @travismoffitt getting ready to fly to Dallas. (@ Houston International Airport) http://t.co/FDtSBWaU
Mon, 21 Nov 2011 21:18:13 +0000</description><styleUrl>#hideLabel</styleUrl>
<Point><coordinates>-95.275100,29.652800,0</coordinates></Point></Placemark>
<Placemark><name>bethanye</name><description>@rosebrier @teapotgirl +1 -- I would expect Debbie to be all over that!
Mon, 21 Nov 2011 21:59:14 +0000</description><styleUrl>#hideLabel</styleUrl>
<Point><coordinates>-95.277800,29.652700,0</coordinates></Point></Placemark>
<Placemark><name>bethanye</name><description>Pre-flight margarita. Heading home after a successful trip. I think my grandma likes her iPad! #fb
Mon, 21 Nov 2011 21:58:24 +0000</description><styleUrl>#hideLabel</styleUrl>
<Point><coordinates>-95.277800,29.652700,0</coordinates></Point></Placemark>
<Placemark><name>k2daj2004</name><description>@tha nlaws house jus shillin I love my mother n law lol
Mon, 21 Nov 2011 22:58:33 +0000</description><styleUrl>#hideLabel</styleUrl>
<Point><coordinates>-95.276300,29.663100,0</coordinates></Point></Placemark>
<Placemark><name>txelectionlaw</name><description>I'm at William P Hobby Airport (HOU) (7800 Airport Blvd, Houston) w/ 14 others http://t.co/lWXjzlmu
Mon, 21 Nov 2011 23:03:07 +0000</description><styleUrl>#hideLabel</styleUrl>
<Point><coordinates>-95.278889,29.645278,0</coordinates></Point></Placemark>
<Placemark><name>prettykryss</name><description>Im starting not to care at all anymore. It's getting old and stupid!
Mon, 21 Nov 2011 23:18:41 +0000</description><styleUrl>#hideLabel</styleUrl>
<Point><coordinates>-95.292200,29.638900,0</coordinates></Point></Placemark>
<Placemark><name>gwilkinsonmusic</name><description>Homeward bound!!
Mon, 21 Nov 2011 23:35:57 +0000</description><styleUrl>#hideLabel</styleUrl>
<Point><coordinates>-95.268600,29.654900,0</coordinates></Point></Placemark>
<Placemark><name>amandastringer</name><description>I'm at William P Hobby Airport (HOU) (7800 Airport Blvd, Houston) w/ 14 others http://t.co/J2GOKdub
Tue, 22 Nov 2011 00:25:36 +0000</description><styleUrl>#hideLabel</styleUrl>
<Point><coordinates>-95.278889,29.645278,0</coordinates></Point></Placemark>
<Placemark><name>anushisays</name><description>I'm at William P Hobby Airport (HOU) (7800 Airport Blvd, Houston) w/ 14 others http://t.co/wLORPXXq
Tue, 22 Nov 2011 00:50:47 +0000</description><styleUrl>#hideLabel</styleUrl>
<Point><coordinates>-95.278889,29.645278,0</coordinates></Point></Placemark>
<Placemark><name>umgalap</name><description>And of course airport food inflates their prices...$6 footlong Subway sandwich!?
Tue, 22 Nov 2011 01:00:56 +0000</description><styleUrl>#hideLabel</styleUrl>
<Point><coordinates>-95.282700,29.657200,0</coordinates></Point></Placemark>
<Placemark><name>nroopbhavsar</name><description>I'm at William P Hobby Airport (HOU) (7800 Airport Blvd, Houston) w/ 17 others http://t.co/u06oMJiu
Tue, 22 Nov 2011 01:02:47 +0000</description><styleUrl>#hideLabel</styleUrl>
<Point><coordinates>-95.278889,29.645278,0</coordinates></Point></Placemark>
<Placemark><name>umgalap</name><description>@crikee15 haha I believe the jingle goes &quot;5....5 dollar foottllooonnnggg&quot;
Tue, 22 Nov 2011 01:14:54 +0000</description><styleUrl>#hideLabel</styleUrl>
<Point><coordinates>-95.280000,29.654400,0</coordinates></Point></Placemark>
<Placemark><name>stephen_cole</name><description>#Penatonics is A-Mazing!! Love them and hope they win! #TheSingOff
Tue, 22 Nov 2011 01:16:44 +0000</description><styleUrl>#hideLabel</styleUrl>
<Point><coordinates>-95.263916,29.653152,0</coordinates></Point></Placemark>
<Placemark><name>Roll_Gardner</name><description>I'm at William P Hobby Airport (HOU) (7800 Airport Blvd, Houston) w/ 15 others http://t.co/JikMKfZO
Tue, 22 Nov 2011 01:45:34 +0000</description><styleUrl>#hideLabel</styleUrl>
<Point><coordinates>-95.278889,29.645278,0</coordinates></Point></Placemark>
<Placemark><name>stephen_cole</name><description>I meant #penatonix .... I hope THEY win!:)
Tue, 22 Nov 2011 01:44:50 +0000</description><styleUrl>#hideLabel</styleUrl>
<Point><coordinates>-95.263916,29.653152,0</coordinates></Point></Placemark>
<Placemark><name>_MegaTron7</name><description>@Astyn_Badd lol yea
Tue, 22 Nov 2011 01:53:27 +0000</description><styleUrl>#hideLabel</styleUrl>
<Point><coordinates>-95.275900,29.661500,0</coordinates></Point></Placemark>
<Placemark><name>KaeliBz</name><description>Off to Dallas!! #FamilyDay
Tue, 22 Nov 2011 01:59:00 +0000</description><styleUrl>#hideLabel</styleUrl>
<Point><coordinates>-95.273800,29.645000,0</coordinates></Point></Placemark>
<Placemark><name>jmeisner14</name><description>RT @stephen_cole: #Penatonics is A-Mazing!! Love them and hope they win! #TheSingOff
Tue, 22 Nov 2011 02:47:56 +0000</description><styleUrl>#hideLabel</styleUrl>
<Point><coordinates>-95.263916,29.653152,0</coordinates></Point></Placemark>
<Placemark><name>stephen_cole</name><description>Man.. I am going to miss #AfroBlue .. Truly outstanding on #TheSingOff
Tue, 22 Nov 2011 02:58:08 +0000</description><styleUrl>#hideLabel</styleUrl>
<Point><coordinates>-95.263916,29.653152,0</coordinates></Point></Placemark>
<Placemark><name>Faithh_Mariee</name><description>&quot;@VickyyVixenn: FAITHS HOME!!!!!!!!!!!! WHASSSSSSSSSSSUPPP!&quot; Wooooo
Tue, 22 Nov 2011 03:21:25 +0000</description><styleUrl>#hideLabel</styleUrl>
<Point><coordinates>-95.261000,29.651300,0</coordinates></Point></Placemark>
<Placemark><name>Faithh_Mariee</name><description>They treatin me like royalty lmaoo
Tue, 22 Nov 2011 03:27:13 +0000</description><styleUrl>#hideLabel</styleUrl>
<Point><coordinates>-95.275800,29.658200,0</coordinates></Point></Placemark>
<Placemark><name>Faithh_Mariee</name><description>@VickyyVixenn umm tuesday wednesday thursday night? Any freaking day!!
Tue, 22 Nov 2011 03:26:18 +0000</description><styleUrl>#hideLabel</styleUrl>
<Point><coordinates>-95.275800,29.658200,0</coordinates></Point></Placemark>
<Placemark><name>Faithh_Mariee</name><description>@ClassicVamos yess oh my gosh pleaseee!
Tue, 22 Nov 2011 03:25:44 +0000</description><styleUrl>#hideLabel</styleUrl>
<Point><coordinates>-95.275700,29.658000,0</coordinates></Point></Placemark>
<Placemark><name>Faithh_Mariee</name><description>RT&quot;@VickyyVixenn: @Faithh_Mariee Im gonna see if I can come over weds! WE NEED TO TALK! we can go like on a dennys date or something&quot; kayy!
Tue, 22 Nov 2011 03:29:10 +0000</description><styleUrl>#hideLabel</styleUrl>
<Point><coordinates>-95.275700,29.658000,0</coordinates></Point></Placemark>
<Placemark><name>Faithh_Mariee</name><description>Lmao african music in the car IM OFFICIALLY HOMEEE!!
Tue, 22 Nov 2011 03:28:29 +0000</description><styleUrl>#hideLabel</styleUrl>
<Point><coordinates>-95.275700,29.658000,0</coordinates></Point></Placemark>
<Placemark><name>Faithh_Mariee</name><description>RT&quot;@shaudfoster: @Faithh_Mariee fb&quot; gotchu!
Tue, 22 Nov 2011 03:32:20 +0000</description><styleUrl>#hideLabel</styleUrl>
<Point><coordinates>-95.275800,29.658200,0</coordinates></Point></Placemark>
<Placemark><name>Faithh_Mariee</name><description>Yess my mom still hums songs as if she knows them . Oh sweet baby jesus ive missed this.
Tue, 22 Nov 2011 03:32:04 +0000</description><styleUrl>#hideLabel</styleUrl>
<Point><coordinates>-95.275800,29.658100,0</coordinates></Point></Placemark>
<Placemark><name>Faithh_Mariee</name><description>My friends and family &gt;&gt;&gt;
Tue, 22 Nov 2011 03:30:44 +0000</description><styleUrl>#hideLabel</styleUrl>
<Point><coordinates>-95.275800,29.658200,0</coordinates></Point></Placemark>
<Placemark><name>Faithh_Mariee</name><description>RT&quot;@Screamin_AYooo: @Faithh_Mariee UR african?&quot; -____- really?
Tue, 22 Nov 2011 03:30:11 +0000</description><styleUrl>#hideLabel</styleUrl>
<Point><coordinates>-95.275800,29.658200,0</coordinates></Point></Placemark>
<Placemark><name>Faithh_Mariee</name><description>RT&quot;@Screamin_AYooo: @Faithh_Mariee lmao!..Never knew!..u act like u told me or some&quot; lol girl im half igbo and half yoruba.
Tue, 22 Nov 2011 03:33:26 +0000</description><styleUrl>#hideLabel</styleUrl>
<Point><coordinates>-95.275800,29.658200,0</coordinates></Point></Placemark>
<Placemark><name>seth_barker</name><description>I'm at William P Hobby Airport (HOU) (7800 Airport Blvd, Houston) w/ 17 others http://t.co/xHiR4PRO
Tue, 22 Nov 2011 03:40:26 +0000</description><styleUrl>#hideLabel</styleUrl>
<Point><coordinates>-95.278889,29.645278,0</coordinates></Point></Placemark>
<Placemark><name>BCourtneyWilson</name><description>“@PJMORTON: In the stu with @BCourtneyWilson.. Workin on somethin special”--indeed
Tue, 22 Nov 2011 03:43:43 +0000</description><styleUrl>#hideLabel</styleUrl>
<Point><coordinates>-95.267230,29.653053,0</coordinates></Point></Placemark>
<Placemark><name>deetae15</name><description>S/0 to my nigga @DamnKeke  yall go follow her she needs it....lol she cool ppl doe
Tue, 22 Nov 2011 04:47:24 +0000</description><styleUrl>#hideLabel</styleUrl>
<Point><coordinates>-95.277600,29.662200,0</coordinates></Point></Placemark>
<Placemark><name>deetae15</name><description>Heyy PappaTee
Tue, 22 Nov 2011 04:50:29 +0000</description><styleUrl>#hideLabel</styleUrl>
<Point><coordinates>-95.277600,29.662200,0</coordinates></Point></Placemark>
<Placemark><name>deetae15</name><description>How was your day
Tue, 22 Nov 2011 04:52:14 +0000</description><styleUrl>#hideLabel</styleUrl>
<Point><coordinates>-95.277600,29.662200,0</coordinates></Point></Placemark>
<Placemark><name>deetae15</name><description>It was cool could of been better
Tue, 22 Nov 2011 04:56:12 +0000</description><styleUrl>#hideLabel</styleUrl>
<Point><coordinates>-95.277600,29.662300,0</coordinates></Point></Placemark>
<Placemark><name>deetae15</name><description>She need to take her ass to sleep
Tue, 22 Nov 2011 05:00:50 +0000</description><styleUrl>#hideLabel</styleUrl>
<Point><coordinates>-95.277600,29.662300,0</coordinates></Point></Placemark>
<Placemark><name>whackyjackie15</name><description>I simply love her! Thanks tia!
Tue, 22 Nov 2011 05:15:30 +0000</description><styleUrl>#hideLabel</styleUrl>
<Point><coordinates>-95.271900,29.637700,0</coordinates></Point></Placemark>
<Placemark><name>whackyjackie15</name><description>I simply can't belive you!
Tue, 22 Nov 2011 05:20:03 +0000</description><styleUrl>#hideLabel</styleUrl>
<Point><coordinates>-95.271900,29.637700,0</coordinates></Point></Placemark>
<Placemark><name>BCourtneyWilson</name><description>I am currently checking 'write a great song with @pjmorton' off my bucket list.
#thankful
Tue, 22 Nov 2011 06:05:10 +0000</description><styleUrl>#hideLabel</styleUrl>
<Point><coordinates>-95.267230,29.653053,0</coordinates></Point></Placemark>
<Placemark><name>btwshe_thicktho</name><description>Gone Brush yo shoulders off
Tue, 22 Nov 2011 06:17:30 +0000</description><styleUrl>#hideLabel</styleUrl>
<Point><coordinates>-95.278200,29.663200,0</coordinates></Point></Placemark>
<Placemark><name>btwshe_thicktho</name><description>Can't knock it to you try it
Tue, 22 Nov 2011 06:20:04 +0000</description><styleUrl>#hideLabel</styleUrl>
<Point><coordinates>-95.278200,29.663200,0</coordinates></Point></Placemark>
<Placemark><name>btwshe_thicktho</name><description>Just making it to my casa #showerFlow then Blunt blow :)
Tue, 22 Nov 2011 06:18:13 +0000</description><styleUrl>#hideLabel</styleUrl>
<Point><coordinates>-95.278200,29.663200,0</coordinates></Point></Placemark>
<Placemark><name>btwshe_thicktho</name><description>Finna unfollow his ass nothing for his tweets tonight !
Tue, 22 Nov 2011 06:22:06 +0000</description><styleUrl>#hideLabel</styleUrl>
<Point><coordinates>-95.278200,29.663200,0</coordinates></Point></Placemark>
<Placemark><name>whackyjackie15</name><description>I absolutely love love love the fact, that shea here
Tue, 22 Nov 2011 06:21:34 +0000</description><styleUrl>#hideLabel</styleUrl>
<Point><coordinates>-95.271900,29.637700,0</coordinates></Point></Placemark>
<Placemark><name>btwshe_thicktho</name><description>Hating on another bitch ain't even my Steelo :)
Tue, 22 Nov 2011 06:20:46 +0000</description><styleUrl>#hideLabel</styleUrl>
<Point><coordinates>-95.278200,29.663200,0</coordinates></Point></Placemark>
<Placemark><name>btwshe_thicktho</name><description>Lmaoo #NiceRT @ChefBoyiTweet: Damn baby make me a sandwich with your black thick ass #TwitterAfterDark
Tue, 22 Nov 2011 06:24:22 +0000</description><styleUrl>#hideLabel</styleUrl>
<Point><coordinates>-95.277900,29.662900,0</coordinates></Point></Placemark>
<Placemark><name>whackyjackie15</name><description>Sleeping to the sound of @OfficialAdele 's beautiful voice! #everydamnday !
Tue, 22 Nov 2011 06:33:37 +0000</description><styleUrl>#hideLabel</styleUrl>
<Point><coordinates>-95.271900,29.637700,0</coordinates></Point></Placemark>
<Placemark><name>PJMORTON</name><description>RT @BCourtneyWilson: I am currently checking 'write a great song with @pjmorton' off my bucket list.
#thankful
Tue, 22 Nov 2011 06:53:51 +0000</description><styleUrl>#hideLabel</styleUrl>
<Point><coordinates>-95.267230,29.653053,0</coordinates></Point></Placemark>
<Placemark><name>btwshe_thicktho</name><description>Was in the shower for bout an hour pussy good, shaved and clean :)
Tue, 22 Nov 2011 07:28:40 +0000</description><styleUrl>#hideLabel</styleUrl>
<Point><coordinates>-95.277800,29.662800,0</coordinates></Point></Placemark>
<Placemark><name>btwshe_thicktho</name><description>Late ass @BlowSwishaSMOKE
Tue, 22 Nov 2011 07:27:55 +0000</description><styleUrl>#hideLabel</styleUrl>
<Point><coordinates>-95.277800,29.662800,0</coordinates></Point></Placemark>
<Placemark><name>btwshe_thicktho</name><description>Fina smoke UNO deep tho fwm
Tue, 22 Nov 2011 07:29:29 +0000</description><styleUrl>#hideLabel</styleUrl>
<Point><coordinates>-95.277800,29.662800,0</coordinates></Point></Placemark>
<Placemark><name>thatfcknRiss</name><description>Whyyy mutt?RT @Psmoovelive: @thatfcknRiss smh fat head
Tue, 22 Nov 2011 07:47:15 +0000</description><styleUrl>#hideLabel</styleUrl>
<Point><coordinates>-95.274200,29.661400,0</coordinates></Point></Placemark>
<Placemark><name>thatfcknRiss</name><description>ppl love to talk shit and stay in your business
Tue, 22 Nov 2011 07:51:31 +0000</description><styleUrl>#hideLabel</styleUrl>
<Point><coordinates>-95.274200,29.661400,0</coordinates></Point></Placemark>
<Placemark><name>thatfcknRiss</name><description>RT @ImJustHolloway: Grown Women Handle Their Business
Tue, 22 Nov 2011 07:54:15 +0000</description><styleUrl>#hideLabel</styleUrl>
<Point><coordinates>-95.274200,29.661400,0</coordinates></Point></Placemark>
<Placemark><name>thatfcknRiss</name><description>When i did that i dont recall RT @Psmoovelive: @thatfcknRiss cuz yo ass sold me a wolf ticket
Tue, 22 Nov 2011 07:57:24 +0000</description><styleUrl>#hideLabel</styleUrl>
<Point><coordinates>-95.274200,29.661400,0</coordinates></Point></Placemark>
<Placemark><name>thatfcknRiss</name><description>the tweet i just retweeted&gt;&gt;&gt;&gt;&gt;
Tue, 22 Nov 2011 07:56:36 +0000</description><styleUrl>#hideLabel</styleUrl>
<Point><coordinates>-95.274200,29.661400,0</coordinates></Point></Placemark>
<Placemark><name>thatfcknRiss</name><description>Why I'm the only one that's up I usually be the one that goes to sleep first I'm nonsleepyy!
Tue, 22 Nov 2011 07:59:44 +0000</description><styleUrl>#hideLabel</styleUrl>
<Point><coordinates>-95.274200,29.661400,0</coordinates></Point></Placemark>
<Placemark><name>btwshe_thicktho</name><description>@PUZZYPARKS_6FIG Nothing For it lol !
Tue, 22 Nov 2011 07:59:20 +0000</description><styleUrl>#hideLabel</styleUrl>
<Point><coordinates>-95.277900,29.662800,0</coordinates></Point></Placemark>
<Placemark><name>thatfcknRiss</name><description>RT @SwagAsaurusR3X: The man wears the pants in the relationship, but unfortunately the woman controls the zipper #TrueShit
Tue, 22 Nov 2011 08:02:27 +0000</description><styleUrl>#hideLabel</styleUrl>
<Point><coordinates>-95.274200,29.661400,0</coordinates></Point></Placemark>
<Placemark><name>btwshe_thicktho</name><description>Ha you Better let em No Doll =) @OhBtW_FreeJARED
Tue, 22 Nov 2011 08:02:13 +0000</description><styleUrl>#hideLabel</styleUrl>
<Point><coordinates>-95.277900,29.662800,0</coordinates></Point></Placemark>