<?xml version="1.0" encoding="UTF-8"?><kml xmlns="http://www.opengis.net/kml/2.2"><Document>
<Style id="hideLabel"><LabelStyle><scale>0</scale></LabelStyle></Style>
<Placemark><name>yatown_news</name><description>BASKETBALL: Smith, UCLA hold off CS San Bernardino-Press-Enterprise #Ballou #Ontario http://t.co/bdbDU9ee
Fri, 18 Nov 2011 17:10:54 +0000</description><styleUrl>#hideLabel</styleUrl>
<Point><coordinates>-117.607100,34.050000,0</coordinates></Point></Placemark>
<Placemark><name>gabbypalomino13</name><description>&quot;@BoyFacts:A good morning text does not only mean &quot;Good morning&quot; It has a silent, loving message that says..&quot;I think of you when I wake up.&quot;
Fri, 18 Nov 2011 17:29:52 +0000</description><styleUrl>#hideLabel</styleUrl>
<Point><coordinates>-117.599200,34.068000,0</coordinates></Point></Placemark>
<Placemark><name>damiendebate</name><description>Off to chitown #ASAP
Fri, 18 Nov 2011 18:20:20 +0000</description><styleUrl>#hideLabel</styleUrl>
<Point><coordinates>-117.589000,34.060200,0</coordinates></Point></Placemark>
<Placemark><name>roncorbin1</name><description>I'm at LA / Ontario International Airport (ONT) (2500 E Airport Dr., Grove Ave. &amp; Haven Ave., Ontario) w/ 7 others http://t.co/9zOZNJvN
Fri, 18 Nov 2011 18:43:58 +0000</description><styleUrl>#hideLabel</styleUrl>
<Point><coordinates>-117.601111,34.055833,0</coordinates></Point></Placemark>
<Placemark><name>RayMc209</name><description>I'm at LA / Ontario International Airport (ONT) (2500 E Airport Dr., Grove Ave. &amp; Haven Ave., Ontario) w/ 8 others http://t.co/BZBVVqrR
Fri, 18 Nov 2011 19:29:13 +0000</description><styleUrl>#hideLabel</styleUrl>
<Point><coordinates>-117.601111,34.055833,0</coordinates></Point></Placemark>
<Placemark><name>sarah_jean</name><description>@BreeGonzales exactly!
Fri, 18 Nov 2011 20:15:01 +0000</description><styleUrl>#hideLabel</styleUrl>
<Point><coordinates>-117.594900,34.062800,0</coordinates></Point></Placemark>
<Placemark><name>MainStMediaSvc</name><description>I'm at LA / Ontario International Airport (ONT) (2500 E Airport Dr., Grove Ave. &amp; Haven Ave., Ontario) w/ 10 others http://t.co/gsgy1uLb
Fri, 18 Nov 2011 21:55:23 +0000</description><styleUrl>#hideLabel</styleUrl>
<Point><coordinates>-117.601111,34.055833,0</coordinates></Point></Placemark>
<Placemark><name>tatugirl</name><description>Finally feeling semi-human again lol not like a blanket or a pillow and in bed all day long, yay antibiotics!! Bye bye sinus infection
Fri, 18 Nov 2011 21:57:59 +0000</description><styleUrl>#hideLabel</styleUrl>
<Point><coordinates>-117.613758,34.069551,0</coordinates></Point></Placemark>
<Placemark><name>drinkswithsam</name><description>Landed!!!  Hopefully the traffic's not too bad yet (@ LA / Ontario International Airport (ONT) w/ 5 others) http://t.co/3Y4v7n5u
Fri, 18 Nov 2011 23:37:01 +0000</description><styleUrl>#hideLabel</styleUrl>
<Point><coordinates>-117.593100,34.059900,0</coordinates></Point></Placemark>
<Placemark><name>datingsexpert</name><description>I'm at LA / Ontario International Airport (ONT) (2500 E Airport Dr., Grove Ave. &amp; Haven Ave., Ontario) w/ 6 others http://t.co/XhaoiW6F
Fri, 18 Nov 2011 23:47:26 +0000</description><styleUrl>#hideLabel</styleUrl>
<Point><coordinates>-117.601111,34.055833,0</coordinates></Point></Placemark>
<Placemark><name>GMoneyLGear</name><description>Former UCLA basketball player Walt Hazzard dies - College Basketball News | FOX Sports on MSN http://t.co/vrWsGNA9 via @FoxSports
Sat, 19 Nov 2011 01:40:31 +0000</description><styleUrl>#hideLabel</styleUrl>
<Point><coordinates>-117.614093,34.069587,0</coordinates></Point></Placemark>
<Placemark><name>PhileySanneh</name><description>Touchdown!!!!!  @ LA/Ontario International Airport (ONT) http://t.co/1JpAMKhG
Sat, 19 Nov 2011 02:27:57 +0000</description><styleUrl>#hideLabel</styleUrl>
<Point><coordinates>-117.593100,34.059900,0</coordinates></Point></Placemark>
<Placemark><name>tatugirl</name><description>@rke72 hey rob!!
Sat, 19 Nov 2011 02:44:18 +0000</description><styleUrl>#hideLabel</styleUrl>
<Point><coordinates>-117.613758,34.069551,0</coordinates></Point></Placemark>
<Placemark><name>tatugirl</name><description>@smbaran thank you :-)
Sat, 19 Nov 2011 17:42:58 +0000</description><styleUrl>#hideLabel</styleUrl>
<Point><coordinates>-117.613758,34.069551,0</coordinates></Point></Placemark>
<Placemark><name>MichellePark2</name><description>I'm at LA / Ontario International Airport (ONT) (2500 E Airport Dr., Grove Ave. &amp; Haven Ave., Ontario) w/ 7 others http://t.co/VmiL4jlu
Sat, 19 Nov 2011 18:33:14 +0000</description><styleUrl>#hideLabel</styleUrl>
<Point><coordinates>-117.601111,34.055833,0</coordinates></Point></Placemark>
<Placemark><name>Jas_Mmm</name><description>Wearing my @ladygaga shirt #flossy
Sat, 19 Nov 2011 18:37:51 +0000</description><styleUrl>#hideLabel</styleUrl>
<Point><coordinates>-117.587200,34.067300,0</coordinates></Point></Placemark>
<Placemark><name>nadhaz</name><description>I'm tired. Hungry. And claustrophobic. Can people move any slower?
Sat, 19 Nov 2011 18:42:11 +0000</description><styleUrl>#hideLabel</styleUrl>
<Point><coordinates>-117.586100,34.060000,0</coordinates></Point></Placemark>
<Placemark><name>nadhaz</name><description>Finally here.
Sat, 19 Nov 2011 18:40:10 +0000</description><styleUrl>#hideLabel</styleUrl>
<Point><coordinates>-117.585600,34.045900,0</coordinates></Point></Placemark>
<Placemark><name>InnerSparkMedia</name><description>I just unlocked the &quot;Warhol&quot; badge on @foursquare! Gallerific! http://t.co/y66kAEXP
Sat, 19 Nov 2011 19:56:04 +0000</description><styleUrl>#hideLabel</styleUrl>
<Point><coordinates>-117.589662,34.066804,0</coordinates></Point></Placemark>
<Placemark><name>TheeQueenBeee</name><description>reminding myself that I can't always get what I want 

Rolling Stones told me so
Sat, 19 Nov 2011 22:08:42 +0000</description><styleUrl>#hideLabel</styleUrl>
<Point><coordinates>-117.593800,34.069500,0</coordinates></Point></Placemark>
<Placemark><name>mfkp</name><description>I'm at LA / Ontario International Airport (ONT) (2500 E Airport Dr., Grove Ave. &amp; Haven Ave., Ontario) http://t.co/QMxw0I0o
Sun, 20 Nov 2011 00:20:00 +0000</description><styleUrl>#hideLabel</styleUrl>
<Point><coordinates>-117.601111,34.055833,0</coordinates></Point></Placemark>
<Placemark><name>RogerSalazar</name><description>@KQED_CapNotes @capitolalert  Ack! KQED beat me to it. #DestinationUnknown
Sun, 20 Nov 2011 01:02:07 +0000</description><styleUrl>#hideLabel</styleUrl>
<Point><coordinates>-117.583000,34.064300,0</coordinates></Point></Placemark>
<Placemark><name>RogerSalazar</name><description>@CapitolAlert Destination Unknown is also an 80's hit from the band Missing Persons.
Sun, 20 Nov 2011 01:00:35 +0000</description><styleUrl>#hideLabel</styleUrl>
<Point><coordinates>-117.591000,34.064300,0</coordinates></Point></Placemark>
<Placemark><name>PwincessSham</name><description>@Imnumber10tho *they
Sun, 20 Nov 2011 01:40:53 +0000</description><styleUrl>#hideLabel</styleUrl>
<Point><coordinates>-117.609800,34.069900,0</coordinates></Point></Placemark>
<Placemark><name>RegBale</name><description>Having a wonderful dinner at the Emilio's.
Sun, 20 Nov 2011 02:45:57 +0000</description><styleUrl>#hideLabel</styleUrl>
<Point><coordinates>-117.591472,34.065787,0</coordinates></Point></Placemark>
<Placemark><name>RachelMarie5685</name><description>Let the adventure of our NINE HOUR red eye flight begin..boarding in 3 hours..... http://t.co/Acso88Fb
Sun, 20 Nov 2011 05:35:29 +0000</description><styleUrl>#hideLabel</styleUrl>
<Point><coordinates>-117.593100,34.059900,0</coordinates></Point></Placemark>
<Placemark><name>PaladinBladeX</name><description>Celebrating the end of the work day in good company. (@ Denny's) http://t.co/t2uFOB59
Sun, 20 Nov 2011 08:18:08 +0000</description><styleUrl>#hideLabel</styleUrl>
<Point><coordinates>-117.610800,34.068500,0</coordinates></Point></Placemark>
<Placemark><name>ZamayraCenteno</name><description>Boarding the plane off to Houston,Texas then back to Fort. Lauderdale I go. Gosh, I'm going to miss California :(
Sun, 20 Nov 2011 14:22:24 +0000</description><styleUrl>#hideLabel</styleUrl>
<Point><coordinates>-117.597500,34.060300,0</coordinates></Point></Placemark>
<Placemark><name>GMoneyLGear</name><description>RAIDERNATION..ARE YOU READY FOR SOME FOOTBALL..#blacksunday#raidernation
Sun, 20 Nov 2011 17:47:25 +0000</description><styleUrl>#hideLabel</styleUrl>
<Point><coordinates>-117.614093,34.069587,0</coordinates></Point></Placemark>
<Placemark><name>CholaPinupLA</name><description>RT @GMoneyLGear: RAIDERNATION..ARE YOU READY FOR SOME FOOTBALL..#blacksunday#raidernation
Sun, 20 Nov 2011 17:57:14 +0000</description><styleUrl>#hideLabel</styleUrl>
<Point><coordinates>-117.614093,34.069587,0</coordinates></Point></Placemark>
<Placemark><name>jurapteryx</name><description>#hypernate #subtweet
Sun, 20 Nov 2011 18:54:14 +0000</description><styleUrl>#hideLabel</styleUrl>
<Point><coordinates>-117.593400,34.064900,0</coordinates></Point></Placemark>
<Placemark><name>GMoneyLGear</name><description>TOUCHDOWN RAIDERS...
Sun, 20 Nov 2011 19:20:40 +0000</description><styleUrl>#hideLabel</styleUrl>
<Point><coordinates>-117.614093,34.069587,0</coordinates></Point></Placemark>
<Placemark><name>Ritmo737</name><description>Rain + Sunday = long night ahead. (@ ONT Terminal 4 w/ 2 others) http://t.co/QVOQa965
Sun, 20 Nov 2011 21:52:33 +0000</description><styleUrl>#hideLabel</styleUrl>
<Point><coordinates>-117.587200,34.060200,0</coordinates></Point></Placemark>
<Placemark><name>Kay_Stew5</name><description>A free Sunday? Wahhhhht no softball?(: #rainydays
Sun, 20 Nov 2011 23:57:32 +0000</description><styleUrl>#hideLabel</styleUrl>
<Point><coordinates>-117.593700,34.067500,0</coordinates></Point></Placemark>
<Placemark><name>yatown_deals</name><description>Try a new place for dinner. Bombay Restaurant offers $75 value for only $30 #Guasti #Ontario http://t.co/xLLMZg0k
Mon, 21 Nov 2011 00:36:03 +0000</description><styleUrl>#hideLabel</styleUrl>
<Point><coordinates>-117.611000,34.067300,0</coordinates></Point></Placemark>
<Placemark><name>Guapoasig</name><description>☔rain and listing
Mon, 21 Nov 2011 00:44:35 +0000</description><styleUrl>#hideLabel</styleUrl>
<Point><coordinates>-117.598700,34.059600,0</coordinates></Point></Placemark>
<Placemark><name>yami108</name><description>@2hot2tweetgurl fuck
Mon, 21 Nov 2011 04:24:08 +0000</description><styleUrl>#hideLabel</styleUrl>
<Point><coordinates>-117.612900,34.063200,0</coordinates></Point></Placemark>
<Placemark><name>ChuckDWilder</name><description>Feeling ok,though I would have a female to check on me.
Mon, 21 Nov 2011 05:13:58 +0000</description><styleUrl>#hideLabel</styleUrl>
<Point><coordinates>-117.592800,34.069700,0</coordinates></Point></Placemark>
<Placemark><name>Dapmc</name><description>@jerreau #fresh &quot;you got lighter in your pocket, you are no match.&quot; kill em... Can't wait for the new shit.
Mon, 21 Nov 2011 07:01:09 +0000</description><styleUrl>#hideLabel</styleUrl>
<Point><coordinates>-117.616154,34.066774,0</coordinates></Point></Placemark>
<Placemark><name>symmrdawn</name><description>@Korrinsarah miss you already lovely
Mon, 21 Nov 2011 08:14:55 +0000</description><styleUrl>#hideLabel</styleUrl>
<Point><coordinates>-117.603100,34.068200,0</coordinates></Point></Placemark>
<Placemark><name>Ritmo737</name><description>Wow, it was dark when I left last night, too. Don't remember the fog, though. (@ ONT Terminal 4) [pic]: http://t.co/yxKrE0Vi
Mon, 21 Nov 2011 14:02:35 +0000</description><styleUrl>#hideLabel</styleUrl>
<Point><coordinates>-117.587200,34.060200,0</coordinates></Point></Placemark>
<Placemark><name>drinkswithsam</name><description>Last trip b4 turkey day. Just a quick day trip to OAK and back. (@ LA / Ontario International Airport (ONT)) http://t.co/LXby2QEP
Mon, 21 Nov 2011 15:23:26 +0000</description><styleUrl>#hideLabel</styleUrl>
<Point><coordinates>-117.593100,34.059900,0</coordinates></Point></Placemark>
<Placemark><name>Helenn_Baby</name><description>Apparently shes not going too have the baby yet -_-
Mon, 21 Nov 2011 15:21:42 +0000</description><styleUrl>#hideLabel</styleUrl>
<Point><coordinates>-117.604300,34.068000,0</coordinates></Point></Placemark>
<Placemark><name>yami108</name><description>This shit is so gay #twitterisgay
Mon, 21 Nov 2011 16:06:05 +0000</description><styleUrl>#hideLabel</styleUrl>
<Point><coordinates>-117.599100,34.060400,0</coordinates></Point></Placemark>
<Placemark><name>yami108</name><description>@jsymanowski @johnyelalockert dude John is this true? #joesaidurgayafewweeksago
Mon, 21 Nov 2011 16:18:56 +0000</description><styleUrl>#hideLabel</styleUrl>
<Point><coordinates>-117.599200,34.060400,0</coordinates></Point></Placemark>
<Placemark><name>yami108</name><description>@yami108 @jsymanowski @johnyelalockert not impressed John #notatall
Mon, 21 Nov 2011 16:27:50 +0000</description><styleUrl>#hideLabel</styleUrl>
<Point><coordinates>-117.599300,34.060700,0</coordinates></Point></Placemark>
<Placemark><name>yami108</name><description>@jamollman1 it's called style Jill #getwithit
Mon, 21 Nov 2011 16:31:18 +0000</description><styleUrl>#hideLabel</styleUrl>
<Point><coordinates>-117.599100,34.060400,0</coordinates></Point></Placemark>
<Placemark><name>yatown_news</name><description>Jones, Spencer Lead National, CRA Sprints to Perris for 16th 'Budweiser Oval ...-WhoWon.com #Ballou #Ontario http://t.co/5yLsFyYn
Mon, 21 Nov 2011 17:10:56 +0000</description><styleUrl>#hideLabel</styleUrl>
<Point><coordinates>-117.607100,34.050000,0</coordinates></Point></Placemark>
<Placemark><name>TioGuicho_</name><description>@HausofClinton have you been watching the video? It's amazing
Mon, 21 Nov 2011 17:23:21 +0000</description><styleUrl>#hideLabel</styleUrl>
<Point><coordinates>-117.594300,34.067500,0</coordinates></Point></Placemark>
<Placemark><name>biancaxchrista</name><description>:( (@ LA / Ontario International Airport (ONT) w/ 8 others) http://t.co/cM7PDCiE
Mon, 21 Nov 2011 17:45:14 +0000</description><styleUrl>#hideLabel</styleUrl>
<Point><coordinates>-117.593100,34.059900,0</coordinates></Point></Placemark>
<Placemark><name>MadgieAvery</name><description>I am here picking up my youngest &amp; middle daughter jus came from Seattle. [pic]: http://t.co/2SsKr4rf
Mon, 21 Nov 2011 17:51:58 +0000</description><styleUrl>#hideLabel</styleUrl>
<Point><coordinates>-117.593100,34.059900,0</coordinates></Point></Placemark>
<Placemark><name>yami108</name><description>@jamollman1 ya proly a good idea. Yan I'll be home #partyfacesoff
Mon, 21 Nov 2011 17:57:13 +0000</description><styleUrl>#hideLabel</styleUrl>
<Point><coordinates>-117.595200,34.059600,0</coordinates></Point></Placemark>
<Placemark><name>NamBot3000</name><description>I'm at LA / Ontario International Airport (ONT) (2500 E Airport Dr., Grove Ave. &amp; Haven Ave., Ontario) w/ 8 others http://t.co/vbLWKVTf
Mon, 21 Nov 2011 18:06:34 +0000</description><styleUrl>#hideLabel</styleUrl>
<Point><coordinates>-117.601111,34.055833,0</coordinates></Point></Placemark>
<Placemark><name>yatown_deals</name><description>Try a new place for lunch. Save 60% at Bombay Restaurant #Ontario http://t.co/dhrSezJG
Mon, 21 Nov 2011 18:35:52 +0000</description><styleUrl>#hideLabel</styleUrl>
<Point><coordinates>-117.611000,34.067300,0</coordinates></Point></Placemark>
<Placemark><name>dtracedorner</name><description>No delta I will not check this bag.(Oooh juke sprint on to plane) watch me stuff this freaker in here. Door closed atl here I come w/bags
Mon, 21 Nov 2011 20:38:15 +0000</description><styleUrl>#hideLabel</styleUrl>
<Point><coordinates>-117.597500,34.060100,0</coordinates></Point></Placemark>
<Placemark><name>gramleahy</name><description>Its the little things http://t.co/mXeI0S8x
Tue, 22 Nov 2011 00:17:09 +0000</description><styleUrl>#hideLabel</styleUrl>
<Point><coordinates>-117.598400,34.050500,0</coordinates></Point></Placemark>
<Placemark><name>GlensonLA</name><description>#AstheSunSets I'm thinking about my priorities. #MusicMonday
Tue, 22 Nov 2011 00:37:24 +0000</description><styleUrl>#hideLabel</styleUrl>
<Point><coordinates>-117.611000,34.062700,0</coordinates></Point></Placemark>
<Placemark><name>dulcedeehem</name><description>Hope I get that shit later on when I get home :D
Tue, 22 Nov 2011 01:51:49 +0000</description><styleUrl>#hideLabel</styleUrl>
<Point><coordinates>-117.597200,34.070600,0</coordinates></Point></Placemark>
<Placemark><name>datingsexpert</name><description>I'm at LA / Ontario International Airport (ONT) (2500 E Airport Dr., Grove Ave. &amp; Haven Ave., Ontario) w/ 5 others http://t.co/DGjayFOB
Tue, 22 Nov 2011 01:55:13 +0000</description><styleUrl>#hideLabel</styleUrl>
<Point><coordinates>-117.601111,34.055833,0</coordinates></Point></Placemark>
<Placemark><name>dulcedeehem</name><description>Traffic is done! #yay
Tue, 22 Nov 2011 01:54:29 +0000</description><styleUrl>#hideLabel</styleUrl>
<Point><coordinates>-117.588400,34.068000,0</coordinates></Point></Placemark>
<Placemark><name>hgoldenh</name><description>I'm at LA / Ontario International Airport (ONT) (2500 E Airport Dr., Grove Ave. &amp; Haven Ave., Ontario) w/ 4 others http://t.co/7iF7oPXP
Tue, 22 Nov 2011 02:40:16 +0000</description><styleUrl>#hideLabel</styleUrl>
<Point><coordinates>-117.601111,34.055833,0</coordinates></Point></Placemark>
<Placemark><name>tatugirl</name><description>Oh boy, I smell snow in the air!!!
Tue, 22 Nov 2011 06:24:09 +0000</description><styleUrl>#hideLabel</styleUrl>
<Point><coordinates>-117.613758,34.069551,0</coordinates></Point></Placemark>
<Placemark><name>tatugirl</name><description>@doughboytatz I can wait for jersey snow!! Lol
Tue, 22 Nov 2011 06:26:52 +0000</description><styleUrl>#hideLabel</styleUrl>
<Point><coordinates>-117.613758,34.069551,0</coordinates></Point></Placemark>
<Placemark><name>tatugirl</name><description>@doughboytatz I'm sure there is somewhere
Tue, 22 Nov 2011 06:39:11 +0000</description><styleUrl>#hideLabel</styleUrl>
<Point><coordinates>-117.613758,34.069551,0</coordinates></Point></Placemark>
<Placemark><name>tatugirl</name><description>@doughboytatz Om Body Piercing Keansburg, NJ, appt. Only Into The Skin Easton, PA &amp; guest artist NoKaOi Tiki/Body Graphics, Philly. U?
Tue, 22 Nov 2011 06:46:50 +0000</description><styleUrl>#hideLabel</styleUrl>
<Point><coordinates>-117.613758,34.069551,0</coordinates></Point></Placemark>
<Placemark><name>tatugirl</name><description>@doughboytatz how long u been tattooing?
Tue, 22 Nov 2011 06:52:45 +0000</description><styleUrl>#hideLabel</styleUrl>
<Point><coordinates>-117.613758,34.069551,0</coordinates></Point></Placemark>
<Placemark><name>tatugirl</name><description>@doughboytatz I was apprenticed under Steve Ferguson in 1998, Been doing conventions since 2002
Tue, 22 Nov 2011 07:00:00 +0000</description><styleUrl>#hideLabel</styleUrl>
<Point><coordinates>-117.613758,34.069551,0</coordinates></Point></Placemark>
<Placemark><name>tatugirl</name><description>@doughboytatz sweet!
Tue, 22 Nov 2011 07:04:21 +0000</description><styleUrl>#hideLabel</styleUrl>
<Point><coordinates>-117.613758,34.069551,0</coordinates></Point></Placemark>
<Placemark><name>tatugirl</name><description>@doughboytatz I can bring it up to the shop owners  :-)
Tue, 22 Nov 2011 07:13:20 +0000</description><styleUrl>#hideLabel</styleUrl>
<Point><coordinates>-117.613758,34.069551,0</coordinates></Point></Placemark>
<Placemark><name>tatugirl</name><description>@doughboytatz ok I'll look you up tomorrow when I'm in front of the computer, reading Dennis Dwyer's book now :-)
Tue, 22 Nov 2011 07:20:16 +0000</description><styleUrl>#hideLabel</styleUrl>
<Point><coordinates>-117.613758,34.069551,0</coordinates></Point></Placemark>
<Placemark><name>Jayybloop</name><description>My mama is finally home yeayy &lt;33 !!
Tue, 22 Nov 2011 08:41:19 +0000</description><styleUrl>#hideLabel</styleUrl>
<Point><coordinates>-117.591600,34.060500,0</coordinates></Point></Placemark>
<Placemark><name>matt__reilly</name><description>30 minutes from my dorm room to the airport gate. pretty good time.
Tue, 22 Nov 2011 12:35:57 +0000</description><styleUrl>#hideLabel</styleUrl>
<Point><coordinates>-117.608500,34.064100,0</coordinates></Point></Placemark>
<Placemark><name>LA_FanDC</name><description>Let the mayhem commence!!! (@ ONT Terminal 4) http://t.co/OAkeV4J6
Tue, 22 Nov 2011 13:15:52 +0000</description><styleUrl>#hideLabel</styleUrl>
<Point><coordinates>-117.587200,34.060200,0</coordinates></Point></Placemark>
<Placemark><name>LudovicSpeaks</name><description>cool! “@Demos_Org: BIG NEWS: Demos Announces Landmark Registration of 1 Million New 99% Voters thru NVRA Enforcement http://t.co/nmbOChX8”
Tue, 22 Nov 2011 16:17:29 +0000</description><styleUrl>#hideLabel</styleUrl>
<Point><coordinates>-117.596500,34.058700,0</coordinates></Point></Placemark>
<Placemark><name>TommyJames909</name><description>RT if u picked up that @MacMiller #BSP
Tue, 22 Nov 2011 17:49:30 +0000</description><styleUrl>#hideLabel</styleUrl>
<Point><coordinates>-117.602900,34.063300,0</coordinates></Point></Placemark>
<Placemark><name>btr0n</name><description>Ellen Paige is Barbara Gordon?! I'm ok with that #tdkr
Tue, 22 Nov 2011 18:39:12 +0000</description><styleUrl>#hideLabel</styleUrl>
<Point><coordinates>-117.589900,34.067100,0</coordinates></Point></Placemark>
<Placemark><name>shivalrous019</name><description>Red wine and mango juice, good morning! ;) http://t.co/z2dRsArn
Tue, 22 Nov 2011 19:58:42 +0000</description><styleUrl>#hideLabel</styleUrl>
<Point><coordinates>-117.613600,34.067000,0</coordinates></Point></Placemark>
<Placemark><name>jonbelden150</name><description>Headed to #NorCal for #Thanksgiving 
#Orinda
Tue, 22 Nov 2011 23:21:20 +0000</description><styleUrl>#hideLabel</styleUrl>
<Point><coordinates>-117.596900,34.053200,0</coordinates></Point></Placemark>
<Placemark><name>LudovicSpeaks</name><description>good&amp;bad “@Live4Agreements: Be impeccable w/yer word. Don't take anything personaly. Don't make assumption. Always do your best-Miguel Ruiz”
Tue, 22 Nov 2011 23:35:32 +0000</description><styleUrl>#hideLabel</styleUrl>
<Point><coordinates>-117.587600,34.059600,0</coordinates></Point></Placemark>
<Placemark><name>LudovicSpeaks</name><description>Just organized&amp;led a kick ass mtg! So much so that folx asked me not2attend next 1 bc I'm a funder. #HeresThatBaton #Run&amp;IllMoveOutTheWay
Tue, 22 Nov 2011 23:33:02 +0000</description><styleUrl>#hideLabel</styleUrl>
<Point><coordinates>-117.587400,34.059800,0</coordinates></Point></Placemark>
<Placemark><name>LudovicSpeaks</name><description>@garlin bro, glad we met too! We got lots to lift so looking forward to a lifetime of comradeship...
Tue, 22 Nov 2011 23:41:24 +0000</description><styleUrl>#hideLabel</styleUrl>
<Point><coordinates>-117.587500,34.059700,0</coordinates></Point></Placemark>
<Placemark><name>LudovicSpeaks</name><description>@amonifa I hear ya. True for steam train too. Where else?
Tue, 22 Nov 2011 23:40:46 +0000</description><styleUrl>#hideLabel</styleUrl>
<Point><coordinates>-117.587600,34.059700,0</coordinates></Point></Placemark>
<Placemark><name>LudovicSpeaks</name><description>hey @rkref ya know @naomirwolf has got to be kidding
Tue, 22 Nov 2011 23:38:57 +0000</description><styleUrl>#hideLabel</styleUrl>
<Point><coordinates>-117.587500,34.059800,0</coordinates></Point></Placemark>
<Placemark><name>LudovicSpeaks</name><description>LOL “@rkref: NEVER B4 EVER RT @naomirwolf well I am very sad2say we do hav our 1st death in US caused by police violence &amp;it is fetal death”
Tue, 22 Nov 2011 23:38:44 +0000</description><styleUrl>#hideLabel</styleUrl>
<Point><coordinates>-117.587400,34.060000,0</coordinates></Point></Placemark>
<Placemark><name>LudovicSpeaks</name><description>Alright--Ont--&gt;Oak. Talk with y'all later
Tue, 22 Nov 2011 23:43:31 +0000</description><styleUrl>#hideLabel</styleUrl>
<Point><coordinates>-117.587400,34.060000,0</coordinates></Point></Placemark>
<Placemark><name>LudovicSpeaks</name><description>#ShuldaPickedABetterSong “@pbsgwen: You know what? The Roots &amp; Jimmy Fallon SHOULD apologize. Really, @questlove, you're better than that.”
Tue, 22 Nov 2011 23:42:42 +0000</description><styleUrl>#hideLabel</styleUrl>
<Point><coordinates>-117.587500,34.059900,0</coordinates></Point></Placemark>
<Placemark><name>LudovicSpeaks</name><description>@mqsawyer @yayayarndiva @thebaycitizen I only know anecdotally how segregated Berkeley is, esp w/black &amp; Latino folk
Tue, 22 Nov 2011 23:42:00 +0000</description><styleUrl>#hideLabel</styleUrl>
<Point><coordinates>-117.587500,34.059900,0</coordinates></Point></Placemark>
<Placemark><name>tulipandthelma</name><description>My #inlaws wanna keep Lu by herself for 2 nights...but I said no effing way. I'm #crazy, aren't I? #moms
Wed, 23 Nov 2011 00:02:32 +0000</description><styleUrl>#hideLabel</styleUrl>
<Point><coordinates>-117.599000,34.067600,0</coordinates></Point></Placemark>
<Placemark><name>zwsh89</name><description>I'm on a full flight.  Occupy planes.  #ows #occupyclaremont
Wed, 23 Nov 2011 01:06:02 +0000</description><styleUrl>#hideLabel</styleUrl>
<Point><coordinates>-117.588100,34.059500,0</coordinates></Point></Placemark>
<Placemark><name>Pixie2183</name><description>I just became the mayor of Ontario, CA on @foursquare! http://t.co/q0NOCKu0
Wed, 23 Nov 2011 02:41:59 +0000</description><styleUrl>#hideLabel</styleUrl>
<Point><coordinates>-117.610900,34.071500,0</coordinates></Point></Placemark>
<Placemark><name>diarydad</name><description>UT here I come! (@ LA / Ontario International Airport (ONT) w/ 10 others) [pic]: http://t.co/X2R4btkD
Wed, 23 Nov 2011 03:18:16 +0000</description><styleUrl>#hideLabel</styleUrl>
<Point><coordinates>-117.593100,34.059900,0</coordinates></Point></Placemark>
<Placemark><name>Onefastaudi</name><description>“@CarCounsel: &quot;991 has become unnecessarily big... now so much more refined than 997... that it feels like a GT car.The 997 felt like that 2
Wed, 23 Nov 2011 04:30:35 +0000</description><styleUrl>#hideLabel</styleUrl>
<Point><coordinates>-117.612900,34.068800,0</coordinates></Point></Placemark>
<Placemark><name>RockItPixie</name><description>I'm back in SoCal! (@ LA / Ontario International Airport (ONT) w/ 10 others) http://t.co/IVoutnqM
Wed, 23 Nov 2011 04:46:40 +0000</description><styleUrl>#hideLabel</styleUrl>
<Point><coordinates>-117.593100,34.059900,0</coordinates></Point></Placemark>
<Placemark><name>finishlinewest</name><description>I'm at LA / Ontario International Airport (ONT) (2500 E Airport Dr., Grove Ave. &amp; Haven Ave., Ontario) w/ 7 others http://t.co/muWKQWY6
Wed, 23 Nov 2011 08:15:23 +0000</description><styleUrl>#hideLabel</styleUrl>
<Point><coordinates>-117.601111,34.055833,0</coordinates></Point></Placemark>
<Placemark><name>LA_FanDC</name><description>Another day of wheelchair heaven! (@ ONT Terminal 4) http://t.co/dtl5Ukwi
Wed, 23 Nov 2011 13:33:16 +0000</description><styleUrl>#hideLabel</styleUrl>
<Point><coordinates>-117.587200,34.060200,0</coordinates></Point></Placemark>
<Placemark><name>ohmysaturday</name><description>Im always curious as to how I'm supposed to attend things I was never invited to
Wed, 23 Nov 2011 16:37:10 +0000</description><styleUrl>#hideLabel</styleUrl>
<Point><coordinates>-117.587000,34.060400,0</coordinates></Point></Placemark>
<Placemark><name>screamradius</name><description>Plan a trip to #Ontario, #California here! http://t.co/lrdUAajS
Wed, 23 Nov 2011 17:02:55 +0000</description><styleUrl>#hideLabel</styleUrl>
<Point><coordinates>-117.619700,34.063100,0</coordinates></Point></Placemark>
<Placemark><name>Dapmc</name><description>@jayswifa I fucks with @jayswifa on the beats #TGTC
Wed, 23 Nov 2011 17:31:59 +0000</description><styleUrl>#hideLabel</styleUrl>
<Point><coordinates>-117.616154,34.066774,0</coordinates></Point></Placemark>
<Placemark><name>thenicolebusch</name><description>I'm at LA / Ontario International Airport (ONT) (2500 E Airport Dr., Grove Ave. &amp; Haven Ave., Ontario) w/ 4 others http://t.co/IAvQ4vWa
Wed, 23 Nov 2011 17:41:32 +0000</description><styleUrl>#hideLabel</styleUrl>
<Point><coordinates>-117.601111,34.055833,0</coordinates></Point></Placemark>
<Placemark><name>jayswifa</name><description>RT @Dapmc: @jayswifa I fucks with @jayswifa on the beats #TGTC
Wed, 23 Nov 2011 18:01:02 +0000</description><styleUrl>#hideLabel</styleUrl>
<Point><coordinates>-117.616154,34.066774,0</coordinates></Point></Placemark>
<Placemark><name>GlensonLA</name><description>So much security at the #OntarioInternationalAirport #isthisajoke
Wed, 23 Nov 2011 18:20:39 +0000</description><styleUrl>#hideLabel</styleUrl>
<Point><coordinates>-117.595700,34.064900,0</coordinates></Point></Placemark>
<Placemark><name>yatown_deals</name><description>Try a new place for lunch. Bombay Restaurant offers $75 value for only $30 #Racimo #Ontario http://t.co/ehBPwZD9
Wed, 23 Nov 2011 18:35:46 +0000</description><styleUrl>#hideLabel</styleUrl>
<Point><coordinates>-117.611000,34.067300,0</coordinates></Point></Placemark>
<Placemark><name>BroadwayBrooks</name><description>It's ight..
Wed, 23 Nov 2011 19:03:23 +0000</description><styleUrl>#hideLabel</styleUrl>
<Point><coordinates>-117.597800,34.060200,0</coordinates></Point></Placemark>
<Placemark><name>BatlaG</name><description>FOX News on the airplane! Thank you United... http://t.co/Ny5wFqus
Wed, 23 Nov 2011 19:42:43 +0000</description><styleUrl>#hideLabel</styleUrl>
<Point><coordinates>-117.599600,34.058600,0</coordinates></Point></Placemark>
<Placemark><name>btr0n</name><description>My boss has stinky breath today :/
Wed, 23 Nov 2011 19:49:49 +0000</description><styleUrl>#hideLabel</styleUrl>
<Point><coordinates>-117.592600,34.065500,0</coordinates></Point></Placemark>
<Placemark><name>ptocheia</name><description>Woo palm trees! (@ LA / Ontario International Airport (ONT) w/ 6 others) http://t.co/jHr3Zt9v
Wed, 23 Nov 2011 21:38:25 +0000</description><styleUrl>#hideLabel</styleUrl>
<Point><coordinates>-117.593100,34.059900,0</coordinates></Point></Placemark>
<Placemark><name>SEHvay</name><description>Im so hungry. But there's no money on my card. &amp; i havent eaten all day -_-
Wed, 23 Nov 2011 21:49:50 +0000</description><styleUrl>#hideLabel</styleUrl>
<Point><coordinates>-117.587600,34.060000,0</coordinates></Point></Placemark>
<Placemark><name>stephanieweedin</name><description>Going back to Vegas! (@ 10 Freeway East) http://t.co/YISueo4E
Wed, 23 Nov 2011 21:54:00 +0000</description><styleUrl>#hideLabel</styleUrl>
<Point><coordinates>-117.605800,34.068900,0</coordinates></Point></Placemark>
<Placemark><name>InnerSparkMedia</name><description>I just unlocked the &quot;Ten Hundred&quot; badge on @foursquare! http://t.co/oM8ZFWyj
Wed, 23 Nov 2011 22:14:22 +0000</description><styleUrl>#hideLabel</styleUrl>
<Point><coordinates>-117.589610,34.066777,0</coordinates></Point></Placemark>
<Placemark><name>SEHvay</name><description>Takin a doodoo right next to @domdefiesta waiting for my flight haha
Wed, 23 Nov 2011 22:58:37 +0000</description><styleUrl>#hideLabel</styleUrl>
<Point><coordinates>-117.586700,34.048200,0</coordinates></Point></Placemark>
<Placemark><name>InnerSparkMedia</name><description>I just unlocked the “Mall Rat” badge on @foursquare! Time for a fancy pretzel. http://t.co/J8DZhdhQ
Wed, 23 Nov 2011 23:13:16 +0000</description><styleUrl>#hideLabel</styleUrl>
<Point><coordinates>-117.589610,34.066777,0</coordinates></Point></Placemark>
<Placemark><name>GMoneyLGear</name><description>Happy Hour.. http://t.co/QLZBOXEm
Thu, 24 Nov 2011 00:02:42 +0000</description><styleUrl>#hideLabel</styleUrl>
<Point><coordinates>-117.614093,34.069587,0</coordinates></Point></Placemark>
<Placemark><name>edgarr1000</name><description>I am officially a  today   @ In-N-Out Burger http://t.co/IomqgmD3
Thu, 24 Nov 2011 00:34:33 +0000</description><styleUrl>#hideLabel</styleUrl>
<Point><coordinates>-117.611400,34.069200,0</coordinates></Point></Placemark>
<Placemark><name>TheKatsMeowww</name><description>I'm at LA / Ontario International Airport (ONT) (2500 E Airport Dr., Grove Ave. &amp; Haven Ave., Ontario) w/ 10 others http://t.co/0mqgAyWi
Thu, 24 Nov 2011 00:31:27 +0000</description><styleUrl>#hideLabel</styleUrl>
<Point><coordinates>-117.601111,34.055833,0</coordinates></Point></Placemark>
<Placemark><name>GMoneyLGear</name><description>Drinks for 2..me and my girl Olivia enjoying Cadillacs http://t.co/aYooCEYJ
Thu, 24 Nov 2011 00:36:47 +0000</description><styleUrl>#hideLabel</styleUrl>
<Point><coordinates>-117.614093,34.069587,0</coordinates></Point></Placemark>
<Placemark><name>yatown_deals</name><description>Try a new place for dinner. Get $25 value for only $10 at Porter's Steakhouse #Champagne #Ontario http://t.co/sZsNw7Dk
Thu, 24 Nov 2011 00:35:44 +0000</description><styleUrl>#hideLabel</styleUrl>
<Point><coordinates>-117.611000,34.065100,0</coordinates></Point></Placemark>
<Placemark><name>dustnorton</name><description>Flying to Vegas (@ LA / Ontario International Airport (ONT) w/ 11 others) http://t.co/IrnsDUqD
Thu, 24 Nov 2011 00:40:50 +0000</description><styleUrl>#hideLabel</styleUrl>
<Point><coordinates>-117.593100,34.059900,0</coordinates></Point></Placemark>
<Placemark><name>dustnorton</name><description>Here we go!!! (@ On The Plane) http://t.co/9kybnC6y
Thu, 24 Nov 2011 01:07:56 +0000</description><styleUrl>#hideLabel</styleUrl>
<Point><coordinates>-117.588700,34.059900,0</coordinates></Point></Placemark>
<Placemark><name>Pixie2183</name><description>I'm at LA / Ontario International Airport (ONT) (2500 E Airport Dr., Grove Ave. &amp; Haven Ave., Ontario) w/ 5 others http://t.co/YuYa1Rhu
Thu, 24 Nov 2011 01:17:15 +0000</description><styleUrl>#hideLabel</styleUrl>
<Point><coordinates>-117.601111,34.055833,0</coordinates></Point></Placemark>
<Placemark><name>yatown_news</name><description>Cross country team weathers biting storm-PCC Courier #Guasti http://t.co/6gKaAufm
Thu, 24 Nov 2011 02:05:51 +0000</description><styleUrl>#hideLabel</styleUrl>
<Point><coordinates>-117.589100,34.063600,0</coordinates></Point></Placemark>
<Placemark><name>BawlinColin</name><description>That pizza was wack af
Thu, 24 Nov 2011 03:18:30 +0000</description><styleUrl>#hideLabel</styleUrl>
<Point><coordinates>-117.599000,34.051900,0</coordinates></Point></Placemark>
<Placemark><name>mattigeee</name><description>I'm at LA / Ontario International Airport (ONT) (2500 E Airport Dr., Grove Ave. &amp; Haven Ave., Ontario) w/ 5 others http://t.co/V0IiKh2r
Thu, 24 Nov 2011 03:17:18 +0000</description><styleUrl>#hideLabel</styleUrl>
<Point><coordinates>-117.601111,34.055833,0</coordinates></Point></Placemark>
<Placemark><name>BawlinColin</name><description>Plane ride, then las Vegas. Bout to have a dope ass thanksgiving
Thu, 24 Nov 2011 03:26:10 +0000</description><styleUrl>#hideLabel</styleUrl>
<Point><coordinates>-117.598000,34.061400,0</coordinates></Point></Placemark>
<Placemark><name>Allendyouadime</name><description>I wanna catch a Dubai Mighty Camels game one of these days!
Thu, 24 Nov 2011 04:26:50 +0000</description><styleUrl>#hideLabel</styleUrl>
<Point><coordinates>-117.595600,34.066800,0</coordinates></Point></Placemark>
<Placemark><name>GlensonLA</name><description>See ya! (@ LA / Ontario International Airport (ONT) w/ 5 others) http://t.co/PuGuJRW7
Thu, 24 Nov 2011 04:39:03 +0000</description><styleUrl>#hideLabel</styleUrl>
<Point><coordinates>-117.593100,34.059900,0</coordinates></Point></Placemark>
<Placemark><name>millertimeca</name><description>Just landed!  SoCal ... I'm baa-ack! (@ LA / Ontario International Airport (ONT) w/ 3 others) http://t.co/QuqNXGpP
Thu, 24 Nov 2011 06:07:34 +0000</description><styleUrl>#hideLabel</styleUrl>
<Point><coordinates>-117.593100,34.059900,0</coordinates></Point></Placemark>
<Placemark><name>MarkJohnston388</name><description>People watching at the airport is a great way to remind yourself that tights are NOT pants.
Thu, 24 Nov 2011 06:37:36 +0000</description><styleUrl>#hideLabel</styleUrl>
<Point><coordinates>-117.593800,34.064800,0</coordinates></Point></Placemark>
<Placemark><name>lfincher</name><description>I'm at LA / Ontario International Airport (ONT) (2500 E Airport Dr., Grove Ave. &amp; Haven Ave., Ontario) w/ 11 others http://t.co/dGSpShIC
Thu, 24 Nov 2011 07:22:25 +0000</description><styleUrl>#hideLabel</styleUrl>
<Point><coordinates>-117.601111,34.055833,0</coordinates></Point></Placemark>
<Placemark><name>Siwoz</name><description>@phorriiee near december though!! Christmassss http://t.co/nuE0gNk3
Thu, 24 Nov 2011 08:05:50 +0000</description><styleUrl>#hideLabel</styleUrl>
<Point><coordinates>-117.603800,34.069300,0</coordinates></Point></Placemark>
<Placemark><name>HighIam_sal</name><description>3 blunts, 4 monsters, gonna be a good drive 
Thu, 24 Nov 2011 08:49:49 +0000</description><styleUrl>#hideLabel</styleUrl>
<Point><coordinates>-117.612500,34.063200,0</coordinates></Point></Placemark>
<Placemark><name>DbaxBlogger</name><description>I'm at LA / Ontario International Airport (ONT) (2500 E Airport Dr., Grove Ave. &amp; Haven Ave., Ontario) http://t.co/ZpOugqIP
Thu, 24 Nov 2011 13:00:05 +0000</description><styleUrl>#hideLabel</styleUrl>
<Point><coordinates>-117.601111,34.055833,0</coordinates></Point></Placemark>
<Placemark><name>Hai_Otter</name><description>Goodness these workers are buttholes
Thu, 24 Nov 2011 13:26:41 +0000</description><styleUrl>#hideLabel</styleUrl>
<Point><coordinates>-117.587300,34.060600,0</coordinates></Point></Placemark>
<Placemark><name>tatugirl</name><description>Happy Turkey Day!!!!
Thu, 24 Nov 2011 14:56:02 +0000</description><styleUrl>#hideLabel</styleUrl>
<Point><coordinates>-117.613758,34.069551,0</coordinates></Point></Placemark>
<Placemark><name>LA_FanDC</name><description>Happy Thanksgiving!!! (@ ONT Terminal 4 w/ 3 others) http://t.co/rQkijqC6
Thu, 24 Nov 2011 15:39:57 +0000</description><styleUrl>#hideLabel</styleUrl>
<Point><coordinates>-117.587200,34.060200,0</coordinates></Point></Placemark>
<Placemark><name>GMoneyLGear</name><description>Lookin forward to some breast today..HAPPY TURKEY DAY..
Thu, 24 Nov 2011 16:24:03 +0000</description><styleUrl>#hideLabel</styleUrl>
<Point><coordinates>-117.614093,34.069587,0</coordinates></Point></Placemark>
<Placemark><name>TomRojanapanya</name><description>I'm at LA / Ontario International Airport (ONT) (2500 E Airport Dr., Grove Ave. &amp; Haven Ave., Ontario) w/ 6 others http://t.co/0lSsxAjz
Thu, 24 Nov 2011 17:09:47 +0000</description><styleUrl>#hideLabel</styleUrl>
<Point><coordinates>-117.601111,34.055833,0</coordinates></Point></Placemark>
<Placemark><name>alyssakiefer</name><description>I'm at LA / Ontario International Airport (ONT) (2500 E Airport Dr., Grove Ave. &amp; Haven Ave., Ontario) w/ 7 others http://t.co/LE7otU2a
Thu, 24 Nov 2011 17:43:46 +0000</description><styleUrl>#hideLabel</styleUrl>
<Point><coordinates>-117.601111,34.055833,0</coordinates></Point></Placemark>
<Placemark><name>LeonardSchloer</name><description>Ontario Airport- Southwest to San Jose, Thanksgiving with fam in Santa Cruz
Thu, 24 Nov 2011 18:18:50 +0000</description><styleUrl>#hideLabel</styleUrl>
<Point><coordinates>-117.589600,34.060700,0</coordinates></Point></Placemark>
<Placemark><name>Dapmc</name><description>http://t.co/czvCYTih - Fishing
Thu, 24 Nov 2011 18:23:04 +0000</description><styleUrl>#hideLabel</styleUrl>
<Point><coordinates>-117.616154,34.066774,0</coordinates></Point></Placemark>
<Placemark><name>M_Y_Emerson</name><description>Well, glad my Kevin Smith waiver wire pick up didn't go through.
Thu, 24 Nov 2011 18:22:30 +0000</description><styleUrl>#hideLabel</styleUrl>
<Point><coordinates>-117.598600,34.060800,0</coordinates></Point></Placemark>
<Placemark><name>yatown_deals</name><description>Enjoy lunch here: Save 60% at Ayres Courtyard Grille #Ballou #Ontario http://t.co/K9orjID6
Thu, 24 Nov 2011 18:35:47 +0000</description><styleUrl>#hideLabel</styleUrl>
<Point><coordinates>-117.610200,34.063600,0</coordinates></Point></Placemark>
<Placemark><name>AngelinaCC</name><description>RT @GMoneyLGear: HAPPY THANKSGIVING TO THE RAIDERNATION !!! http://t.co/gcYevDfx
Thu, 24 Nov 2011 19:21:34 +0000</description><styleUrl>#hideLabel</styleUrl>
<Point><coordinates>-117.614093,34.069587,0</coordinates></Point></Placemark>
<Placemark><name>AlexNavarretee</name><description>But last and not least I'm thankful for having a best friend @ema_rey for dealing with my shit and being an asshole since 8th grade lmao.
Thu, 24 Nov 2011 22:05:51 +0000</description><styleUrl>#hideLabel</styleUrl>
<Point><coordinates>-117.606500,34.072500,0</coordinates></Point></Placemark>
<Placemark><name>omarmorel</name><description>My oven is jam packed this year! I make the best home made pies for thanksgiving.. gotta rmb  @ Marie Callender's http://t.co/GtkmOPzJ
Thu, 24 Nov 2011 22:05:40 +0000</description><styleUrl>#hideLabel</styleUrl>
<Point><coordinates>-117.602100,34.067200,0</coordinates></Point></Placemark>
<Placemark><name>AlexNavarretee</name><description>@ema_rey (: 
I love you too.
Thu, 24 Nov 2011 22:08:47 +0000</description><styleUrl>#hideLabel</styleUrl>
<Point><coordinates>-117.605900,34.069200,0</coordinates></Point></Placemark>
<Placemark><name>kevperz</name><description>Ahhhhhh home (@ LA / Ontario International Airport (ONT) w/ 4 others) http://t.co/hhaQLYvt
Fri, 25 Nov 2011 00:41:26 +0000</description><styleUrl>#hideLabel</styleUrl>
<Point><coordinates>-117.593100,34.059900,0</coordinates></Point></Placemark>
<Placemark><name>chandlerpearce</name><description>While everyone spends all their money tomorrow morning I'll be making it #BlackFriday #Nordstrom
Fri, 25 Nov 2011 01:37:36 +0000</description><styleUrl>#hideLabel</styleUrl>
<Point><coordinates>-117.588300,34.060100,0</coordinates></Point></Placemark>
<Placemark><name>chandlerpearce</name><description>All the guys crowded around the tv watching football in the airport #American
Fri, 25 Nov 2011 01:58:08 +0000</description><styleUrl>#hideLabel</styleUrl>
<Point><coordinates>-117.588000,34.060100,0</coordinates></Point></Placemark>
<Placemark><name>MRrayfuentes</name><description>&quot;HOPE OVER FEAR&quot; SPEAKER JAM!!!  HAPPY THANKSGIVING!!! SO GRATEFUL TO BE HERE!!! [pic]: http://t.co/oc27x3Nn
Fri, 25 Nov 2011 02:04:01 +0000</description><styleUrl>#hideLabel</styleUrl>
<Point><coordinates>-117.609700,34.066300,0</coordinates></Point></Placemark>
<Placemark><name>chandlerpearce</name><description>@sabs_santamaria I know I'm so bummed I miss you guys reuniting winter break love you!
Fri, 25 Nov 2011 02:13:34 +0000</description><styleUrl>#hideLabel</styleUrl>
<Point><coordinates>-117.598800,34.058800,0</coordinates></Point></Placemark>
<Placemark><name>Guapoasig</name><description>See the sky ripped open
See the rain comin' through the gapin' wound
Howlin' the women and children
Who run into the arms
Of America.
Fri, 25 Nov 2011 02:46:03 +0000</description><styleUrl>#hideLabel</styleUrl>
<Point><coordinates>-117.585100,34.059600,0</coordinates></Point></Placemark>
<Placemark><name>LoveIvieMarie</name><description>Hey hey hey, everyone be nice. It's enough of me to go around
Fri, 25 Nov 2011 06:15:55 +0000</description><styleUrl>#hideLabel</styleUrl>
<Point><coordinates>-117.594900,34.062800,0</coordinates></Point></Placemark>
<Placemark><name>shivalrous019</name><description>You can put me in the oven as well, I'm stuffed! #burp
Fri, 25 Nov 2011 06:32:30 +0000</description><styleUrl>#hideLabel</styleUrl>
<Point><coordinates>-117.613600,34.066900,0</coordinates></Point></Placemark>
<Placemark><name>IgnacioArzola</name><description>I'm at LA / Ontario International Airport (ONT) (2500 E Airport Dr., Grove Ave. &amp; Haven Ave., Ontario) w/ 2 others http://t.co/4trvmJae
Fri, 25 Nov 2011 08:34:12 +0000</description><styleUrl>#hideLabel</styleUrl>
<Point><coordinates>-117.601111,34.055833,0</coordinates></Point></Placemark>
<Placemark><name>KillaCoony</name><description>ants this song is the shit!! RT “@Anthony_Evan: #np 504 boyz - I can tell”
Fri, 25 Nov 2011 08:48:07 +0000</description><styleUrl>#hideLabel</styleUrl>
<Point><coordinates>-117.594900,34.062800,0</coordinates></Point></Placemark>
<Placemark><name>islotvegas</name><description>We at C Slots Inc would like to wish everyone traveling to #lasvegas this weekend.
All the luck!
Fri, 25 Nov 2011 12:33:41 +0000</description><styleUrl>#hideLabel</styleUrl>
<Point><coordinates>-117.594900,34.062800,0</coordinates></Point></Placemark>
<Placemark><name>the_novemberist</name><description>I'm at LA / Ontario International Airport (ONT) (2500 E Airport Dr., Grove Ave. &amp; Haven Ave., Ontario) w/ 6 others http://t.co/5fcYjrAN
Fri, 25 Nov 2011 18:39:53 +0000</description><styleUrl>#hideLabel</styleUrl>
<Point><coordinates>-117.601111,34.055833,0</coordinates></Point></Placemark>
<Placemark><name>nadhaz</name><description>My mom threw a hundred in purse incase I got lost on the way -_- you never know, the plane might stop in Hawaii on the way.
Fri, 25 Nov 2011 19:18:08 +0000</description><styleUrl>#hideLabel</styleUrl>
<Point><coordinates>-117.597100,34.060400,0</coordinates></Point></Placemark>
<Placemark><name>nadhaz</name><description>Too cold for you to keep her, too hot for you to leave herrrr 
Fri, 25 Nov 2011 19:37:27 +0000</description><styleUrl>#hideLabel</styleUrl>
<Point><coordinates>-117.597500,34.060300,0</coordinates></Point></Placemark>
<Placemark><name>roncorbin1</name><description>I'm at LA / Ontario International Airport (ONT) (2500 E Airport Dr., Grove Ave. &amp; Haven Ave., Ontario) w/ 5 others http://t.co/357fOxH0
Fri, 25 Nov 2011 19:38:13 +0000</description><styleUrl>#hideLabel</styleUrl>
<Point><coordinates>-117.601111,34.055833,0</coordinates></Point></Placemark>
<Placemark><name>MRrayfuentes</name><description>HOPE OVER FEAR:  SCRCNA 32 (@ DoubleTree Hotel - Ontario Airport) http://t.co/h3RkhAtm
Fri, 25 Nov 2011 23:32:12 +0000</description><styleUrl>#hideLabel</styleUrl>
<Point><coordinates>-117.609700,34.066300,0</coordinates></Point></Placemark>
<Placemark><name>Ritmo737</name><description>Some Holiday-geddon at the airport today. Trust me, folks. I am a professional. (@ ONT Terminal 4) http://t.co/tdYflwm9
Sat, 26 Nov 2011 00:12:28 +0000</description><styleUrl>#hideLabel</styleUrl>
<Point><coordinates>-117.587200,34.060200,0</coordinates></Point></Placemark>
<Placemark><name>Topher33</name><description>@KimKeLi Well, I'm planning on crashing at my buddy's place in lovely Ontario. Sounds wild.
Sat, 26 Nov 2011 00:16:43 +0000</description><styleUrl>#hideLabel</styleUrl>
<Point><coordinates>-117.619800,34.063700,0</coordinates></Point></Placemark>
<Placemark><name>MisterCleanDean</name><description>Here for the opening speaker meeting for SCRNA convention 32. I hope to see y'all here. (@ Ontario Convention Center) http://t.co/1W8IFO8B
Sat, 26 Nov 2011 01:57:06 +0000</description><styleUrl>#hideLabel</styleUrl>
<Point><coordinates>-117.606300,34.065100,0</coordinates></Point></Placemark>
<Placemark><name>mneise</name><description>I'm at LA / Ontario International Airport (ONT) (2500 E Airport Dr., Grove Ave. &amp; Haven Ave., Ontario) w/ 4 others http://t.co/1fKGQrvi
Sat, 26 Nov 2011 01:54:59 +0000</description><styleUrl>#hideLabel</styleUrl>
<Point><coordinates>-117.601111,34.055833,0</coordinates></Point></Placemark>
<Placemark><name>yatown_news</name><description>Ex-Patriots player recalls stormy relationship with teen charged in triple http://t.co/J55Ef82o #Ballou #Ontario http://t.co/ybbKsPqA
Sat, 26 Nov 2011 02:06:15 +0000</description><styleUrl>#hideLabel</styleUrl>
<Point><coordinates>-117.607100,34.050000,0</coordinates></Point></Placemark>
<Placemark><name>Genaro_d</name><description>Traveling by myself at ontario airport
Sat, 26 Nov 2011 02:23:44 +0000</description><styleUrl>#hideLabel</styleUrl>
<Point><coordinates>-117.587300,34.060600,0</coordinates></Point></Placemark>
<Placemark><name>Genaro_d</name><description>airlines are the most stupid
Sat, 26 Nov 2011 03:10:44 +0000</description><styleUrl>#hideLabel</styleUrl>
<Point><coordinates>-117.594900,34.062800,0</coordinates></Point></Placemark>
<Placemark><name>joelswedlove</name><description>We are officially less than 24 hours
Sat, 26 Nov 2011 03:18:03 +0000</description><styleUrl>#hideLabel</styleUrl>
<Point><coordinates>-117.589300,34.064300,0</coordinates></Point></Placemark>
<Placemark><name>ABMyourpappi</name><description>“@ChristianM_XO: That awkward moment u think ur sexxy and u have a gut” or a fupa
Sat, 26 Nov 2011 06:50:03 +0000</description><styleUrl>#hideLabel</styleUrl>
<Point><coordinates>-117.594000,34.064400,0</coordinates></Point></Placemark>
<Placemark><name>shivalrous019</name><description>@gradededgar FIND WIFI NOOOOWWW! Pls? Lol
Sat, 26 Nov 2011 06:57:49 +0000</description><styleUrl>#hideLabel</styleUrl>
<Point><coordinates>-117.613700,34.066900,0</coordinates></Point></Placemark>
<Placemark><name>abbieesmile</name><description>what a bummiee Friday!(:
Sat, 26 Nov 2011 07:33:50 +0000</description><styleUrl>#hideLabel</styleUrl>
<Point><coordinates>-117.595500,34.067900,0</coordinates></Point></Placemark>
<Placemark><name>atonyrodriguez</name><description>@bigd2375 where you at!
Sat, 26 Nov 2011 08:41:15 +0000</description><styleUrl>#hideLabel</styleUrl>
<Point><coordinates>-117.611000,34.066300,0</coordinates></Point></Placemark>
<Placemark><name>ShawnKrogsgaard</name><description>early start to a very long travel day (@ LA / Ontario International Airport (ONT)) http://t.co/xEbnFdjJ
Sat, 26 Nov 2011 13:12:42 +0000</description><styleUrl>#hideLabel</styleUrl>
<Point><coordinates>-117.593100,34.059900,0</coordinates></Point></Placemark>
<Placemark><name>pwweiss</name><description>Too early for me. Waiting on our flight to Denver.
Sat, 26 Nov 2011 14:08:24 +0000</description><styleUrl>#hideLabel</styleUrl>
<Point><coordinates>-117.593800,34.061100,0</coordinates></Point></Placemark>
<Placemark><name>atonyrodriguez</name><description>@MicaelaReyes you an RN yet?
Sat, 26 Nov 2011 15:59:16 +0000</description><styleUrl>#hideLabel</styleUrl>
<Point><coordinates>-117.613700,34.066000,0</coordinates></Point></Placemark>
<Placemark><name>atonyrodriguez</name><description>@MicaelaReyes you used to go to PCC right?
Sat, 26 Nov 2011 16:14:35 +0000</description><styleUrl>#hideLabel</styleUrl>
<Point><coordinates>-117.613600,34.066000,0</coordinates></Point></Placemark>
<Placemark><name>atonyrodriguez</name><description>My mistake, thought you were a girl I met back in community college.  @MicaelaReyes
Sat, 26 Nov 2011 16:17:43 +0000</description><styleUrl>#hideLabel</styleUrl>
<Point><coordinates>-117.611500,34.065900,0</coordinates></Point></Placemark>
<Placemark><name>MRrayfuentes</name><description>SCRCNA 32!!! TOP OF THE MORNING!!!  WISHING EVERYBODY A GREAT DAY!!! (@ DoubleTree Hotel - Ontario Airport) http://t.co/AEi4mli6
Sat, 26 Nov 2011 16:35:44 +0000</description><styleUrl>#hideLabel</styleUrl>
<Point><coordinates>-117.609700,34.066300,0</coordinates></Point></Placemark>
<Placemark><name>jgalindo93</name><description>I HAVE A NEW BEAUTIFUL BABY SISTER!! WELCOME TO THE FAMILY, ELIZABETH GABRIELLA GALINDO!!! Born while I was in the sky.
Sat, 26 Nov 2011 17:57:47 +0000</description><styleUrl>#hideLabel</styleUrl>
<Point><coordinates>-117.597400,34.060700,0</coordinates></Point></Placemark>
<Placemark><name>nicoll1388</name><description>Going back to Texas (@ ONT Terminal 4) http://t.co/FJ2tTeLB
Sat, 26 Nov 2011 18:20:42 +0000</description><styleUrl>#hideLabel</styleUrl>
<Point><coordinates>-117.587200,34.060200,0</coordinates></Point></Placemark>
<Placemark><name>yatown_deals</name><description>Planning lunch? Save 60% at Bombay Restaurant #Racimo #Ontario http://t.co/gj4un2f5
Sat, 26 Nov 2011 18:36:00 +0000</description><styleUrl>#hideLabel</styleUrl>
<Point><coordinates>-117.611000,34.067300,0</coordinates></Point></Placemark>
<Placemark><name>theEnemyBass</name><description>@Travisislove yea true that
Sat, 26 Nov 2011 19:19:11 +0000</description><styleUrl>#hideLabel</styleUrl>
<Point><coordinates>-117.585100,34.065900,0</coordinates></Point></Placemark>
<Placemark><name>alexcampos_26</name><description>I'm at LA / Ontario International Airport (ONT) (2500 E Airport Dr., Grove Ave. &amp; Haven Ave., Ontario) w/ 7 others http://t.co/wyUGr4gq
Sat, 26 Nov 2011 19:25:24 +0000</description><styleUrl>#hideLabel</styleUrl>
<Point><coordinates>-117.601111,34.055833,0</coordinates></Point></Placemark>
<Placemark><name>_NikFakhoury_</name><description>@JoshSweatshirtt @tristanstbf2 short and um scrony.. listen you can try acting like you have a chance but in real life you don't..
Sat, 26 Nov 2011 21:42:07 +0000</description><styleUrl>#hideLabel</styleUrl>
<Point><coordinates>-117.607300,34.053800,0</coordinates></Point></Placemark>
<Placemark><name>RockItPixie</name><description>Heading back to the Mile High (@ LA / Ontario International Airport (ONT)) http://t.co/YASGDNbA
Sun, 27 Nov 2011 00:15:22 +0000</description><styleUrl>#hideLabel</styleUrl>
<Point><coordinates>-117.593100,34.059900,0</coordinates></Point></Placemark>
<Placemark><name>RockItPixie</name><description>The plane! The plane! (@ United Airlines) http://t.co/jATfOWU7
Sun, 27 Nov 2011 00:49:45 +0000</description><styleUrl>#hideLabel</styleUrl>
<Point><coordinates>-117.598500,34.061200,0</coordinates></Point></Placemark>
<Placemark><name>schulzy49</name><description>At the airport leaving the Desert after a perfect week with family and friends! #oldguysschoolyoungguysingolf
Sun, 27 Nov 2011 01:14:24 +0000</description><styleUrl>#hideLabel</styleUrl>
<Point><coordinates>-117.597900,34.060300,0</coordinates></Point></Placemark>
<Placemark><name>atonyrodriguez</name><description>@revrayg it's true, I love Raymond!  Lol
Sun, 27 Nov 2011 01:32:41 +0000</description><styleUrl>#hideLabel</styleUrl>
<Point><coordinates>-117.611300,34.069100,0</coordinates></Point></Placemark>
<Placemark><name>jcort909</name><description>What to do tonight? I want to go out...
Sun, 27 Nov 2011 04:02:41 +0000</description><styleUrl>#hideLabel</styleUrl>
<Point><coordinates>-117.595700,34.067600,0</coordinates></Point></Placemark>
<Placemark><name>CaptainChevySS</name><description>Next year USC getting ready to &quot;lead the PAC&quot;
Sun, 27 Nov 2011 04:00:40 +0000</description><styleUrl>#hideLabel</styleUrl>
<Point><coordinates>-117.584300,34.065600,0</coordinates></Point></Placemark>
<Placemark><name>Kobefan0824</name><description>Let's go the NBA is back in session time to go work
Sun, 27 Nov 2011 05:07:36 +0000</description><styleUrl>#hideLabel</styleUrl>
<Point><coordinates>-117.611900,34.065700,0</coordinates></Point></Placemark>
<Placemark><name>Dapmc</name><description>TV night with my mother in law while rhythm section record in the studio #rhythmsectionep  coming soon
Sun, 27 Nov 2011 05:33:52 +0000</description><styleUrl>#hideLabel</styleUrl>
<Point><coordinates>-117.616154,34.066774,0</coordinates></Point></Placemark>
<Placemark><name>kylaadawnn</name><description>That awkward moment when your at a party and someones mom calls...
Sun, 27 Nov 2011 06:55:25 +0000</description><styleUrl>#hideLabel</styleUrl>
<Point><coordinates>-117.587400,34.041900,0</coordinates></Point></Placemark>
<Placemark><name>IGotKidsYoAge</name><description>About to hop on this flight to Oklahoma
Sun, 27 Nov 2011 13:03:47 +0000</description><styleUrl>#hideLabel</styleUrl>
<Point><coordinates>-117.587200,34.060600,0</coordinates></Point></Placemark>
<Placemark><name>russfouts1</name><description>Man now matter how much time or what do together visits just don't feel long enough
Sun, 27 Nov 2011 14:10:45 +0000</description><styleUrl>#hideLabel</styleUrl>
<Point><coordinates>-117.602900,34.063300,0</coordinates></Point></Placemark>
<Placemark><name>MaryKateruns</name><description>I'm at LA / Ontario International Airport (ONT) (2500 E Airport Dr., Grove Ave. &amp; Haven Ave., Ontario) w/ 3 others http://t.co/v7cb6EVK
Sun, 27 Nov 2011 14:41:51 +0000</description><styleUrl>#hideLabel</styleUrl>
<Point><coordinates>-117.601111,34.055833,0</coordinates></Point></Placemark>
<Placemark><name>lfincher</name><description>I'm at LA / Ontario International Airport (ONT) (2500 E Airport Dr., Grove Ave. &amp; Haven Ave., Ontario) w/ 7 others http://t.co/kkm0UtYN
Sun, 27 Nov 2011 16:56:13 +0000</description><styleUrl>#hideLabel</styleUrl>
<Point><coordinates>-117.601111,34.055833,0</coordinates></Point></Placemark>
<Placemark><name>GMoneyLGear</name><description>Rise and shine RAIDER NATION..SHITCAGO IS GOING DOWN TODAY !!! #blacksunday
Sun, 27 Nov 2011 18:06:43 +0000</description><styleUrl>#hideLabel</styleUrl>
<Point><coordinates>-117.614093,34.069587,0</coordinates></Point></Placemark>
<Placemark><name>jaclynjule</name><description>I love ✈ hella thankful that I didn't have an 8 hour drive this morning
Sun, 27 Nov 2011 18:25:40 +0000</description><styleUrl>#hideLabel</styleUrl>
<Point><coordinates>-117.587000,34.060700,0</coordinates></Point></Placemark>
<Placemark><name>MamiBleu27</name><description>@_sweetbabyjesus Follow Back:-)
Sun, 27 Nov 2011 19:15:08 +0000</description><styleUrl>#hideLabel</styleUrl>
<Point><coordinates>-117.609500,34.067100,0</coordinates></Point></Placemark>
<Placemark><name>MamiBleu27</name><description>&quot;@MCEddieRuffin: Do &quot;turkey chitlins&quot; exist?&quot;LMBO:-)
Sun, 27 Nov 2011 19:18:11 +0000</description><styleUrl>#hideLabel</styleUrl>
<Point><coordinates>-117.609500,34.067200,0</coordinates></Point></Placemark>
<Placemark><name>MamiBleu27</name><description>&quot;@ZodiacZone: #Scorpio is an expert on sex. Shit, they've done it enough!&quot;LOL! I was married to a Scorpio! :-)
Sun, 27 Nov 2011 19:17:40 +0000</description><styleUrl>#hideLabel</styleUrl>
<Point><coordinates>-117.609600,34.067100,0</coordinates></Point></Placemark>
<Placemark><name>MamiBleu27</name><description>&quot;@KameronBennett: I feel like everyone went through a phase where they wanted to skateboard... lol&quot; Believe it or not Me Too! LOL! :-)
Sun, 27 Nov 2011 19:21:47 +0000</description><styleUrl>#hideLabel</styleUrl>
<Point><coordinates>-117.609500,34.067200,0</coordinates></Point></Placemark>
<Placemark><name>MamiBleu27</name><description>@LilKimNews Wow! You guys are Really Pissed off this Morning Huh! :-)
Sun, 27 Nov 2011 19:28:41 +0000</description><styleUrl>#hideLabel</styleUrl>
<Point><coordinates>-117.609500,34.067300,0</coordinates></Point></Placemark>
<Placemark><name>MamiBleu27</name><description>&quot;@Idgaf_Quana: @Idgaf___Bitch this is what I do&quot;LOL! #Hardcore @LilKim
Sun, 27 Nov 2011 19:25:36 +0000</description><styleUrl>#hideLabel</styleUrl>
<Point><coordinates>-117.609500,34.067300,0</coordinates></Point></Placemark>
<Placemark><name>MamiBleu27</name><description>&quot;@LipsDONT_Lie: The way Jack loved Rose on the Titanic &gt; &gt; &gt; &gt; &gt; &gt;&quot;Me too! That's the way Love should be besides the Dying Part LOL!:-)
Sun, 27 Nov 2011 19:30:36 +0000</description><styleUrl>#hideLabel</styleUrl>
<Point><coordinates>-117.609500,34.067300,0</coordinates></Point></Placemark>
<Placemark><name>MamiBleu27</name><description>&quot;@ohteenquotes: Hearing yourself sing in the shower and wondering why the hell you haven't made an album yet.&quot; Man that's true # 1st Soprano
Sun, 27 Nov 2011 19:36:13 +0000</description><styleUrl>#hideLabel</styleUrl>
<Point><coordinates>-117.609500,34.067200,0</coordinates></Point></Placemark>
<Placemark><name>shivalrous019</name><description>Never trust a shopaholic when they say they will be quick and just get something.
Sun, 27 Nov 2011 19:35:57 +0000</description><styleUrl>#hideLabel</styleUrl>
<Point><coordinates>-117.613700,34.066900,0</coordinates></Point></Placemark>
<Placemark><name>imhenry</name><description>I'm at LA / Ontario International Airport (ONT) (2500 E Airport Dr., Grove Ave. &amp; Haven Ave., Ontario) w/ 9 others http://t.co/47KiMEe8
Sun, 27 Nov 2011 21:34:40 +0000</description><styleUrl>#hideLabel</styleUrl>
<Point><coordinates>-117.601111,34.055833,0</coordinates></Point></Placemark>
<Placemark><name>Ritmo737</name><description>Gonna be a busy one at the airport tonight. (@ ONT Terminal 4) http://t.co/9i8jmX6M
Sun, 27 Nov 2011 21:49:48 +0000</description><styleUrl>#hideLabel</styleUrl>
<Point><coordinates>-117.587200,34.060200,0</coordinates></Point></Placemark>
<Placemark><name>britttgriffith</name><description>I'm at LA / Ontario International Airport (ONT) (2500 E Airport Dr., Grove Ave. &amp; Haven Ave., Ontario) w/ 10 others http://t.co/nZl7TX24
Sun, 27 Nov 2011 23:04:49 +0000</description><styleUrl>#hideLabel</styleUrl>
<Point><coordinates>-117.601111,34.055833,0</coordinates></Point></Placemark>
<Placemark><name>CHARCHARBABY69</name><description>Wake me when its over
Sun, 27 Nov 2011 23:12:12 +0000</description><styleUrl>#hideLabel</styleUrl>
<Point><coordinates>-117.595400,34.067800,0</coordinates></Point></Placemark>
<Placemark><name>ReddingMichelle</name><description>RT @britttgriffith: I'm at LA / Ontario International Airport (ONT) (2500 E Airport Dr., Grove Ave. &amp; Haven Ave., Ontario) w/ 10 others http://t.co/nZl7TX24
Sun, 27 Nov 2011 23:58:44 +0000</description><styleUrl>#hideLabel</styleUrl>
<Point><coordinates>-117.601111,34.055833,0</coordinates></Point></Placemark>
<Placemark><name>Dapmc</name><description>“@jayswifa: @SwiffD swag. I'm jay from fly u. Been hip 2 u for a minute G”&lt;-2 fresh ass producers chatting #getitin
Mon, 28 Nov 2011 00:43:53 +0000</description><styleUrl>#hideLabel</styleUrl>
<Point><coordinates>-117.616154,34.066774,0</coordinates></Point></Placemark>
<Placemark><name>yatown_news</name><description>Ex-Patriots player recalls stormy relationship with teen charged in triple http://t.co/J55Ef82o #Ballou #Ontario http://t.co/ybbKsPqA
Mon, 28 Nov 2011 02:05:48 +0000</description><styleUrl>#hideLabel</styleUrl>
<Point><coordinates>-117.607100,34.050000,0</coordinates></Point></Placemark>
<Placemark><name>_NikFakhoury_</name><description>When the girl you like the most tells you any girl would be lucky to have you should realize that you don't want any girl you want her&lt;3
Mon, 28 Nov 2011 02:19:34 +0000</description><styleUrl>#hideLabel</styleUrl>
<Point><coordinates>-117.607100,34.059600,0</coordinates></Point></Placemark>
<Placemark><name>_NikFakhoury_</name><description>My mom came home with everything you can get for Christmas and told me tomoro the house is going to be looking like Christmas:) #wintertime
Mon, 28 Nov 2011 02:49:26 +0000</description><styleUrl>#hideLabel</styleUrl>
<Point><coordinates>-117.607300,34.053800,0</coordinates></Point></Placemark>
<Placemark><name>gramleahy</name><description>@TheReal_Taber just passed schlotzkys... #goodtimes
Mon, 28 Nov 2011 03:26:20 +0000</description><styleUrl>#hideLabel</styleUrl>
<Point><coordinates>-117.598900,34.066000,0</coordinates></Point></Placemark>
<Placemark><name>DbaxBlogger</name><description>I'm at LA / Ontario International Airport (ONT) (2500 E Airport Dr., Grove Ave. &amp; Haven Ave., Ontario) w/ 6 others http://t.co/e0thZLB8
Mon, 28 Nov 2011 04:44:13 +0000</description><styleUrl>#hideLabel</styleUrl>
<Point><coordinates>-117.601111,34.055833,0</coordinates></Point></Placemark>
<Placemark><name>Dapmc</name><description>#rhythmsectionep new log http://t.co/e64ukI4i
Mon, 28 Nov 2011 05:54:46 +0000</description><styleUrl>#hideLabel</styleUrl>
<Point><coordinates>-117.616154,34.066774,0</coordinates></Point></Placemark>
<Placemark><name>angeliqueyyy</name><description>Just tell me I look pretty!  Sheesh
Mon, 28 Nov 2011 05:53:20 +0000</description><styleUrl>#hideLabel</styleUrl>
<Point><coordinates>-117.595500,34.067900,0</coordinates></Point></Placemark>
<Placemark><name>_NikFakhoury_</name><description>@tristanstbf2 but this time all the goodies im going to buy fuck trusting people to get me shit!
Mon, 28 Nov 2011 07:15:36 +0000</description><styleUrl>#hideLabel</styleUrl>
<Point><coordinates>-117.607300,34.053800,0</coordinates></Point></Placemark>
<Placemark><name>AndoreYAS_0330</name><description>Shakes!!! ^^ (@ In-N-Out Burger) http://t.co/tQD0wrmj
Mon, 28 Nov 2011 07:18:05 +0000</description><styleUrl>#hideLabel</styleUrl>
<Point><coordinates>-117.611400,34.069200,0</coordinates></Point></Placemark>
<Placemark><name>_NikFakhoury_</name><description>@_Keenan22 aha I am I got homework for days:/
Mon, 28 Nov 2011 10:04:47 +0000</description><styleUrl>#hideLabel</styleUrl>
<Point><coordinates>-117.611300,34.058200,0</coordinates></Point></Placemark>
<Placemark><name>shivalrous019</name><description>Annoying, lucky, happy, unlucky, etherial food, negative thing turned positive, chill, amazing. I'd do it all over again with/for you.
Mon, 28 Nov 2011 10:09:18 +0000</description><styleUrl>#hideLabel</styleUrl>
<Point><coordinates>-117.613700,34.066000,0</coordinates></Point></Placemark>
<Placemark><name>JaysS2k</name><description>@OhMyPepay san gala natin bukas? :) thanks manila girl have a good night.
Mon, 28 Nov 2011 14:31:45 +0000</description><styleUrl>#hideLabel</styleUrl>
<Point><coordinates>-117.608900,34.069700,0</coordinates></Point></Placemark>
<Placemark><name>millertimeca</name><description>DFW-bound!  Thankful and happy to have spent the long holiday weekend with GREAT friends!! http://t.co/Zsn8IggW
Mon, 28 Nov 2011 14:50:36 +0000</description><styleUrl>#hideLabel</styleUrl>
<Point><coordinates>-117.593100,34.059900,0</coordinates></Point></Placemark>
</Document></kml>