<?xml version="1.0" encoding="UTF-8"?><kml xmlns="http://www.opengis.net/kml/2.2"><Document>
<Style id="hideLabel"><LabelStyle><scale>0</scale></LabelStyle></Style>
<Placemark><name>SkyHighHustla</name><description>I'm at Savannah Hilton Head International Airport (SAV) (400 Airways Ave, at Gulfstream Rd, Savannah) w/ 3 others http://t.co/1lihDEEh
Fri, 18 Nov 2011 15:22:06 +0000</description><styleUrl>#hideLabel</styleUrl>
<Point><coordinates>-81.201944,32.127500,0</coordinates></Point></Placemark>
<Placemark><name>lostoffworld</name><description>@BuckyOhair happy Friday to u =) you have coffee???
Fri, 18 Nov 2011 14:38:20 +0000</description><styleUrl>#hideLabel</styleUrl>
<Point><coordinates>-81.214300,32.127700,0</coordinates></Point></Placemark>
<Placemark><name>greytdad</name><description>I'm at Savannah Hilton Head International Airport (SAV) (400 Airways Ave, at Gulfstream Rd, Savannah) w/ 5 others http://t.co/pvXKvbk3
Fri, 18 Nov 2011 17:25:05 +0000</description><styleUrl>#hideLabel</styleUrl>
<Point><coordinates>-81.201944,32.127500,0</coordinates></Point></Placemark>
<Placemark><name>d_shea</name><description>I'm at Savannah Hilton Head International Airport (SAV) (400 Airways Ave, at Gulfstream Rd, Savannah) w/ 8 others http://t.co/J8cSwwOo
Fri, 18 Nov 2011 18:13:38 +0000</description><styleUrl>#hideLabel</styleUrl>
<Point><coordinates>-81.201944,32.127500,0</coordinates></Point></Placemark>
<Placemark><name>taytaymarie</name><description>Fashion-forward trend-setter? ...or art student whose bag weighed too much?? #coolmomchic #toomanysweaters #hotasfuck! http://t.co/wPK2iX8e
Fri, 18 Nov 2011 19:02:25 +0000</description><styleUrl>#hideLabel</styleUrl>
<Point><coordinates>-81.193200,32.125800,0</coordinates></Point></Placemark>
<Placemark><name>taytaymarie</name><description>@TribeCalledJazz OMG! Hahaha did you get it on clearence @urbanoutfitters ??
Fri, 18 Nov 2011 19:59:11 +0000</description><styleUrl>#hideLabel</styleUrl>
<Point><coordinates>-81.205700,32.135800,0</coordinates></Point></Placemark>
<Placemark><name>10HDs</name><description>Spoiler Alert: The baby is a werewolf! #Twilight
Sat, 19 Nov 2011 01:50:58 +0000</description><styleUrl>#hideLabel</styleUrl>
<Point><coordinates>-81.200868,32.114145,0</coordinates></Point></Placemark>
<Placemark><name>marvie3grl</name><description>I'm at Savannah Hilton Head International Airport (SAV) (400 Airways Ave, at Gulfstream Rd, Savannah) w/ 4 others http://t.co/3NobdYtM
Sat, 19 Nov 2011 15:59:49 +0000</description><styleUrl>#hideLabel</styleUrl>
<Point><coordinates>-81.201944,32.127500,0</coordinates></Point></Placemark>
<Placemark><name>andypblack</name><description>I'm at Savannah Hilton Head International Airport (SAV) (400 Airways Ave, at Gulfstream Rd, Savannah) w/ 7 others http://t.co/UvEuRlCI
Sat, 19 Nov 2011 18:17:57 +0000</description><styleUrl>#hideLabel</styleUrl>
<Point><coordinates>-81.201944,32.127500,0</coordinates></Point></Placemark>
<Placemark><name>morganlanderson</name><description>I'm at Savannah Hilton Head International Airport (SAV) (400 Airways Ave, at Gulfstream Rd, Savannah) w/ 4 others http://t.co/LSirVywH
Sun, 20 Nov 2011 01:35:23 +0000</description><styleUrl>#hideLabel</styleUrl>
<Point><coordinates>-81.201944,32.127500,0</coordinates></Point></Placemark>
<Placemark><name>10HDs</name><description>Although I don't want to see a LSU/Bama rematch the whole top 5 will be SEC teams after this weekend
Sun, 20 Nov 2011 03:02:13 +0000</description><styleUrl>#hideLabel</styleUrl>
<Point><coordinates>-81.200868,32.114145,0</coordinates></Point></Placemark>
<Placemark><name>sEaRcHiN_4_CJ</name><description>Savannah is exactly like Charleston wow #gottadobetta
Sun, 20 Nov 2011 05:16:53 +0000</description><styleUrl>#hideLabel</styleUrl>
<Point><coordinates>-81.213600,32.139500,0</coordinates></Point></Placemark>
<Placemark><name>lek_smalling</name><description>Goodbye savannah (@ Savannah Hilton Head International Airport (SAV) w/ 3 others) [pic]: http://t.co/acfa99Hn
Sun, 20 Nov 2011 11:35:04 +0000</description><styleUrl>#hideLabel</styleUrl>
<Point><coordinates>-81.208700,32.135500,0</coordinates></Point></Placemark>
<Placemark><name>techpickles</name><description>Heading towards NH, brb (@ Savannah Hilton Head International Airport (SAV) w/ 3 others) http://t.co/TJV5LwAQ
Sun, 20 Nov 2011 12:31:48 +0000</description><styleUrl>#hideLabel</styleUrl>
<Point><coordinates>-81.208700,32.135500,0</coordinates></Point></Placemark>
<Placemark><name>rachellacour</name><description>Early Morning Friend  @ Savannah Hilton Head International Airport (SAV) http://t.co/hK2zqlZt
Sun, 20 Nov 2011 13:20:03 +0000</description><styleUrl>#hideLabel</styleUrl>
<Point><coordinates>-81.208700,32.135500,0</coordinates></Point></Placemark>
<Placemark><name>mafesotillo</name><description>I just ousted Aztraya as the mayor of Starbucks on @foursquare! http://t.co/E63i5wgW
Sun, 20 Nov 2011 18:26:55 +0000</description><styleUrl>#hideLabel</styleUrl>
<Point><coordinates>-81.207900,32.135700,0</coordinates></Point></Placemark>
<Placemark><name>10HDs</name><description>I just walked the garbage cans out to the curb in my underwear, I'm not sure if that's allowed or not but I am the HOA President! Oh yeah!
Mon, 21 Nov 2011 01:31:12 +0000</description><styleUrl>#hideLabel</styleUrl>
<Point><coordinates>-81.200868,32.114145,0</coordinates></Point></Placemark>
<Placemark><name>PaigeJaclyn</name><description>Goodbyes suck.
Mon, 21 Nov 2011 10:15:48 +0000</description><styleUrl>#hideLabel</styleUrl>
<Point><coordinates>-81.207600,32.135600,0</coordinates></Point></Placemark>
<Placemark><name>chadmnGa</name><description>@COLINMcCARTHY52 Keep at it y'all are doing great.
Mon, 21 Nov 2011 10:50:56 +0000</description><styleUrl>#hideLabel</styleUrl>
<Point><coordinates>-81.192600,32.136900,0</coordinates></Point></Placemark>
<Placemark><name>chadmnGa</name><description>@KennyBritt_18  Can't wait for you to get back and see you and Locker hook up. #halloffamebound!
Mon, 21 Nov 2011 10:56:21 +0000</description><styleUrl>#hideLabel</styleUrl>
<Point><coordinates>-81.192600,32.136900,0</coordinates></Point></Placemark>
<Placemark><name>chadmnGa</name><description>@k
Mon, 21 Nov 2011 10:54:20 +0000</description><styleUrl>#hideLabel</styleUrl>
<Point><coordinates>-81.192600,32.137000,0</coordinates></Point></Placemark>
<Placemark><name>lostoffworld</name><description>Wooooot!!! Well done!  “@BuckyOhair: Morning #TweetFleet We are at T-8 and counting! oh.. and I am closing on my first house today :D”
Mon, 21 Nov 2011 13:00:15 +0000</description><styleUrl>#hideLabel</styleUrl>
<Point><coordinates>-81.214300,32.127700,0</coordinates></Point></Placemark>
<Placemark><name>lostoffworld</name><description>Monday? Again? Bahhhh thpppptttt #hatemondays morning #tweetfleet
Mon, 21 Nov 2011 13:08:36 +0000</description><styleUrl>#hideLabel</styleUrl>
<Point><coordinates>-81.214300,32.127700,0</coordinates></Point></Placemark>
<Placemark><name>lostoffworld</name><description>@BuckyOhair @arydanika purchase of permanent captains quarters does not require the grow up skill set-I would ignore that training-I do =)
Mon, 21 Nov 2011 14:51:23 +0000</description><styleUrl>#hideLabel</styleUrl>
<Point><coordinates>-81.214300,32.127700,0</coordinates></Point></Placemark>
<Placemark><name>lostoffworld</name><description>@lexstaley 2 things I see wrong w/ our system-it's a 2 party sys. &amp; only rich can afford to run. Your thoughts?
Mon, 21 Nov 2011 14:56:59 +0000</description><styleUrl>#hideLabel</styleUrl>
<Point><coordinates>-81.205900,32.124200,0</coordinates></Point></Placemark>
<Placemark><name>_JUSTINECHOLS</name><description>I'm at Savannah Hilton Head International Airport (SAV) (400 Airways Ave, at Gulfstream Rd, Savannah) w/ 3 others http://t.co/YPhWaQsw
Mon, 21 Nov 2011 16:08:08 +0000</description><styleUrl>#hideLabel</styleUrl>
<Point><coordinates>-81.201944,32.127500,0</coordinates></Point></Placemark>
<Placemark><name>MarkLamb72</name><description>Nice cool night at work.
Tue, 22 Nov 2011 05:45:53 +0000</description><styleUrl>#hideLabel</styleUrl>
<Point><coordinates>-81.192700,32.134500,0</coordinates></Point></Placemark>
<Placemark><name>lostoffworld</name><description>@HelicityBoson lol I was wondering what mischief you were up to when I noticed you in Amod the other day
Tue, 22 Nov 2011 14:19:06 +0000</description><styleUrl>#hideLabel</styleUrl>
<Point><coordinates>-81.214300,32.127700,0</coordinates></Point></Placemark>
<Placemark><name>lostoffworld</name><description>@HelicityBoson lol yeah not likely good for the unwary-however I was pos'd up as we got a fleet sorted for fun later-maybe next time ;-)
Tue, 22 Nov 2011 14:31:42 +0000</description><styleUrl>#hideLabel</styleUrl>
<Point><coordinates>-81.214300,32.127700,0</coordinates></Point></Placemark>
<Placemark><name>lostoffworld</name><description>@swearte @helicityboson being good at being bad counts *grins*
Tue, 22 Nov 2011 14:38:04 +0000</description><styleUrl>#hideLabel</styleUrl>
<Point><coordinates>-81.214300,32.127700,0</coordinates></Point></Placemark>
<Placemark><name>lostoffworld</name><description>@HelicityBoson it can happen to anyone-I usually follow rule of not underestimating my opponent-it gets me killed otherwise lmao
Tue, 22 Nov 2011 14:36:45 +0000</description><styleUrl>#hideLabel</styleUrl>
<Point><coordinates>-81.214300,32.127700,0</coordinates></Point></Placemark>
<Placemark><name>madsterrrrr</name><description>Ready for this trip. http://t.co/XoHSqdro
Tue, 22 Nov 2011 14:43:50 +0000</description><styleUrl>#hideLabel</styleUrl>
<Point><coordinates>-81.208100,32.135600,0</coordinates></Point></Placemark>
<Placemark><name>lostoffworld</name><description>@_noise_ indeed! Very entertaining!
Tue, 22 Nov 2011 14:58:52 +0000</description><styleUrl>#hideLabel</styleUrl>
<Point><coordinates>-81.214300,32.127700,0</coordinates></Point></Placemark>
<Placemark><name>madsterrrrr</name><description>I always forget I have a cat at home. She never comes out do its basically like she's nonexistent.
Tue, 22 Nov 2011 15:15:31 +0000</description><styleUrl>#hideLabel</styleUrl>
<Point><coordinates>-81.208900,32.136000,0</coordinates></Point></Placemark>
<Placemark><name>madsterrrrr</name><description>@Gardentstate when are you getting into Houston? HIMYM marathon? #slapsgiving.
Tue, 22 Nov 2011 15:14:14 +0000</description><styleUrl>#hideLabel</styleUrl>
<Point><coordinates>-81.208700,32.135800,0</coordinates></Point></Placemark>
<Placemark><name>MrMoneyBeard</name><description>I'm at Savannah Hilton Head International Airport (SAV) (400 Airways Ave, at Gulfstream Rd, Savannah) w/ 5 others http://t.co/6At15t1j
Tue, 22 Nov 2011 19:02:42 +0000</description><styleUrl>#hideLabel</styleUrl>
<Point><coordinates>-81.201944,32.127500,0</coordinates></Point></Placemark>
<Placemark><name>MarkLamb72</name><description>The Ridge.  http://t.co/MOIDtLGa
Tue, 22 Nov 2011 22:38:43 +0000</description><styleUrl>#hideLabel</styleUrl>
<Point><coordinates>-81.202200,32.137700,0</coordinates></Point></Placemark>
<Placemark><name>MarkLamb72</name><description>@llofte sometimes sh*t happens and then again some people are just sorry.
Tue, 22 Nov 2011 23:58:33 +0000</description><styleUrl>#hideLabel</styleUrl>
<Point><coordinates>-81.192900,32.134100,0</coordinates></Point></Placemark>
<Placemark><name>10HDs</name><description>2 tickets for Breaking Dawn and 2 kids popcorn packs! Let's Do This! Bring on the baby vampires!
Wed, 23 Nov 2011 00:19:19 +0000</description><styleUrl>#hideLabel</styleUrl>
<Point><coordinates>-81.200868,32.114145,0</coordinates></Point></Placemark>
<Placemark><name>madisonheim</name><description>Te whole HEIM family is together! Well everyone except the cats...
Wed, 23 Nov 2011 03:24:31 +0000</description><styleUrl>#hideLabel</styleUrl>
<Point><coordinates>-81.214200,32.127800,0</coordinates></Point></Placemark>
<Placemark><name>WalkTheDogMW</name><description>I'm at Savannah Hilton Head International Airport (SAV) (400 Airways Ave, at Gulfstream Rd, Savannah) w/ 4 others http://t.co/sIt05WBB
Wed, 23 Nov 2011 05:11:31 +0000</description><styleUrl>#hideLabel</styleUrl>
<Point><coordinates>-81.201944,32.127500,0</coordinates></Point></Placemark>
<Placemark><name>MarkLamb72</name><description>Makes me sick, how about you? http://t.co/uxwhmWjf
Wed, 23 Nov 2011 05:20:59 +0000</description><styleUrl>#hideLabel</styleUrl>
<Point><coordinates>-81.193000,32.134500,0</coordinates></Point></Placemark>
<Placemark><name>CailaB</name><description>Wow there are actually people here! SAV-&gt;ATL (@ Savannah Hilton Head International Airport (SAV)) http://t.co/ZumLWr8W
Wed, 23 Nov 2011 09:56:01 +0000</description><styleUrl>#hideLabel</styleUrl>
<Point><coordinates>-81.208700,32.135500,0</coordinates></Point></Placemark>
<Placemark><name>CailaB</name><description>Wow airport, kinda slow today. Took a whole 20 minutes to get through security. Also- got selected for &quot;special screening&quot;.
Wed, 23 Nov 2011 10:15:08 +0000</description><styleUrl>#hideLabel</styleUrl>
<Point><coordinates>-81.207700,32.135600,0</coordinates></Point></Placemark>
<Placemark><name>CailaB</name><description>This segment of Caila Goes to the Airport has been brought to you by lack of sleep and the letter zzzzz... #HappyHolidays
Wed, 23 Nov 2011 10:24:30 +0000</description><styleUrl>#hideLabel</styleUrl>
<Point><coordinates>-81.206400,32.135200,0</coordinates></Point></Placemark>
<Placemark><name>CailaB</name><description>Suck it airport travelers- I've got a fancy hat.
Wed, 23 Nov 2011 10:23:23 +0000</description><styleUrl>#hideLabel</styleUrl>
<Point><coordinates>-81.207100,32.135200,0</coordinates></Point></Placemark>
<Placemark><name>CailaB</name><description>And now apparently I'm &quot;that person&quot; who everyone hates because I held up Zone 4 boarding. For a plane that has 5 people on it. Geez.
Wed, 23 Nov 2011 10:22:03 +0000</description><styleUrl>#hideLabel</styleUrl>
<Point><coordinates>-81.208100,32.134800,0</coordinates></Point></Placemark>
<Placemark><name>CailaB</name><description>@yashrg hah crazy! At least in SAV you just have to go in the direction of the terminal.
Wed, 23 Nov 2011 10:28:58 +0000</description><styleUrl>#hideLabel</styleUrl>
<Point><coordinates>-81.210700,32.135700,0</coordinates></Point></Placemark>
<Placemark><name>CailaB</name><description>@yashrg It's honestly the first time I've been pulled aside- odd considering I've talked my way onto flights 3x.
Wed, 23 Nov 2011 10:25:30 +0000</description><styleUrl>#hideLabel</styleUrl>
<Point><coordinates>-81.206400,32.135200,0</coordinates></Point></Placemark>
<Placemark><name>CailaB</name><description>Flight Attendant &quot;I'm going to allow all the people with babies to spread out.&quot; Translation: &quot;All babies move near Caila.&quot;
Wed, 23 Nov 2011 10:31:12 +0000</description><styleUrl>#hideLabel</styleUrl>
<Point><coordinates>-81.206600,32.135100,0</coordinates></Point></Placemark>
<Placemark><name>lostoffworld</name><description>Morning #tweetfleet it's Friday! And I need MOARRRR coffee!!!
Wed, 23 Nov 2011 13:08:04 +0000</description><styleUrl>#hideLabel</styleUrl>
<Point><coordinates>-81.214300,32.127700,0</coordinates></Point></Placemark>
<Placemark><name>lostoffworld</name><description>@PaPaGarheade morning and #happyFriday to you =)
Wed, 23 Nov 2011 14:46:20 +0000</description><styleUrl>#hideLabel</styleUrl>
<Point><coordinates>-81.205000,32.122700,0</coordinates></Point></Placemark>
<Placemark><name>lostoffworld</name><description>@BuckyOhair Friday for me :)
Wed, 23 Nov 2011 14:45:19 +0000</description><styleUrl>#hideLabel</styleUrl>
<Point><coordinates>-81.214300,32.127700,0</coordinates></Point></Placemark>
<Placemark><name>lostoffworld</name><description>Why is the last work day before holiday always the longest??
Wed, 23 Nov 2011 17:13:14 +0000</description><styleUrl>#hideLabel</styleUrl>
<Point><coordinates>-81.203700,32.120500,0</coordinates></Point></Placemark>
<Placemark><name>d_shea</name><description>I'm at Savannah Hilton Head International Airport (SAV) (400 Airways Ave, at Gulfstream Rd, Savannah) w/ 5 others http://t.co/fADenIlU
Wed, 23 Nov 2011 18:10:38 +0000</description><styleUrl>#hideLabel</styleUrl>
<Point><coordinates>-81.201944,32.127500,0</coordinates></Point></Placemark>
<Placemark><name>10HDs</name><description>I hope Urban Meyer doesn't become the Head Coach at Ohio State, I'd really hate to be forced into disliking him but there's no other choice!
Wed, 23 Nov 2011 18:22:34 +0000</description><styleUrl>#hideLabel</styleUrl>
<Point><coordinates>-81.200868,32.114145,0</coordinates></Point></Placemark>
<Placemark><name>migmiamibeach</name><description>I'm at Savannah Hilton Head International Airport (SAV) (400 Airways Ave, at Gulfstream Rd, Savannah) w/ 6 others http://t.co/2i0ANDxD
Wed, 23 Nov 2011 18:24:05 +0000</description><styleUrl>#hideLabel</styleUrl>
<Point><coordinates>-81.201944,32.127500,0</coordinates></Point></Placemark>
<Placemark><name>lostoffworld</name><description>@adharkhorin maybe I should file a petition on that... #tweetfleet #eveonline #petitionmonkey
Wed, 23 Nov 2011 18:31:30 +0000</description><styleUrl>#hideLabel</styleUrl>
<Point><coordinates>-81.203800,32.119500,0</coordinates></Point></Placemark>
<Placemark><name>xchaosdawningx</name><description>People who insist on taking loudly throughout the entire flight are easily one of my top 10 pet peeves.
Wed, 23 Nov 2011 23:42:39 +0000</description><styleUrl>#hideLabel</styleUrl>
<Point><coordinates>-81.193900,32.136200,0</coordinates></Point></Placemark>
<Placemark><name>xchaosdawningx</name><description>Transportation-wise, this has been a remarkably smooth trip. (@ Savannah Hilton Head International Airport (SAV)) http://t.co/H0dzJLvD
Wed, 23 Nov 2011 23:40:16 +0000</description><styleUrl>#hideLabel</styleUrl>
<Point><coordinates>-81.208700,32.135500,0</coordinates></Point></Placemark>
<Placemark><name>cool_kidbuddy</name><description>Pixelated stockings
Wed, 23 Nov 2011 23:58:17 +0000</description><styleUrl>#hideLabel</styleUrl>
<Point><coordinates>-81.189800,32.138900,0</coordinates></Point></Placemark>
<Placemark><name>cool_kidbuddy</name><description>Im happy to c this girl tho maybe ill marry her not
Thu, 24 Nov 2011 00:17:57 +0000</description><styleUrl>#hideLabel</styleUrl>
<Point><coordinates>-81.215500,32.138000,0</coordinates></Point></Placemark>
<Placemark><name>cool_kidbuddy</name><description>Back in the sav tired as fuck oh yeah
Thu, 24 Nov 2011 00:17:04 +0000</description><styleUrl>#hideLabel</styleUrl>
<Point><coordinates>-81.214300,32.135700,0</coordinates></Point></Placemark>
<Placemark><name>matt86i</name><description>I ask for water, the flight attendant gives me the entire freaking bottle. Now that's what I call service @Delta  http://t.co/XLYRm7nc
Thu, 24 Nov 2011 17:29:11 +0000</description><styleUrl>#hideLabel</styleUrl>
<Point><coordinates>-81.205600,32.135500,0</coordinates></Point></Placemark>
<Placemark><name>toastpoint</name><description>Heading home after a week down south.
Fri, 25 Nov 2011 15:46:44 +0000</description><styleUrl>#hideLabel</styleUrl>
<Point><coordinates>-81.207400,32.135600,0</coordinates></Point></Placemark>
<Placemark><name>MurderSheSmoked</name><description>Age ain't nothing but a number and charge is always a thingg
Fri, 25 Nov 2011 18:26:00 +0000</description><styleUrl>#hideLabel</styleUrl>
<Point><coordinates>-81.184900,32.132500,0</coordinates></Point></Placemark>
<Placemark><name>elle_bee_are</name><description>Very sad to be leaving Savannah.  Everyone is so warm and nice, the city is lush &amp; beautiful, and the living, as they say, is easy...
Sat, 26 Nov 2011 14:21:50 +0000</description><styleUrl>#hideLabel</styleUrl>
<Point><coordinates>-81.184100,32.132600,0</coordinates></Point></Placemark>
<Placemark><name>FrozoneUSMC</name><description>I'm at Savannah Hilton Head International Airport (SAV) (400 Airways Ave, at Gulfstream Rd, Savannah) w/ 2 others http://t.co/t4WTlRcH
Sat, 26 Nov 2011 15:32:50 +0000</description><styleUrl>#hideLabel</styleUrl>
<Point><coordinates>-81.201944,32.127500,0</coordinates></Point></Placemark>
<Placemark><name>esashley</name><description>At dads office (@ Flight Safety International) http://t.co/eXT7rP2J
Sat, 26 Nov 2011 18:02:45 +0000</description><styleUrl>#hideLabel</styleUrl>
<Point><coordinates>-81.193400,32.132800,0</coordinates></Point></Placemark>
<Placemark><name>SweetAsCandy_89</name><description>I could really go for some garlic crabs tonight
Sat, 26 Nov 2011 18:05:21 +0000</description><styleUrl>#hideLabel</styleUrl>
<Point><coordinates>-81.213600,32.135700,0</coordinates></Point></Placemark>
<Placemark><name>JamaicanIdler</name><description>Jamaica here I come! (@ Savannah Hilton Head International Airport (SAV) w/ 5 others) http://t.co/U3D0z23P
Sat, 26 Nov 2011 18:42:26 +0000</description><styleUrl>#hideLabel</styleUrl>
<Point><coordinates>-81.208700,32.135500,0</coordinates></Point></Placemark>
<Placemark><name>ElizabethMitolo</name><description>Is 50 minutes enough time to change planes in Atlanta?!? I need longer legs. #airportproblems
Sat, 26 Nov 2011 19:47:24 +0000</description><styleUrl>#hideLabel</styleUrl>
<Point><coordinates>-81.206900,32.135300,0</coordinates></Point></Placemark>
<Placemark><name>SkyHighHustla</name><description>I'm at Savannah Hilton Head International Airport (SAV) (400 Airways Ave, at Gulfstream Rd, Savannah) w/ 6 others http://t.co/2udAMwec
Sat, 26 Nov 2011 22:19:55 +0000</description><styleUrl>#hideLabel</styleUrl>
<Point><coordinates>-81.201944,32.127500,0</coordinates></Point></Placemark>
<Placemark><name>WalkTheDogMW</name><description>I'm at Savannah Hilton Head International Airport (SAV) (400 Airways Ave, at Gulfstream Rd, Savannah) w/ 2 others http://t.co/CC1FV78G
Sun, 27 Nov 2011 14:48:31 +0000</description><styleUrl>#hideLabel</styleUrl>
<Point><coordinates>-81.201944,32.127500,0</coordinates></Point></Placemark>
<Placemark><name>madisonheim</name><description>Finally headed home :) had fun in Chicago and savannah and Hilton head but I'm ready to be back in good ol Arkansas.
Sun, 27 Nov 2011 16:32:19 +0000</description><styleUrl>#hideLabel</styleUrl>
<Point><coordinates>-81.208300,32.134800,0</coordinates></Point></Placemark>
<Placemark><name>Jess_Kin9</name><description>Pretty sure Ron Howard is on my flight - how else would a ginger get a first class seat?
Sun, 27 Nov 2011 20:19:54 +0000</description><styleUrl>#hideLabel</styleUrl>
<Point><coordinates>-81.208600,32.136100,0</coordinates></Point></Placemark>
<Placemark><name>digiruben</name><description>I'm at Savannah Hilton Head International Airport (SAV) (400 Airways Ave, at Gulfstream Rd, Savannah) w/ 7 others http://t.co/vxYDXjNq
Sun, 27 Nov 2011 21:45:38 +0000</description><styleUrl>#hideLabel</styleUrl>
<Point><coordinates>-81.201944,32.127500,0</coordinates></Point></Placemark>
<Placemark><name>maysom</name><description>Delayed- shocking. -__- (@ Savannah Hilton Head International Airport (SAV) w/ 6 others) http://t.co/Xapr4slz
Sun, 27 Nov 2011 23:45:30 +0000</description><styleUrl>#hideLabel</styleUrl>
<Point><coordinates>-81.208700,32.135500,0</coordinates></Point></Placemark>
<Placemark><name>bazoerika</name><description>2 hours flight and I couldn't shut up my mind
Mon, 28 Nov 2011 03:39:03 +0000</description><styleUrl>#hideLabel</styleUrl>
<Point><coordinates>-81.210100,32.135900,0</coordinates></Point></Placemark>
</Document></kml>