<?xml version="1.0" encoding="UTF-8"?><kml xmlns="http://www.opengis.net/kml/2.2"><Document>
<Style id="hideLabel"><LabelStyle><scale>0</scale></LabelStyle></Style>
<Placemark><name>mynameisjaim</name><description>Landed 5 mins ago, just realized we're still taxiing lol (@ Dallas/Fort Worth International Airport (DFW)) http://t.co/LmaGfJsw
Fri, 18 Nov 2011 16:31:34 +0000</description><styleUrl>#hideLabel</styleUrl>
<Point><coordinates>-97.040900,32.898000,0</coordinates></Point></Placemark>
<Placemark><name>smuadams</name><description>“@Jrbrownlow: Tpo” like the new pic.
Fri, 18 Nov 2011 16:36:18 +0000</description><styleUrl>#hideLabel</styleUrl>
<Point><coordinates>-97.036100,32.903900,0</coordinates></Point></Placemark>
<Placemark><name>robprentiss</name><description>Just a quick stop. (@ Dallas/Fort Worth International Airport (DFW) w/ 103 others) http://t.co/P707KKw9
Fri, 18 Nov 2011 16:39:23 +0000</description><styleUrl>#hideLabel</styleUrl>
<Point><coordinates>-97.040900,32.898000,0</coordinates></Point></Placemark>
<Placemark><name>thecjwetzler</name><description>Passenger: &quot;They never make the gates close.&quot; Yes, airlines invest tremendous effort ensuring departure gates are based on inconvenience.
Fri, 18 Nov 2011 16:41:24 +0000</description><styleUrl>#hideLabel</styleUrl>
<Point><coordinates>-97.035400,32.896900,0</coordinates></Point></Placemark>
<Placemark><name>thecjwetzler</name><description>Tweets should be funny or informative. This one is the latter.
Fri, 18 Nov 2011 16:42:49 +0000</description><styleUrl>#hideLabel</styleUrl>
<Point><coordinates>-97.036400,32.903200,0</coordinates></Point></Placemark>
<Placemark><name>deana_in_pink</name><description>I'm at Dallas/Fort Worth International Airport (DFW) (3200 E Airfield Dr., International Pkwy., Grapevine) http://t.co/Af0VkyIk
Fri, 18 Nov 2011 16:48:43 +0000</description><styleUrl>#hideLabel</styleUrl>
<Point><coordinates>-97.037500,32.896389,0</coordinates></Point></Placemark>
<Placemark><name>thecjwetzler</name><description>Senator Inhof is on my flight! I used to fuel his planes!
Fri, 18 Nov 2011 16:49:37 +0000</description><styleUrl>#hideLabel</styleUrl>
<Point><coordinates>-97.036400,32.903400,0</coordinates></Point></Placemark>
<Placemark><name>robprentiss</name><description>My flight's status: SCHEDULED. American Eagle 3248 from #DFW (11/18/11 12:10 PM CST) to #GRR (11/18/11 3:30 PM EST) http://t.co/AS9kfWpS
Fri, 18 Nov 2011 16:51:22 +0000</description><styleUrl>#hideLabel</styleUrl>
<Point><coordinates>-97.032100,32.906700,0</coordinates></Point></Placemark>
<Placemark><name>kwshingo</name><description>I'm at Dallas/Fort Worth International Airport (DFW) (3200 E Airfield Dr., International Pkwy., Grapevine) http://t.co/foJ5Keaa
Fri, 18 Nov 2011 16:55:43 +0000</description><styleUrl>#hideLabel</styleUrl>
<Point><coordinates>-97.037500,32.896389,0</coordinates></Point></Placemark>
<Placemark><name>ellisgl</name><description>Why would you put your web content filtering firewall outside of your offices? Wasted bandwidth...
Fri, 18 Nov 2011 16:56:36 +0000</description><styleUrl>#hideLabel</styleUrl>
<Point><coordinates>-97.029722,32.894444,0</coordinates></Point></Placemark>
<Placemark><name>ellisgl</name><description>Friday = Fry's Day
Fri, 18 Nov 2011 17:00:10 +0000</description><styleUrl>#hideLabel</styleUrl>
<Point><coordinates>-97.029722,32.894444,0</coordinates></Point></Placemark>
<Placemark><name>MindyLawhorne</name><description>&quot;&quot;&quot;How you think when you lose determines how long it will be until you win.&quot;&quot; -GK Chesterton  &quot;
Fri, 18 Nov 2011 17:01:43 +0000</description><styleUrl>#hideLabel</styleUrl>
<Point><coordinates>-97.037575,32.902538,0</coordinates></Point></Placemark>
<Placemark><name>PatrickVeg</name><description>I checked in at Dancing Avocado Kitchen (110 S Beach St) on #Yelp http://t.co/zWZbB0Cb
Fri, 18 Nov 2011 17:04:07 +0000</description><styleUrl>#hideLabel</styleUrl>
<Point><coordinates>-97.035317,32.897201,0</coordinates></Point></Placemark>
<Placemark><name>ellisgl</name><description>Anyone know how to get #MySQL with UTF8 unicode collation to treat &quot;ö&quot; as &quot;ö&quot; instead of &quot;o&quot;?
Fri, 18 Nov 2011 17:15:36 +0000</description><styleUrl>#hideLabel</styleUrl>
<Point><coordinates>-97.029722,32.894444,0</coordinates></Point></Placemark>
<Placemark><name>nicholasloftis</name><description>@blvd250 and I'm waiting on u to get at me.  #54Faker
Fri, 18 Nov 2011 17:18:24 +0000</description><styleUrl>#hideLabel</styleUrl>
<Point><coordinates>-97.046366,32.891489,0</coordinates></Point></Placemark>
<Placemark><name>bryanmishkin</name><description>I'm at Dallas/Fort Worth International Airport (DFW) (3200 E Airfield Dr., International Pkwy., Grapevine) http://t.co/Zmz0VHbv
Fri, 18 Nov 2011 17:18:42 +0000</description><styleUrl>#hideLabel</styleUrl>
<Point><coordinates>-97.037500,32.896389,0</coordinates></Point></Placemark>
<Placemark><name>mynameisjaim</name><description>This place is niiiiiice (@ Grand Hyatt DFW) http://t.co/Z7S3zHpG
Fri, 18 Nov 2011 17:24:11 +0000</description><styleUrl>#hideLabel</styleUrl>
<Point><coordinates>-97.044300,32.897600,0</coordinates></Point></Placemark>
<Placemark><name>miss_ek</name><description>Headed back to Denver for a quick trip to pick up our other car &amp; drive it to Texas tomorrow.
Fri, 18 Nov 2011 17:24:31 +0000</description><styleUrl>#hideLabel</styleUrl>
<Point><coordinates>-97.038400,32.893000,0</coordinates></Point></Placemark>
<Placemark><name>dorkbeme</name><description>&quot;@Kingsbu: Burt's just checkin the scale I PROMISE! http://t.co/jDlVKGDP&quot; @outerspoon - Thought you might enjoy this...
Fri, 18 Nov 2011 17:29:23 +0000</description><styleUrl>#hideLabel</styleUrl>
<Point><coordinates>-97.036106,32.904007,0</coordinates></Point></Placemark>
<Placemark><name>MySQLBot_en</name><description>RT @ellisgl: Anyone know how to get #MySQL with UTF8 unicode collation to treat &quot;ö&quot; as &quot;ö&quot; instead of &quot;o&quot;?
Fri, 18 Nov 2011 17:30:12 +0000</description><styleUrl>#hideLabel</styleUrl>
<Point><coordinates>-97.029722,32.894444,0</coordinates></Point></Placemark>
<Placemark><name>wildcatkelly22</name><description>RT @RehabTime: They're not &quot;hating&quot; on you because they hate you, they hate because they admire what you do! It's just their... http://t.co/wPZbkxkt
Fri, 18 Nov 2011 17:31:03 +0000</description><styleUrl>#hideLabel</styleUrl>
<Point><coordinates>-97.050210,32.898458,0</coordinates></Point></Placemark>
<Placemark><name>C_Bear</name><description>I've lost 4 followers :o LOL idgaf :D
Fri, 18 Nov 2011 17:36:16 +0000</description><styleUrl>#hideLabel</styleUrl>
<Point><coordinates>-97.031300,32.910900,0</coordinates></Point></Placemark>
<Placemark><name>franciscomf</name><description>Segundo intento. (@ Dallas/Fort Worth International Airport (DFW) w/ 99 others) http://t.co/yIfcx3Cn
Fri, 18 Nov 2011 17:44:11 +0000</description><styleUrl>#hideLabel</styleUrl>
<Point><coordinates>-97.040900,32.898000,0</coordinates></Point></Placemark>
<Placemark><name>jpnixon25</name><description>Wheels up to #Vegas!
Fri, 18 Nov 2011 17:45:50 +0000</description><styleUrl>#hideLabel</styleUrl>
<Point><coordinates>-97.036100,32.902500,0</coordinates></Point></Placemark>
<Placemark><name>SarahDalTron</name><description>Halfway layover and I ate all my plane snacks :-(
Fri, 18 Nov 2011 17:46:45 +0000</description><styleUrl>#hideLabel</styleUrl>
<Point><coordinates>-97.034300,32.899900,0</coordinates></Point></Placemark>
<Placemark><name>_kristinamarina</name><description>Soo blessed to have manageable hair and that I don't have to go to the shop every two weeks and I can just use a flat iron to straighten it
Fri, 18 Nov 2011 17:46:14 +0000</description><styleUrl>#hideLabel</styleUrl>
<Point><coordinates>-97.039545,32.904751,0</coordinates></Point></Placemark>
<Placemark><name>miss_ek</name><description>Denver bound... ✈ #DFW   @ Gate E5 http://t.co/AKvxphX2
Fri, 18 Nov 2011 17:48:30 +0000</description><styleUrl>#hideLabel</styleUrl>
<Point><coordinates>-97.038000,32.893300,0</coordinates></Point></Placemark>
<Placemark><name>_kristinamarina</name><description>I have butterflies in my stomach, I feel like something good is about to happen, I wonder what God has in store for me
Fri, 18 Nov 2011 17:49:10 +0000</description><styleUrl>#hideLabel</styleUrl>
<Point><coordinates>-97.039545,32.904751,0</coordinates></Point></Placemark>
<Placemark><name>jtgixxer</name><description>Here to welcome home the troops! (@ Dallas/Fort Worth International Airport (DFW) w/ 95 others) http://t.co/6wGkeAc3
Fri, 18 Nov 2011 17:53:06 +0000</description><styleUrl>#hideLabel</styleUrl>
<Point><coordinates>-97.040900,32.898000,0</coordinates></Point></Placemark>
<Placemark><name>JaviFuentes</name><description>@YummyAwesome hey! Thanks, you too! @common_table
Fri, 18 Nov 2011 17:52:58 +0000</description><styleUrl>#hideLabel</styleUrl>
<Point><coordinates>-97.039111,32.893901,0</coordinates></Point></Placemark>
<Placemark><name>AlexLewy</name><description>#DFW has one #Starbucks for every couple gates. I like them but I can't stop at every one.
Fri, 18 Nov 2011 17:58:28 +0000</description><styleUrl>#hideLabel</styleUrl>
<Point><coordinates>-97.036100,32.896300,0</coordinates></Point></Placemark>
<Placemark><name>DrPhil_DC</name><description>I'm at Dallas/Fort Worth International Airport (DFW) (3200 E Airfield Dr., International Pkwy., Grapevine) http://t.co/nHiylqo7
Fri, 18 Nov 2011 18:04:49 +0000</description><styleUrl>#hideLabel</styleUrl>
<Point><coordinates>-97.037500,32.896389,0</coordinates></Point></Placemark>
<Placemark><name>MindyLawhorne</name><description>12/4 Turbo Kick Instructor Training in OH: http://t.co/VLZ8wsdK
Fri, 18 Nov 2011 18:01:12 +0000</description><styleUrl>#hideLabel</styleUrl>
<Point><coordinates>-97.037575,32.902538,0</coordinates></Point></Placemark>
<Placemark><name>FlyAArmy</name><description>Home!....Nap!...In that order.... (@ Dallas/Fort Worth International Airport (DFW) w/ @jonathontx) http://t.co/0a19wwbc
Fri, 18 Nov 2011 18:14:08 +0000</description><styleUrl>#hideLabel</styleUrl>
<Point><coordinates>-97.040900,32.898000,0</coordinates></Point></Placemark>
<Placemark><name>COFlyerCLE</name><description>@mattnevans I trust you will put that Christmas Ale to good use tonight, my friend!
Fri, 18 Nov 2011 18:14:42 +0000</description><styleUrl>#hideLabel</styleUrl>
<Point><coordinates>-97.037285,32.893169,0</coordinates></Point></Placemark>
<Placemark><name>JaviFuentes</name><description>@thirdeye11awesome! Thank yoy @dallasbeerweek @planocraftbeer @craftbeerusa
Fri, 18 Nov 2011 18:17:12 +0000</description><styleUrl>#hideLabel</styleUrl>
<Point><coordinates>-97.039111,32.893901,0</coordinates></Point></Placemark>
<Placemark><name>JaviFuentes</name><description>You know it's bad when @MelBlocko gives you grief for bailing. #justrememberedthatconversation
Fri, 18 Nov 2011 18:21:07 +0000</description><styleUrl>#hideLabel</styleUrl>
<Point><coordinates>-97.039111,32.893901,0</coordinates></Point></Placemark>
<Placemark><name>JaviFuentes</name><description>Oh yea I forgot I bought Radiohead tix.
Fri, 18 Nov 2011 18:23:05 +0000</description><styleUrl>#hideLabel</styleUrl>
<Point><coordinates>-97.039111,32.893901,0</coordinates></Point></Placemark>
<Placemark><name>MindyLawhorne</name><description>Angie!  Oh, I so hope to see you!! RT @AngieStrader: @MindyLawhorne Hey Beautiful! I'll be at @DallasMargSoc Ball too. Hope to see you :-)
Fri, 18 Nov 2011 18:25:58 +0000</description><styleUrl>#hideLabel</styleUrl>
<Point><coordinates>-97.037575,32.902538,0</coordinates></Point></Placemark>
<Placemark><name>krissikes</name><description>@julianahatfield I think I know someone with a bald ego
Fri, 18 Nov 2011 18:25:46 +0000</description><styleUrl>#hideLabel</styleUrl>
<Point><coordinates>-97.037444,32.903960,0</coordinates></Point></Placemark>
<Placemark><name>MindyLawhorne</name><description>Of course!  RT @mbush2006: Did a PowerPoint for my business class on becoming an APD @powderblue11@chalenejohnson brownie points? :)
Fri, 18 Nov 2011 18:26:58 +0000</description><styleUrl>#hideLabel</styleUrl>
<Point><coordinates>-97.037575,32.902538,0</coordinates></Point></Placemark>
<Placemark><name>_kristinamarina</name><description>I already feel like my birthday isn't gonna turn out the I want it to -__-
Fri, 18 Nov 2011 18:28:44 +0000</description><styleUrl>#hideLabel</styleUrl>
<Point><coordinates>-97.039545,32.904751,0</coordinates></Point></Placemark>
<Placemark><name>MindyLawhorne</name><description>RT @LizzySulli: @chalenejohnson @powderblue11 You guys are the best!!! Thanks so much for all u do :-) so excited to get my new best of's!!!
Fri, 18 Nov 2011 18:28:03 +0000</description><styleUrl>#hideLabel</styleUrl>
<Point><coordinates>-97.037575,32.902538,0</coordinates></Point></Placemark>
<Placemark><name>JaviFuentes</name><description>If I find TFP toys, who wants in on them? Cost+shipping!
Fri, 18 Nov 2011 18:32:17 +0000</description><styleUrl>#hideLabel</styleUrl>
<Point><coordinates>-97.039111,32.893901,0</coordinates></Point></Placemark>
<Placemark><name>JaviFuentes</name><description>@NurseMidnight sounds good.
Fri, 18 Nov 2011 18:38:49 +0000</description><styleUrl>#hideLabel</styleUrl>
<Point><coordinates>-97.039111,32.893901,0</coordinates></Point></Placemark>
<Placemark><name>ShoeSeph</name><description>Peace out Dallas/Southlake! (@ Dallas/Fort Worth International Airport (DFW) w/ 78 others) http://t.co/TJTFnKBK
Fri, 18 Nov 2011 18:42:49 +0000</description><styleUrl>#hideLabel</styleUrl>
<Point><coordinates>-97.040900,32.898000,0</coordinates></Point></Placemark>
<Placemark><name>marialambert</name><description>Thanks to everyone who came out to my 2nd TEACH at @gsbstanford on the basics of photography http://t.co/ezr3psHH
Fri, 18 Nov 2011 18:44:09 +0000</description><styleUrl>#hideLabel</styleUrl>
<Point><coordinates>-97.043000,32.903600,0</coordinates></Point></Placemark>
<Placemark><name>TXinCharlotte</name><description>I'm at Dallas/Fort Worth International Airport (DFW) (3200 E Airfield Dr., International Pkwy., Grapevine) http://t.co/b9rPQsUa
Fri, 18 Nov 2011 18:45:31 +0000</description><styleUrl>#hideLabel</styleUrl>
<Point><coordinates>-97.037500,32.896389,0</coordinates></Point></Placemark>
<Placemark><name>sladoo21</name><description>Goodbye dallas, i never really knew you but its been fun (@ Dallas/Fort Worth International Airport (DFW)) http://t.co/EG9keb7f
Fri, 18 Nov 2011 18:45:24 +0000</description><styleUrl>#hideLabel</styleUrl>
<Point><coordinates>-97.040900,32.898000,0</coordinates></Point></Placemark>
<Placemark><name>GSBeats</name><description>Clearly jeopardy needs some GSBeatsters on the show RT @stereogum: Foster The People stump Jeopardy contestants http://t.co/4la2Uaz7
Fri, 18 Nov 2011 18:49:22 +0000</description><styleUrl>#hideLabel</styleUrl>
<Point><coordinates>-97.045000,32.903900,0</coordinates></Point></Placemark>
<Placemark><name>marialambert</name><description>@resnicow @stanford_biz personally, I'm more curious to learn who runs @fakesaloner
Fri, 18 Nov 2011 18:51:56 +0000</description><styleUrl>#hideLabel</styleUrl>
<Point><coordinates>-97.045000,32.903900,0</coordinates></Point></Placemark>
<Placemark><name>MindyLawhorne</name><description>...we know that suffering produces perseverance...
Fri, 18 Nov 2011 19:02:10 +0000</description><styleUrl>#hideLabel</styleUrl>
<Point><coordinates>-97.037575,32.902538,0</coordinates></Point></Placemark>
<Placemark><name>samsimon</name><description>Rushing to d40 (@ Skylink) http://t.co/263pjVuT
Fri, 18 Nov 2011 19:02:56 +0000</description><styleUrl>#hideLabel</styleUrl>
<Point><coordinates>-97.044200,32.906600,0</coordinates></Point></Placemark>
<Placemark><name>juliarossen</name><description>Walking thru Gaylord. http://t.co/K7SVX4RM
Fri, 18 Nov 2011 19:04:42 +0000</description><styleUrl>#hideLabel</styleUrl>
<Point><coordinates>-97.039383,32.913269,0</coordinates></Point></Placemark>
<Placemark><name>marialambert</name><description>@resnicow @stanford_biz @fakesaloner if you have any leads on who managed it, would imagine @ilyaabyzov could do a hilarious takeover
Fri, 18 Nov 2011 19:05:52 +0000</description><styleUrl>#hideLabel</styleUrl>
<Point><coordinates>-97.045000,32.903600,0</coordinates></Point></Placemark>
<Placemark><name>A_TRAIN54</name><description>San Francisco, oh how I've missed thee!
Fri, 18 Nov 2011 19:05:15 +0000</description><styleUrl>#hideLabel</styleUrl>
<Point><coordinates>-97.036300,32.894400,0</coordinates></Point></Placemark>
<Placemark><name>FlyAArmy</name><description>I'm at Dallas/Fort Worth International Airport (DFW) (3200 E Airfield Dr., International Pkwy., Grapevine) http://t.co/XO28idEH
Fri, 18 Nov 2011 19:08:58 +0000</description><styleUrl>#hideLabel</styleUrl>
<Point><coordinates>-97.037500,32.896389,0</coordinates></Point></Placemark>
<Placemark><name>JaviFuentes</name><description>Quick @UberGuber ! Gimme some non-Wilco music recommendations
Fri, 18 Nov 2011 19:11:22 +0000</description><styleUrl>#hideLabel</styleUrl>
<Point><coordinates>-97.039111,32.893901,0</coordinates></Point></Placemark>
<Placemark><name>JaviFuentes</name><description>@ryangallagher I've heard about those, what's the big deal about them?
Fri, 18 Nov 2011 19:12:31 +0000</description><styleUrl>#hideLabel</styleUrl>
<Point><coordinates>-97.039111,32.893901,0</coordinates></Point></Placemark>
<Placemark><name>thisisumair</name><description>Back here again. (@ Dallas/Fort Worth International Airport (DFW) w/ 86 others) http://t.co/ZJDaVsfZ
Fri, 18 Nov 2011 19:17:52 +0000</description><styleUrl>#hideLabel</styleUrl>
<Point><coordinates>-97.040900,32.898000,0</coordinates></Point></Placemark>
<Placemark><name>samsimon</name><description>We made it!   On the plane to Austin.   Every perfect. Just do NOT ask Susan about her drivers license . http://t.co/LDIcvcQG
Fri, 18 Nov 2011 19:23:40 +0000</description><styleUrl>#hideLabel</styleUrl>
<Point><coordinates>-97.040900,32.898000,0</coordinates></Point></Placemark>
<Placemark><name>LeslieRichin</name><description>I'm at Dallas/Fort Worth International Airport (DFW) (3200 E Airfield Dr., International Pkwy., Grapevine) http://t.co/g3W0mAcd
Fri, 18 Nov 2011 19:28:11 +0000</description><styleUrl>#hideLabel</styleUrl>
<Point><coordinates>-97.037500,32.896389,0</coordinates></Point></Placemark>
<Placemark><name>quakerstaten8iv</name><description>I'm at Dallas/Fort Worth International Airport (DFW) (3200 E Airfield Dr., International Pkwy., Grapevine) http://t.co/TwV5AEIN
Fri, 18 Nov 2011 19:29:56 +0000</description><styleUrl>#hideLabel</styleUrl>
<Point><coordinates>-97.037500,32.896389,0</coordinates></Point></Placemark>
<Placemark><name>vandybobandy</name><description>I'm at Dallas/Fort Worth International Airport (DFW) (3200 E Airfield Dr., International Pkwy., Grapevine) http://t.co/vG1NGes8
Fri, 18 Nov 2011 19:34:53 +0000</description><styleUrl>#hideLabel</styleUrl>
<Point><coordinates>-97.037500,32.896389,0</coordinates></Point></Placemark>
<Placemark><name>OscarYnz</name><description>Woohoo!! Weekend! (@ Dallas/Fort Worth International Airport (DFW) w/ 101 others) http://t.co/c7fJBIG1
Fri, 18 Nov 2011 19:44:29 +0000</description><styleUrl>#hideLabel</styleUrl>
<Point><coordinates>-97.040900,32.898000,0</coordinates></Point></Placemark>
<Placemark><name>VivreSaVie117</name><description>I'm at Dallas/Fort Worth International Airport (DFW) (3200 E Airfield Dr., International Pkwy., Grapevine) http://t.co/4klcSDko
Fri, 18 Nov 2011 19:48:35 +0000</description><styleUrl>#hideLabel</styleUrl>
<Point><coordinates>-97.037500,32.896389,0</coordinates></Point></Placemark>
<Placemark><name>robfult</name><description>Leg 1 of 2 (Checked in at Minneapolis Intl Airport-Msp) http://t.co/FbzoB1Cs
Fri, 18 Nov 2011 19:50:55 +0000</description><styleUrl>#hideLabel</styleUrl>
<Point><coordinates>-97.040939,32.887581,0</coordinates></Point></Placemark>
<Placemark><name>MindyLawhorne</name><description>If you want to lose weight, you must work on your diet! Just working out won't cut it.
Fri, 18 Nov 2011 20:01:29 +0000</description><styleUrl>#hideLabel</styleUrl>
<Point><coordinates>-97.037575,32.902538,0</coordinates></Point></Placemark>
<Placemark><name>MouyyadA</name><description>Yup I was &quot;randomly selected&quot; (@ Dallas/Fort Worth International Airport (DFW) w/ 114 others) http://t.co/FZQqFtji
Fri, 18 Nov 2011 20:07:07 +0000</description><styleUrl>#hideLabel</styleUrl>
<Point><coordinates>-97.040900,32.898000,0</coordinates></Point></Placemark>
<Placemark><name>elbert_madkins</name><description>I'm at Dallas/Fort Worth International Airport (DFW) (3200 E Airfield Dr., International Pkwy., Grapevine) http://t.co/8nFiqiVt
Fri, 18 Nov 2011 20:06:59 +0000</description><styleUrl>#hideLabel</styleUrl>
<Point><coordinates>-97.037500,32.896389,0</coordinates></Point></Placemark>
<Placemark><name>JaviFuentes</name><description>@zombeaner RE: TUCKER AND DALE, if it wasn't in the middle of Dallas Beer Week, I'd be down. Apparently we live close to each other.
Fri, 18 Nov 2011 20:13:02 +0000</description><styleUrl>#hideLabel</styleUrl>
<Point><coordinates>-97.039111,32.893901,0</coordinates></Point></Placemark>
<Placemark><name>_kristinamarina</name><description>you 21 ? mhm you just right (;
Fri, 18 Nov 2011 20:14:10 +0000</description><styleUrl>#hideLabel</styleUrl>
<Point><coordinates>-97.039545,32.904751,0</coordinates></Point></Placemark>
<Placemark><name>JourneyofAction</name><description>Headed to Mexico to make a film about La Marced! cc: @arkWonka @barbararredondo http://t.co/dqoROArW
Fri, 18 Nov 2011 20:15:22 +0000</description><styleUrl>#hideLabel</styleUrl>
<Point><coordinates>-97.040900,32.898000,0</coordinates></Point></Placemark>
<Placemark><name>AliNichols</name><description>I'm at Dallas/Fort Worth International Airport (DFW) (3200 E Airfield Dr., International Pkwy., Grapevine) http://t.co/GChM40C5
Fri, 18 Nov 2011 20:17:50 +0000</description><styleUrl>#hideLabel</styleUrl>
<Point><coordinates>-97.037500,32.896389,0</coordinates></Point></Placemark>
<Placemark><name>ellisgl</name><description>@nrocy Doing an import from 5.1 to 5.5... Make no sense that it worked fine in 5.1 with utf8_general.
Fri, 18 Nov 2011 20:21:12 +0000</description><styleUrl>#hideLabel</styleUrl>
<Point><coordinates>-97.029722,32.894444,0</coordinates></Point></Placemark>
<Placemark><name>_kristinamarina</name><description>Is watching porn a sin ?
Fri, 18 Nov 2011 20:32:13 +0000</description><styleUrl>#hideLabel</styleUrl>
<Point><coordinates>-97.039545,32.904751,0</coordinates></Point></Placemark>
<Placemark><name>stavag</name><description>I'm at Dallas/Fort Worth International Airport (DFW) (3200 E Airfield Dr., International Pkwy., Grapevine) http://t.co/t0tQhBDX
Fri, 18 Nov 2011 20:33:22 +0000</description><styleUrl>#hideLabel</styleUrl>
<Point><coordinates>-97.037500,32.896389,0</coordinates></Point></Placemark>
<Placemark><name>Yeraze</name><description>I'm at Dallas/Fort Worth International Airport (DFW) (3200 E Airfield Dr., International Pkwy., Grapevine) http://t.co/auPQUi0O
Fri, 18 Nov 2011 20:34:53 +0000</description><styleUrl>#hideLabel</styleUrl>
<Point><coordinates>-97.037500,32.896389,0</coordinates></Point></Placemark>
<Placemark><name>bmuller4013</name><description>I'm at Dallas/Fort Worth International Airport (DFW) (3200 E Airfield Dr., International Pkwy., Grapevine) http://t.co/11txjfDD
Fri, 18 Nov 2011 20:39:45 +0000</description><styleUrl>#hideLabel</styleUrl>
<Point><coordinates>-97.037500,32.896389,0</coordinates></Point></Placemark>
<Placemark><name>hillypill</name><description>I'm at Dallas/Fort Worth International Airport (DFW) (3200 E Airfield Dr., International Pkwy., Grapevine) http://t.co/4BHnpkNF
Fri, 18 Nov 2011 20:41:22 +0000</description><styleUrl>#hideLabel</styleUrl>
<Point><coordinates>-97.037500,32.896389,0</coordinates></Point></Placemark>
<Placemark><name>joemfbrown</name><description>I think I'd rather walk from Dallas to NYC than fly @usairways again. Are you guys even trying?
Fri, 18 Nov 2011 20:47:18 +0000</description><styleUrl>#hideLabel</styleUrl>
<Point><coordinates>-97.038400,32.887600,0</coordinates></Point></Placemark>
<Placemark><name>ellisgl</name><description>I miss read a post, thinking it said Oracle rumored to be developing a cell phone.. oi..
Fri, 18 Nov 2011 20:49:58 +0000</description><styleUrl>#hideLabel</styleUrl>
<Point><coordinates>-97.029722,32.894444,0</coordinates></Point></Placemark>
<Placemark><name>Sluggoaafa</name><description>Love that we don't have to clear customs!!! AND, this is our aircraft to SJO #crewlife (@ Gate D33) http://t.co/BFCfTZWa
Fri, 18 Nov 2011 20:51:10 +0000</description><styleUrl>#hideLabel</styleUrl>
<Point><coordinates>-97.044300,32.899600,0</coordinates></Point></Placemark>
<Placemark><name>PatrickVeg</name><description>fried chicken strips and french fries isn't a meal - it's an indulgence.  And too many indulgences - makes you a congressperson.
Fri, 18 Nov 2011 20:59:13 +0000</description><styleUrl>#hideLabel</styleUrl>
<Point><coordinates>-97.035317,32.897201,0</coordinates></Point></Placemark>
<Placemark><name>MindyLawhorne</name><description>A kind heart is a fountain of gladness, changing everything in its vicinity into smiles.
Fri, 18 Nov 2011 21:01:56 +0000</description><styleUrl>#hideLabel</styleUrl>
<Point><coordinates>-97.037575,32.902538,0</coordinates></Point></Placemark>
<Placemark><name>swaglipple</name><description>If Dallas is the Triple D, shouldn't the airport code be DDD? Food for thought. http://t.co/wL0DJtFf
Fri, 18 Nov 2011 21:05:31 +0000</description><styleUrl>#hideLabel</styleUrl>
<Point><coordinates>-97.040900,32.898000,0</coordinates></Point></Placemark>
<Placemark><name>jillmcfarland</name><description>I'm at Dallas/Fort Worth International Airport (DFW) (3200 E Airfield Dr., International Pkwy., Grapevine) http://t.co/BiRw36SD
Fri, 18 Nov 2011 21:14:41 +0000</description><styleUrl>#hideLabel</styleUrl>
<Point><coordinates>-97.037500,32.896389,0</coordinates></Point></Placemark>
<Placemark><name>drewbreezy2</name><description>@craigwendel05 T-Minus 2 Hours until touchdown in the CC... Then it's ragin w the PIC and all the other CC #hoodrats!
Fri, 18 Nov 2011 21:17:35 +0000</description><styleUrl>#hideLabel</styleUrl>
<Point><coordinates>-97.043700,32.896300,0</coordinates></Point></Placemark>
<Placemark><name>dorkbeme</name><description>&quot;@arielhelwani: Snap. RT @ufc Wanderlei has a secret weapon for Saturday http://t.co/pVIYCrqH&quot; - Thank god, I thought it was Segal again...
Fri, 18 Nov 2011 21:18:48 +0000</description><styleUrl>#hideLabel</styleUrl>
<Point><coordinates>-97.036106,32.904007,0</coordinates></Point></Placemark>
<Placemark><name>ellisgl</name><description>@nrocy new server is all UTF8_Unicode_CI - SQL Mode not set.
Fri, 18 Nov 2011 21:25:02 +0000</description><styleUrl>#hideLabel</styleUrl>
<Point><coordinates>-97.029722,32.894444,0</coordinates></Point></Placemark>
<Placemark><name>TerryTheBrand</name><description>I'm at Dallas/Fort Worth International Airport (DFW) (3200 E Airfield Dr., International Pkwy., Grapevine) http://t.co/1Lq0KFEn
Fri, 18 Nov 2011 21:41:06 +0000</description><styleUrl>#hideLabel</styleUrl>
<Point><coordinates>-97.037500,32.896389,0</coordinates></Point></Placemark>
<Placemark><name>_kristinamarina</name><description>You have a pic with a different girl every week, what makes you think I would wanna fuck with you ?
Fri, 18 Nov 2011 21:55:48 +0000</description><styleUrl>#hideLabel</styleUrl>
<Point><coordinates>-97.039545,32.904751,0</coordinates></Point></Placemark>
<Placemark><name>_kristinamarina</name><description>need a bitch that can fuck, cook, clean right
Fri, 18 Nov 2011 21:59:13 +0000</description><styleUrl>#hideLabel</styleUrl>
<Point><coordinates>-97.039545,32.904751,0</coordinates></Point></Placemark>
<Placemark><name>_kristinamarina</name><description>if you can date a dancer and actually keep up with her and her busy schedule, I give you mad props
Fri, 18 Nov 2011 22:00:00 +0000</description><styleUrl>#hideLabel</styleUrl>
<Point><coordinates>-97.039545,32.904751,0</coordinates></Point></Placemark>
<Placemark><name>azewde</name><description>I'm at Dallas/Fort Worth International Airport (DFW) (3200 E Airfield Dr., International Pkwy., Grapevine) http://t.co/GT0TNBVN
Fri, 18 Nov 2011 21:59:43 +0000</description><styleUrl>#hideLabel</styleUrl>
<Point><coordinates>-97.037500,32.896389,0</coordinates></Point></Placemark>
<Placemark><name>MindyLawhorne</name><description>What could you say, do, or text right now that would totally make your partner feel special? Do it!
Fri, 18 Nov 2011 22:01:30 +0000</description><styleUrl>#hideLabel</styleUrl>
<Point><coordinates>-97.037575,32.902538,0</coordinates></Point></Placemark>
<Placemark><name>_kristinamarina</name><description>The step show has been relocated to the Spartan Complex Gym !!!!
Fri, 18 Nov 2011 22:04:43 +0000</description><styleUrl>#hideLabel</styleUrl>
<Point><coordinates>-97.039545,32.904751,0</coordinates></Point></Placemark>
<Placemark><name>1toddlewis</name><description>Played &quot;Belfort&quot; with LadyS, housesl, dturnerfish, and abouffard. #bggcon
Fri, 18 Nov 2011 22:04:10 +0000</description><styleUrl>#hideLabel</styleUrl>
<Point><coordinates>-97.035938,32.911683,0</coordinates></Point></Placemark>
<Placemark><name>accarrino</name><description>Sorry #Cincinnati @delta upgraded us to a direct flight from #dallas to #nyc... on @americanair!? /cc @LeslieRichin http://t.co/1q99PFyA
Fri, 18 Nov 2011 22:06:20 +0000</description><styleUrl>#hideLabel</styleUrl>
<Point><coordinates>-97.037100,32.899600,0</coordinates></Point></Placemark>
<Placemark><name>ellisgl</name><description>Where the #Minecraft 1.0 change log?
Fri, 18 Nov 2011 22:06:11 +0000</description><styleUrl>#hideLabel</styleUrl>
<Point><coordinates>-97.029722,32.894444,0</coordinates></Point></Placemark>
<Placemark><name>_kristinamarina</name><description>Werkkk Deborah ! RT @KylieKardash: Shout out to Ms. Allen for being on The Wendy Williams Show today!
Fri, 18 Nov 2011 22:05:47 +0000</description><styleUrl>#hideLabel</styleUrl>
<Point><coordinates>-97.039545,32.904751,0</coordinates></Point></Placemark>
<Placemark><name>jefcon1</name><description>Heading home... (@ Dallas/Fort Worth International Airport (DFW) w/ 126 others) http://t.co/cdk71r95
Fri, 18 Nov 2011 22:10:55 +0000</description><styleUrl>#hideLabel</styleUrl>
<Point><coordinates>-97.040900,32.898000,0</coordinates></Point></Placemark>
<Placemark><name>BrendaBomgarden</name><description>RT @MindyLawhorne: What could you say, do, or text right now that would totally make your partner feel special? Do it!
Fri, 18 Nov 2011 22:13:17 +0000</description><styleUrl>#hideLabel</styleUrl>
<Point><coordinates>-97.037575,32.902538,0</coordinates></Point></Placemark>
<Placemark><name>_kristinamarina</name><description>Aim Me just came on in my itunes and I IMMEDIATELY thought about @KylieKardash LMAO
Fri, 18 Nov 2011 22:13:12 +0000</description><styleUrl>#hideLabel</styleUrl>
<Point><coordinates>-97.039545,32.904751,0</coordinates></Point></Placemark>
<Placemark><name>_kristinamarina</name><description>Aim really used to be the thing to do, if you were talking to someone and they didn't aim you that night.. shit would get real lol
Fri, 18 Nov 2011 22:14:12 +0000</description><styleUrl>#hideLabel</styleUrl>
<Point><coordinates>-97.039545,32.904751,0</coordinates></Point></Placemark>
<Placemark><name>_kristinamarina</name><description>and people used to trip when they used to asked for your aim before your name ahaa
Fri, 18 Nov 2011 22:14:27 +0000</description><styleUrl>#hideLabel</styleUrl>
<Point><coordinates>-97.039545,32.904751,0</coordinates></Point></Placemark>
<Placemark><name>SpartanFan001</name><description>I'm at Dallas/Fort Worth International Airport (DFW) (3200 E Airfield Dr., International Pkwy., Grapevine) http://t.co/87z9jdHH
Fri, 18 Nov 2011 22:20:15 +0000</description><styleUrl>#hideLabel</styleUrl>
<Point><coordinates>-97.037500,32.896389,0</coordinates></Point></Placemark>
<Placemark><name>Maverick1914</name><description>I'm at Dallas/Fort Worth International Airport (DFW) (3200 E Airfield Dr., International Pkwy., Grapevine) http://t.co/DWPnGkAV
Fri, 18 Nov 2011 22:24:06 +0000</description><styleUrl>#hideLabel</styleUrl>
<Point><coordinates>-97.037500,32.896389,0</coordinates></Point></Placemark>
<Placemark><name>DH8PU</name><description>I'm at Dallas/Fort Worth International Airport (DFW) (3200 E Airfield Dr., International Pkwy., Grapevine) http://t.co/6y3Cu7pb
Fri, 18 Nov 2011 22:23:55 +0000</description><styleUrl>#hideLabel</styleUrl>
<Point><coordinates>-97.037500,32.896389,0</coordinates></Point></Placemark>
<Placemark><name>atmitch</name><description>I'm at Dallas/Fort Worth International Airport (DFW) (3200 E Airfield Dr., International Pkwy., Grapevine) http://t.co/XkX7w3yG
Fri, 18 Nov 2011 22:28:56 +0000</description><styleUrl>#hideLabel</styleUrl>
<Point><coordinates>-97.037500,32.896389,0</coordinates></Point></Placemark>
<Placemark><name>accarrino</name><description>What if this @americanair sign really said CAUTION TANGO DANCERS? /cc @leslierichin  @ DFW Gate C11 http://t.co/JnsGY3Jh
Fri, 18 Nov 2011 22:32:29 +0000</description><styleUrl>#hideLabel</styleUrl>
<Point><coordinates>-97.036400,32.899700,0</coordinates></Point></Placemark>
<Placemark><name>jefcon1</name><description>A well-deserved @MakersMark (if I do say so myself) (@ T.G.I. Friday's) http://t.co/l0q7v19B
Fri, 18 Nov 2011 22:33:19 +0000</description><styleUrl>#hideLabel</styleUrl>
<Point><coordinates>-97.037200,32.899700,0</coordinates></Point></Placemark>
<Placemark><name>JaviFuentes</name><description>Actual sentence on a @CNN article &quot;Paterno, 84, the winningest football coach...&quot; http://t.co/jwO8nkw2
Fri, 18 Nov 2011 22:35:14 +0000</description><styleUrl>#hideLabel</styleUrl>
<Point><coordinates>-97.039111,32.893901,0</coordinates></Point></Placemark>
<Placemark><name>Lancelot_H</name><description>British Airways and American Airlines have combined executive clubs at Philly Airport.  Sign of merger to come?
Fri, 18 Nov 2011 22:49:33 +0000</description><styleUrl>#hideLabel</styleUrl>
<Point><coordinates>-97.039108,32.907867,0</coordinates></Point></Placemark>
<Placemark><name>bobbymetzinger</name><description>DFW-ORD (@ Dallas/Fort Worth International Airport (DFW) w/ @jillmcfarland) http://t.co/94cceYJT
Fri, 18 Nov 2011 22:50:24 +0000</description><styleUrl>#hideLabel</styleUrl>
<Point><coordinates>-97.040900,32.898000,0</coordinates></Point></Placemark>
<Placemark><name>MaxKalifornia</name><description>Out of left field my brain just put the thought of a bowl of rice with unagi and avocado on top. #fb
Fri, 18 Nov 2011 22:51:46 +0000</description><styleUrl>#hideLabel</styleUrl>
<Point><coordinates>-97.044074,32.895922,0</coordinates></Point></Placemark>
<Placemark><name>_kristinamarina</name><description>It's been moved back to the quad, smh it's windy as hell
Fri, 18 Nov 2011 22:53:44 +0000</description><styleUrl>#hideLabel</styleUrl>
<Point><coordinates>-97.039545,32.904751,0</coordinates></Point></Placemark>
<Placemark><name>MindyLawhorne</name><description>&quot;Happiness is not a station you arrive at, but a manner of traveling. &quot; ...Your attitude changes everything!
Fri, 18 Nov 2011 23:01:47 +0000</description><styleUrl>#hideLabel</styleUrl>
<Point><coordinates>-97.037575,32.902538,0</coordinates></Point></Placemark>
<Placemark><name>JaviFuentes</name><description>I've had 3 clients call in that sounded like Tree Trunks and I could not stop wanting to laugh.
Fri, 18 Nov 2011 23:01:21 +0000</description><styleUrl>#hideLabel</styleUrl>
<Point><coordinates>-97.039111,32.893901,0</coordinates></Point></Placemark>
<Placemark><name>robfult</name><description>Home! (Checked in at Charlotte Airport, North Carolinat) http://t.co/uqG07nFh
Fri, 18 Nov 2011 23:03:57 +0000</description><styleUrl>#hideLabel</styleUrl>
<Point><coordinates>-97.040939,32.887581,0</coordinates></Point></Placemark>
<Placemark><name>crasis</name><description>RT @JaviFuentes: I've had 3 clients call in that sounded like Tree Trunks and I could not stop wanting to laugh.
Fri, 18 Nov 2011 23:04:31 +0000</description><styleUrl>#hideLabel</styleUrl>
<Point><coordinates>-97.039111,32.893901,0</coordinates></Point></Placemark>
<Placemark><name>Qhamal</name><description>1st class to Vegas!  Are you ready for me?
Fri, 18 Nov 2011 23:06:11 +0000</description><styleUrl>#hideLabel</styleUrl>
<Point><coordinates>-97.039100,32.900900,0</coordinates></Point></Placemark>
<Placemark><name>Mister_JT</name><description>I'm at Dallas/Fort Worth International Airport (DFW) (3200 E Airfield Dr., International Pkwy., Grapevine) http://t.co/DwQz75OV
Fri, 18 Nov 2011 23:11:30 +0000</description><styleUrl>#hideLabel</styleUrl>
<Point><coordinates>-97.037500,32.896389,0</coordinates></Point></Placemark>
<Placemark><name>jjsorrenti</name><description>Ontime, but SCREAMING baby in first class.  Hate to say it , but it's not the place for 1 year olds.Really not a good week for my air travel
Fri, 18 Nov 2011 23:14:41 +0000</description><styleUrl>#hideLabel</styleUrl>
<Point><coordinates>-97.040005,32.907948,0</coordinates></Point></Placemark>
<Placemark><name>caseyp</name><description>Half way (@ Dallas/Fort Worth International Airport (DFW) w/ 121 others) http://t.co/twCBDasJ
Fri, 18 Nov 2011 23:15:26 +0000</description><styleUrl>#hideLabel</styleUrl>
<Point><coordinates>-97.040900,32.898000,0</coordinates></Point></Placemark>
<Placemark><name>banafshehgh</name><description>I'm at Dallas/Fort Worth International Airport (DFW) (3200 E Airfield Dr., International Pkwy., Grapevine) http://t.co/vszhaXOg
Fri, 18 Nov 2011 23:16:26 +0000</description><styleUrl>#hideLabel</styleUrl>
<Point><coordinates>-97.037500,32.896389,0</coordinates></Point></Placemark>
<Placemark><name>JaviFuentes</name><description>@crasis I told the last one if she liked my service she should make me an apple pie. She was laughing cuz it was so random.
Fri, 18 Nov 2011 23:18:47 +0000</description><styleUrl>#hideLabel</styleUrl>
<Point><coordinates>-97.039111,32.893901,0</coordinates></Point></Placemark>
<Placemark><name>JaviFuentes</name><description>@JeremyKKirk third try's the charm ?
Fri, 18 Nov 2011 23:22:21 +0000</description><styleUrl>#hideLabel</styleUrl>
<Point><coordinates>-97.039111,32.893901,0</coordinates></Point></Placemark>
<Placemark><name>JasonVCM</name><description>I'm at Dallas/Fort Worth International Airport (DFW) (3200 E Airfield Dr., International Pkwy., Grapevine) http://t.co/Ym6TISs9
Fri, 18 Nov 2011 23:22:01 +0000</description><styleUrl>#hideLabel</styleUrl>
<Point><coordinates>-97.037500,32.896389,0</coordinates></Point></Placemark>
<Placemark><name>yeshaib</name><description>I just became the mayor of DFW Terminal D South Control Tower on @foursquare! http://t.co/roLdA4kF
Fri, 18 Nov 2011 23:27:28 +0000</description><styleUrl>#hideLabel</styleUrl>
<Point><coordinates>-97.037300,32.895700,0</coordinates></Point></Placemark>
<Placemark><name>yeshaib</name><description>I'm at Dallas/Fort Worth International Airport (DFW) (3200 E Airfield Dr., International Pkwy., Grapevine) http://t.co/Yyej5nfK
Fri, 18 Nov 2011 23:26:59 +0000</description><styleUrl>#hideLabel</styleUrl>
<Point><coordinates>-97.037500,32.896389,0</coordinates></Point></Placemark>
<Placemark><name>damondevins</name><description>Heading home from DFW.  Can't wait to be back in So Cal! – at DFW Terminal A http://t.co/njK1LXUd
Fri, 18 Nov 2011 23:32:16 +0000</description><styleUrl>#hideLabel</styleUrl>
<Point><coordinates>-97.036000,32.904600,0</coordinates></Point></Placemark>
<Placemark><name>ChefNgoc</name><description>Home sweet home – at Dallas/Fort Worth International Airport http://t.co/N5142ces
Fri, 18 Nov 2011 23:34:14 +0000</description><styleUrl>#hideLabel</styleUrl>
<Point><coordinates>-97.034800,32.896300,0</coordinates></Point></Placemark>
<Placemark><name>James_Tx</name><description>@jaymohr37

Just finished the Dave Attell podcast, laughed and laughed.  Thanks!   Can't wait for the next time!
Fri, 18 Nov 2011 23:43:00 +0000</description><styleUrl>#hideLabel</styleUrl>
<Point><coordinates>-97.035700,32.896900,0</coordinates></Point></Placemark>
<Placemark><name>babapaul</name><description>@B_J_R really? #godavidson
Fri, 18 Nov 2011 23:54:23 +0000</description><styleUrl>#hideLabel</styleUrl>
<Point><coordinates>-97.039703,32.893570,0</coordinates></Point></Placemark>
<Placemark><name>babapaul</name><description>“@abarnett711: @StephenCurry30 I'm sitting 3 rows behind you, wearing your jersey... #creepedout?” #creeper #haha
Fri, 18 Nov 2011 23:55:41 +0000</description><styleUrl>#hideLabel</styleUrl>
<Point><coordinates>-97.039703,32.893570,0</coordinates></Point></Placemark>
<Placemark><name>egocorp</name><description>goddog (@ Dallas/Fort Worth International Airport (DFW) w/ 113 others) http://t.co/SEzTvfii
Fri, 18 Nov 2011 23:57:53 +0000</description><styleUrl>#hideLabel</styleUrl>
<Point><coordinates>-97.040900,32.898000,0</coordinates></Point></Placemark>
<Placemark><name>ATXRobbie</name><description>I'm at Dallas/Fort Worth International Airport (DFW) (3200 E Airfield Dr., International Pkwy., Grapevine) http://t.co/p99fT5gB
Fri, 18 Nov 2011 23:59:28 +0000</description><styleUrl>#hideLabel</styleUrl>
<Point><coordinates>-97.037500,32.896389,0</coordinates></Point></Placemark>
<Placemark><name>ATXRobbie</name><description>Almost home #missmywifeandkids
Sat, 19 Nov 2011 00:00:59 +0000</description><styleUrl>#hideLabel</styleUrl>
<Point><coordinates>-97.043700,32.902500,0</coordinates></Point></Placemark>
<Placemark><name>fitz_hill</name><description>I'm at Dallas/Fort Worth International Airport (DFW) (3200 E Airfield Dr., International Pkwy., Grapevine) http://t.co/HC2G2lMp
Sat, 19 Nov 2011 00:04:29 +0000</description><styleUrl>#hideLabel</styleUrl>
<Point><coordinates>-97.037500,32.896389,0</coordinates></Point></Placemark>
<Placemark><name>nayeligdz</name><description>Money it's so overrated.
Sat, 19 Nov 2011 00:15:07 +0000</description><styleUrl>#hideLabel</styleUrl>
<Point><coordinates>-97.039780,32.893165,0</coordinates></Point></Placemark>
<Placemark><name>AndreBerto</name><description>Ambition is Priceless either u have it or u don't
Sat, 19 Nov 2011 00:16:22 +0000</description><styleUrl>#hideLabel</styleUrl>
<Point><coordinates>-97.038203,32.904318,0</coordinates></Point></Placemark>
<Placemark><name>SierraLeone03</name><description>RT @AndreBerto: Ambition is Priceless either u have it or u don't
Sat, 19 Nov 2011 00:17:44 +0000</description><styleUrl>#hideLabel</styleUrl>
<Point><coordinates>-97.038203,32.904318,0</coordinates></Point></Placemark>
<Placemark><name>thatnawga_P</name><description>RT @AndreBerto: Ambition is Priceless either u have it or u don't
Sat, 19 Nov 2011 00:17:39 +0000</description><styleUrl>#hideLabel</styleUrl>
<Point><coordinates>-97.038203,32.904318,0</coordinates></Point></Placemark>
<Placemark><name>csmithpounds</name><description>RT @AndreBerto: Ambition is Priceless either u have it or u don't
Sat, 19 Nov 2011 00:17:35 +0000</description><styleUrl>#hideLabel</styleUrl>
<Point><coordinates>-97.038203,32.904318,0</coordinates></Point></Placemark>
<Placemark><name>Musik_BBE215410</name><description>RT @AndreBerto: Ambition is Priceless either u have it or u don't
Sat, 19 Nov 2011 00:17:28 +0000</description><styleUrl>#hideLabel</styleUrl>
<Point><coordinates>-97.038203,32.904318,0</coordinates></Point></Placemark>
<Placemark><name>CarlitosRoysen</name><description>RT @AndreBerto: Ambition is Priceless either u have it or u don't
Sat, 19 Nov 2011 00:17:24 +0000</description><styleUrl>#hideLabel</styleUrl>
<Point><coordinates>-97.038203,32.904318,0</coordinates></Point></Placemark>
<Placemark><name>outastate1</name><description>RT @AndreBerto: Ambition is Priceless either u have it or u don't
Sat, 19 Nov 2011 00:17:08 +0000</description><styleUrl>#hideLabel</styleUrl>
<Point><coordinates>-97.038203,32.904318,0</coordinates></Point></Placemark>
<Placemark><name>YesIndeed_Reed</name><description>RT @AndreBerto: Ambition is Priceless either u have it or u don't
Sat, 19 Nov 2011 00:17:02 +0000</description><styleUrl>#hideLabel</styleUrl>
<Point><coordinates>-97.038203,32.904318,0</coordinates></Point></Placemark>
<Placemark><name>Mjolneer</name><description>Dig deeper. Remember all you've been, and all you've left behind.
Sat, 19 Nov 2011 00:18:42 +0000</description><styleUrl>#hideLabel</styleUrl>
<Point><coordinates>-97.038100,32.902600,0</coordinates></Point></Placemark>
<Placemark><name>M0dern_MONROE</name><description>RT @AndreBerto: Ambition is Priceless either u have it or u don't
Sat, 19 Nov 2011 00:17:56 +0000</description><styleUrl>#hideLabel</styleUrl>
<Point><coordinates>-97.038203,32.904318,0</coordinates></Point></Placemark>
<Placemark><name>YoLookinass</name><description>RT @AndreBerto: Ambition is Priceless either u have it or u don't
Sat, 19 Nov 2011 00:20:27 +0000</description><styleUrl>#hideLabel</styleUrl>
<Point><coordinates>-97.038203,32.904318,0</coordinates></Point></Placemark>
<Placemark><name>jjsorrenti</name><description>@rpatricknolan Age limits? DO NOT believe that one?
Sat, 19 Nov 2011 00:20:15 +0000</description><styleUrl>#hideLabel</styleUrl>
<Point><coordinates>-97.040005,32.907948,0</coordinates></Point></Placemark>
<Placemark><name>Eridanni</name><description>RT @AndreBerto: Ambition is Priceless either u have it or u don't
Sat, 19 Nov 2011 00:21:08 +0000</description><styleUrl>#hideLabel</styleUrl>
<Point><coordinates>-97.038203,32.904318,0</coordinates></Point></Placemark>
<Placemark><name>LewtheJeww</name><description>RT @AndreBerto: Ambition is Priceless either u have it or u don't
Sat, 19 Nov 2011 00:20:59 +0000</description><styleUrl>#hideLabel</styleUrl>
<Point><coordinates>-97.038203,32.904318,0</coordinates></Point></Placemark>
<Placemark><name>Mjolneer</name><description>@kkelley29 the world will burn to the sound of your suffering. I will never forget. Wave goodbye, my dear.
Sat, 19 Nov 2011 00:21:40 +0000</description><styleUrl>#hideLabel</styleUrl>
<Point><coordinates>-97.038100,32.902600,0</coordinates></Point></Placemark>
<Placemark><name>InGerryWeTrust</name><description>RT @AndreBerto: Ambition is Priceless either u have it or u don't
Sat, 19 Nov 2011 00:22:29 +0000</description><styleUrl>#hideLabel</styleUrl>
<Point><coordinates>-97.038203,32.904318,0</coordinates></Point></Placemark>
<Placemark><name>Bosslady_82</name><description>RT @AndreBerto: Ambition is Priceless either u have it or u don't
Sat, 19 Nov 2011 00:23:22 +0000</description><styleUrl>#hideLabel</styleUrl>
<Point><coordinates>-97.038203,32.904318,0</coordinates></Point></Placemark>
<Placemark><name>JaredZimmerman</name><description>Shiner beer and Chili's I guess I am in Texas now. #BigHair #TexasTwang (@ Chili's Too) [pic]: http://t.co/6mM4f0gm
Sat, 19 Nov 2011 00:24:45 +0000</description><styleUrl>#hideLabel</styleUrl>
<Point><coordinates>-97.045000,32.904500,0</coordinates></Point></Placemark>
<Placemark><name>JohnMilner</name><description>Heading home! (@ Dallas/Fort Worth International Airport (DFW) w/ 112 others) http://t.co/hJc8O7dO
Sat, 19 Nov 2011 00:25:33 +0000</description><styleUrl>#hideLabel</styleUrl>
<Point><coordinates>-97.040900,32.898000,0</coordinates></Point></Placemark>
<Placemark><name>quecerulez12</name><description>RT @AndreBerto: Ambition is Priceless either u have it or u don't
Sat, 19 Nov 2011 00:25:20 +0000</description><styleUrl>#hideLabel</styleUrl>
<Point><coordinates>-97.038203,32.904318,0</coordinates></Point></Placemark>
<Placemark><name>Mhammer155</name><description>Picking up Amanda! (@ Dallas/Fort Worth International Airport (DFW) w/ 111 others) http://t.co/g003z2MT
Sat, 19 Nov 2011 00:27:05 +0000</description><styleUrl>#hideLabel</styleUrl>
<Point><coordinates>-97.040900,32.898000,0</coordinates></Point></Placemark>
<Placemark><name>Nobullshiiittt</name><description>RT @AndreBerto: Ambition is Priceless either u have it or u don't
Sat, 19 Nov 2011 00:26:36 +0000</description><styleUrl>#hideLabel</styleUrl>
<Point><coordinates>-97.038203,32.904318,0</coordinates></Point></Placemark>
<Placemark><name>Maggie__Ortiz</name><description>RT @AndreBerto: Ambition is Priceless either u have it or u don't
Sat, 19 Nov 2011 00:27:58 +0000</description><styleUrl>#hideLabel</styleUrl>
<Point><coordinates>-97.038203,32.904318,0</coordinates></Point></Placemark>
<Placemark><name>Daquan_Arnett</name><description>RT @AndreBerto: Ambition is Priceless either u have it or u don't
Sat, 19 Nov 2011 00:27:29 +0000</description><styleUrl>#hideLabel</styleUrl>
<Point><coordinates>-97.038203,32.904318,0</coordinates></Point></Placemark>
<Placemark><name>YaUThowed_TSOD</name><description>RT @AndreBerto: Ambition is Priceless either u have it or u don't
Sat, 19 Nov 2011 00:30:09 +0000</description><styleUrl>#hideLabel</styleUrl>
<Point><coordinates>-97.038203,32.904318,0</coordinates></Point></Placemark>
<Placemark><name>jjsorrenti</name><description>@rpatricknolan Get some direct PIT-DFW will ya?
Sat, 19 Nov 2011 00:30:57 +0000</description><styleUrl>#hideLabel</styleUrl>
<Point><coordinates>-97.040005,32.907948,0</coordinates></Point></Placemark>
<Placemark><name>AndreBerto</name><description>I took my heart away from money Iam not interested in fame and I pray that never change.....
Sat, 19 Nov 2011 00:32:03 +0000</description><styleUrl>#hideLabel</styleUrl>
<Point><coordinates>-97.038203,32.904318,0</coordinates></Point></Placemark>
<Placemark><name>PEDRAZALEX</name><description>RT @AndreBerto: I took my heart away from money Iam not interested in fame and I pray that never change.....
Sat, 19 Nov 2011 00:33:12 +0000</description><styleUrl>#hideLabel</styleUrl>
<Point><coordinates>-97.038203,32.904318,0</coordinates></Point></Placemark>
<Placemark><name>BMajor116</name><description>RT @AndreBerto: I took my heart away from money Iam not interested in fame and I pray that never change.....
Sat, 19 Nov 2011 00:32:44 +0000</description><styleUrl>#hideLabel</styleUrl>
<Point><coordinates>-97.038203,32.904318,0</coordinates></Point></Placemark>
<Placemark><name>AndreBerto</name><description>@Daquan_Arnett what it do boss
Sat, 19 Nov 2011 00:33:30 +0000</description><styleUrl>#hideLabel</styleUrl>
<Point><coordinates>-97.038203,32.904318,0</coordinates></Point></Placemark>
<Placemark><name>carmenb</name><description>I'm at Dallas/Fort Worth International Airport (DFW) (3200 E Airfield Dr., International Pkwy., Grapevine) http://t.co/ezJGHs4n
Sat, 19 Nov 2011 00:33:23 +0000</description><styleUrl>#hideLabel</styleUrl>
<Point><coordinates>-97.037500,32.896389,0</coordinates></Point></Placemark>
<Placemark><name>JayThomasNoga</name><description>RT @AndreBerto: Ambition is Priceless either u have it or u don't
Sat, 19 Nov 2011 00:34:59 +0000</description><styleUrl>#hideLabel</styleUrl>
<Point><coordinates>-97.038203,32.904318,0</coordinates></Point></Placemark>
<Placemark><name>Jules9797</name><description>RT @AndreBerto: I took my heart away from money Iam not interested in fame and I pray that never change.....
Sat, 19 Nov 2011 00:34:46 +0000</description><styleUrl>#hideLabel</styleUrl>
<Point><coordinates>-97.038203,32.904318,0</coordinates></Point></Placemark>
<Placemark><name>PrinceOfOlympus</name><description>RT @AndreBerto: I took my heart away from money Iam not interested in fame and I pray that never change.....
Sat, 19 Nov 2011 00:35:55 +0000</description><styleUrl>#hideLabel</styleUrl>
<Point><coordinates>-97.038203,32.904318,0</coordinates></Point></Placemark>
<Placemark><name>quecerulez12</name><description>RT @AndreBerto: I took my heart away from money Iam not interested in fame and I pray that never change.....
Sat, 19 Nov 2011 00:35:13 +0000</description><styleUrl>#hideLabel</styleUrl>
<Point><coordinates>-97.038203,32.904318,0</coordinates></Point></Placemark>
<Placemark><name>nicholasloftis</name><description>Almost done restoring my grandma's Lincoln Town Car. She's gona be nasty
Sat, 19 Nov 2011 00:36:58 +0000</description><styleUrl>#hideLabel</styleUrl>
<Point><coordinates>-97.046366,32.891489,0</coordinates></Point></Placemark>
<Placemark><name>AndreBerto</name><description>It's Cold Game Smh.. but I've learned my listen. Now I move with aggression use my mind as a weapon chances R never given u got to Take 'em
Sat, 19 Nov 2011 00:41:52 +0000</description><styleUrl>#hideLabel</styleUrl>
<Point><coordinates>-97.038203,32.904318,0</coordinates></Point></Placemark>
<Placemark><name>PatrickVeg</name><description>I checked in at Songkran Thai Restaurant (2309 S Ridgewood Ave) on #Yelp http://t.co/yPl1AkSJ
Sat, 19 Nov 2011 00:41:47 +0000</description><styleUrl>#hideLabel</styleUrl>
<Point><coordinates>-97.035317,32.897201,0</coordinates></Point></Placemark>
<Placemark><name>AndreBerto</name><description>It's a Cold Game Smh..but I've learned my listen. Now I move with aggression use my mind as a weapon chances R never given u got to Take 'em
Sat, 19 Nov 2011 00:42:29 +0000</description><styleUrl>#hideLabel</styleUrl>
<Point><coordinates>-97.038203,32.904318,0</coordinates></Point></Placemark>
<Placemark><name>muthafromcaruth</name><description>I'm at Dallas/Fort Worth International Airport (DFW) (3200 E Airfield Dr., International Pkwy., Grapevine) http://t.co/lWJpDJv6
Sat, 19 Nov 2011 00:42:23 +0000</description><styleUrl>#hideLabel</styleUrl>
<Point><coordinates>-97.037500,32.896389,0</coordinates></Point></Placemark>
<Placemark><name>TheClayFox</name><description>Oh hello Dallas. Long time, no? (@ Dallas/Fort Worth International Airport (DFW) w/ 115 others) http://t.co/61cVKdKL
Sat, 19 Nov 2011 00:43:38 +0000</description><styleUrl>#hideLabel</styleUrl>
<Point><coordinates>-97.040900,32.898000,0</coordinates></Point></Placemark>
<Placemark><name>JaviFuentes</name><description>@YummyAwesome so jealous. I'm feeling sick today so I'm probably skipping out on this.
Sat, 19 Nov 2011 00:44:34 +0000</description><styleUrl>#hideLabel</styleUrl>
<Point><coordinates>-97.039111,32.893901,0</coordinates></Point></Placemark>
<Placemark><name>YUNGINKK</name><description>RT @AndreBerto: It's a Cold Game Smh..but I've learned my listen. Now I move with aggression use my mind as a weapon chances R never given u got to Take 'em
Sat, 19 Nov 2011 00:45:38 +0000</description><styleUrl>#hideLabel</styleUrl>
<Point><coordinates>-97.038203,32.904318,0</coordinates></Point></Placemark>
<Placemark><name>JaviFuentes</name><description>Ho go ho indeed thanks@_chicy_babe_ http://t.co/uae959eN
Sat, 19 Nov 2011 00:47:05 +0000</description><styleUrl>#hideLabel</styleUrl>
<Point><coordinates>-97.039111,32.893901,0</coordinates></Point></Placemark>
<Placemark><name>JaviFuentes</name><description>Here for sister's Get together. Feeling sick do I probably will drink root beet. (@ Flying Saucer Draught Emporium) http://t.co/spe0gFYg
Sat, 19 Nov 2011 00:49:27 +0000</description><styleUrl>#hideLabel</styleUrl>
<Point><coordinates>-97.039111,32.893901,0</coordinates></Point></Placemark>
<Placemark><name>jluclubpromo</name><description>I'm at Dallas/Fort Worth International Airport (DFW) (3200 E Airfield Dr., International Pkwy., Grapevine) http://t.co/FV2BZtkD
Sat, 19 Nov 2011 00:51:18 +0000</description><styleUrl>#hideLabel</styleUrl>
<Point><coordinates>-97.037500,32.896389,0</coordinates></Point></Placemark>
<Placemark><name>M3GASOTO</name><description>RT @AndreBerto: Stop asking God for deliverance and start asking for Endurance
Sat, 19 Nov 2011 00:51:48 +0000</description><styleUrl>#hideLabel</styleUrl>
<Point><coordinates>-97.038203,32.904318,0</coordinates></Point></Placemark>
<Placemark><name>AmberDugan</name><description>It's been way to long since I've been here..  What's good Nashville?! 
#excited
Sat, 19 Nov 2011 00:54:02 +0000</description><styleUrl>#hideLabel</styleUrl>
<Point><coordinates>-97.036200,32.898200,0</coordinates></Point></Placemark>
<Placemark><name>JaviFuentes</name><description>Actively avoiding any theaters with Twilight this weekend. Gotta check out smaller movies anyway.
Sat, 19 Nov 2011 00:55:18 +0000</description><styleUrl>#hideLabel</styleUrl>
<Point><coordinates>-97.039111,32.893901,0</coordinates></Point></Placemark>
<Placemark><name>Buie201</name><description>RT @AndreBerto: I took my heart away from money Iam not interested in fame and I pray that never change.....
Sat, 19 Nov 2011 00:56:43 +0000</description><styleUrl>#hideLabel</styleUrl>
<Point><coordinates>-97.038203,32.904318,0</coordinates></Point></Placemark>
<Placemark><name>Keish_Kay</name><description>Oh Texas...I guess I kinda missed ya. (@ Dallas/Fort Worth International Airport (DFW) w/ 108 others) http://t.co/2xhkBADx
Sat, 19 Nov 2011 00:58:09 +0000</description><styleUrl>#hideLabel</styleUrl>
<Point><coordinates>-97.040900,32.898000,0</coordinates></Point></Placemark>
<Placemark><name>htownloathesyou</name><description>@SexySaxMan did you try the verbena?
Sat, 19 Nov 2011 00:57:39 +0000</description><styleUrl>#hideLabel</styleUrl>
<Point><coordinates>-97.045000,32.895100,0</coordinates></Point></Placemark>
<Placemark><name>lauriekit</name><description>RT @AndreBerto: It's a Cold Game Smh..but I've learned my listen. Now I move with aggression use my mind as a weapon chances R never given u got to Take 'em
Sat, 19 Nov 2011 00:59:13 +0000</description><styleUrl>#hideLabel</styleUrl>
<Point><coordinates>-97.038203,32.904318,0</coordinates></Point></Placemark>
<Placemark><name>Brandon_Grier</name><description>@qmillertime Happy Birthday Fam, stay in Kill!!
Sat, 19 Nov 2011 01:00:49 +0000</description><styleUrl>#hideLabel</styleUrl>
<Point><coordinates>-97.032608,32.899017,0</coordinates></Point></Placemark>
<Placemark><name>MindyLawhorne</name><description>And surely I am with you always, to the very end of the age.
Sat, 19 Nov 2011 01:01:19 +0000</description><styleUrl>#hideLabel</styleUrl>
<Point><coordinates>-97.037575,32.902538,0</coordinates></Point></Placemark>
<Placemark><name>SavageBoyTheo</name><description>RT @AndreBerto: Ambition is Priceless either u have it or u don't
Sat, 19 Nov 2011 01:09:34 +0000</description><styleUrl>#hideLabel</styleUrl>
<Point><coordinates>-97.038203,32.904318,0</coordinates></Point></Placemark>
<Placemark><name>blownaspossible</name><description>RT @AndreBerto: Ambition is Priceless either u have it or u don't
Sat, 19 Nov 2011 01:12:35 +0000</description><styleUrl>#hideLabel</styleUrl>
<Point><coordinates>-97.038203,32.904318,0</coordinates></Point></Placemark>
<Placemark><name>mrexmiller</name><description>http://t.co/uLwoW9aS

2 great inventions: iPad and Velcro
Sat, 19 Nov 2011 01:16:53 +0000</description><styleUrl>#hideLabel</styleUrl>
<Point><coordinates>-97.036200,32.902700,0</coordinates></Point></Placemark>
<Placemark><name>SunJYung</name><description>I had an infant next to me and had to help the mother...it's been a long time. Now I have formula all over my hands http://t.co/KQ1Y4A9I
Sat, 19 Nov 2011 01:18:15 +0000</description><styleUrl>#hideLabel</styleUrl>
<Point><coordinates>-97.040900,32.898000,0</coordinates></Point></Placemark>
<Placemark><name>_JessicaE_</name><description>RT @AndreBerto: Ambition is Priceless either u have it or u don't
Sat, 19 Nov 2011 01:18:08 +0000</description><styleUrl>#hideLabel</styleUrl>
<Point><coordinates>-97.038203,32.904318,0</coordinates></Point></Placemark>
<Placemark><name>mccubcakes</name><description>And now the 2 hr drive to Wichita Falls (@ Dallas/Fort Worth International Airport (DFW) w/ 110 others) http://t.co/DZOxWImL
Sat, 19 Nov 2011 01:22:55 +0000</description><styleUrl>#hideLabel</styleUrl>
<Point><coordinates>-97.040900,32.898000,0</coordinates></Point></Placemark>
<Placemark><name>1bluefish82</name><description>I'm going back to Cali (@ Dallas/Fort Worth International Airport (DFW) w/ 110 others) http://t.co/Rn2PG7kK
Sat, 19 Nov 2011 01:25:31 +0000</description><styleUrl>#hideLabel</styleUrl>
<Point><coordinates>-97.040900,32.898000,0</coordinates></Point></Placemark>
<Placemark><name>AndreBerto</name><description>RT @MissEJHarvey: @AndreBerto you're on the right track baby you were born this way!!&gt;&gt; thank u
Sat, 19 Nov 2011 01:29:36 +0000</description><styleUrl>#hideLabel</styleUrl>
<Point><coordinates>-97.038203,32.904318,0</coordinates></Point></Placemark>
<Placemark><name>LeemanTaylor</name><description>RT @AndreBerto: RT @MissEJHarvey: @AndreBerto you're on the right track baby you were born this way!!&gt;&gt; thank u
Sat, 19 Nov 2011 01:30:49 +0000</description><styleUrl>#hideLabel</styleUrl>
<Point><coordinates>-97.038203,32.904318,0</coordinates></Point></Placemark>
<Placemark><name>Thetootenhooten</name><description>I don't know if I trust something this small to fly...  @ Terminal B Gate 16 http://t.co/kOYq8dYe
Sat, 19 Nov 2011 01:34:26 +0000</description><styleUrl>#hideLabel</styleUrl>
<Point><coordinates>-97.045000,32.903800,0</coordinates></Point></Placemark>
<Placemark><name>_prettybrwn_</name><description>Going to see happy feet that should cheer me up!!!
Sat, 19 Nov 2011 01:42:22 +0000</description><styleUrl>#hideLabel</styleUrl>
<Point><coordinates>-97.037154,32.890185,0</coordinates></Point></Placemark>
<Placemark><name>AndreBerto</name><description>Beast Mode...... It's almost Go Time again http://t.co/SogBm5Ju
Sat, 19 Nov 2011 01:45:08 +0000</description><styleUrl>#hideLabel</styleUrl>
<Point><coordinates>-97.038203,32.904318,0</coordinates></Point></Placemark>
<Placemark><name>_prettybrwn_</name><description>@jocieWAShere ahahah wackkk
Sat, 19 Nov 2011 01:46:41 +0000</description><styleUrl>#hideLabel</styleUrl>
<Point><coordinates>-97.037154,32.890185,0</coordinates></Point></Placemark>
<Placemark><name>HollyWoodHino</name><description>RT @AndreBerto: Beast Mode...... It's almost Go Time again http://t.co/SogBm5Ju
Sat, 19 Nov 2011 01:53:25 +0000</description><styleUrl>#hideLabel</styleUrl>
<Point><coordinates>-97.038203,32.904318,0</coordinates></Point></Placemark>
<Placemark><name>_prettybrwn_</name><description>@Military_Hustle @jocieWAShere really though triple a? That was mean
Sat, 19 Nov 2011 01:53:16 +0000</description><styleUrl>#hideLabel</styleUrl>
<Point><coordinates>-97.037154,32.890185,0</coordinates></Point></Placemark>
<Placemark><name>_prettybrwn_</name><description>@jocieWAShere smh you ain't shit!
Sat, 19 Nov 2011 01:55:47 +0000</description><styleUrl>#hideLabel</styleUrl>
<Point><coordinates>-97.037154,32.890185,0</coordinates></Point></Placemark>
<Placemark><name>Qeki</name><description>RT @AndreBerto: Beast Mode...... It's almost Go Time again http://t.co/SogBm5Ju
Sat, 19 Nov 2011 01:55:42 +0000</description><styleUrl>#hideLabel</styleUrl>
<Point><coordinates>-97.038203,32.904318,0</coordinates></Point></Placemark>
<Placemark><name>_prettybrwn_</name><description>@jocieWAShere @Military_Hustle oh lord. You are kinds struggling with this twitter thing Aaron
Sat, 19 Nov 2011 01:56:45 +0000</description><styleUrl>#hideLabel</styleUrl>
<Point><coordinates>-97.037154,32.890185,0</coordinates></Point></Placemark>
<Placemark><name>PineRedd100</name><description>RT @AndreBerto: U sleep better when u know u wake up paid :)
Sat, 19 Nov 2011 01:59:17 +0000</description><styleUrl>#hideLabel</styleUrl>
<Point><coordinates>-97.038203,32.904318,0</coordinates></Point></Placemark>
<Placemark><name>MindyLawhorne</name><description>For fast results, circuit train and eliminate sugar and white flour.
Sat, 19 Nov 2011 02:00:49 +0000</description><styleUrl>#hideLabel</styleUrl>
<Point><coordinates>-97.037575,32.902538,0</coordinates></Point></Placemark>
<Placemark><name>AndreBerto</name><description>@Anthonydirrell u already know I got cha. And let @andredirrell know I was born first nig
Sat, 19 Nov 2011 02:01:56 +0000</description><styleUrl>#hideLabel</styleUrl>
<Point><coordinates>-97.038203,32.904318,0</coordinates></Point></Placemark>
<Placemark><name>riiilezzz</name><description>En Route to Bama.
Sat, 19 Nov 2011 02:03:04 +0000</description><styleUrl>#hideLabel</styleUrl>
<Point><coordinates>-97.039000,32.894400,0</coordinates></Point></Placemark>
<Placemark><name>roquestarr</name><description>RT @MindyLawhorne: For fast results, circuit train and eliminate sugar and white flour.
Sat, 19 Nov 2011 02:02:19 +0000</description><styleUrl>#hideLabel</styleUrl>
<Point><coordinates>-97.037575,32.902538,0</coordinates></Point></Placemark>
<Placemark><name>AndreBerto</name><description>@MeekMill u next up bra @SPIFFTvFilms Iam not for the moment Iam 4 the movement ha ha #MMG
Sat, 19 Nov 2011 02:04:14 +0000</description><styleUrl>#hideLabel</styleUrl>
<Point><coordinates>-97.038203,32.904318,0</coordinates></Point></Placemark>
<Placemark><name>wheredidmylmbgo</name><description>RT @MindyLawhorne: For fast results, circuit train and eliminate sugar and white flour.
Sat, 19 Nov 2011 02:07:11 +0000</description><styleUrl>#hideLabel</styleUrl>
<Point><coordinates>-97.037575,32.902538,0</coordinates></Point></Placemark>
<Placemark><name>_prettybrwn_</name><description>This fool better hurry up I'm gonna be upset if tickets are sold out
Sat, 19 Nov 2011 02:10:43 +0000</description><styleUrl>#hideLabel</styleUrl>
<Point><coordinates>-97.037154,32.890185,0</coordinates></Point></Placemark>
<Placemark><name>JaviFuentes</name><description>Yup. Full-on fever coming.
Sat, 19 Nov 2011 02:12:32 +0000</description><styleUrl>#hideLabel</styleUrl>
<Point><coordinates>-97.039111,32.893901,0</coordinates></Point></Placemark>
<Placemark><name>Havoc06</name><description>I...don't think my mom realizes that everyone can see what she writes on my Facebook wall. Oh Mom.
Sat, 19 Nov 2011 02:13:22 +0000</description><styleUrl>#hideLabel</styleUrl>
<Point><coordinates>-97.037849,32.907021,0</coordinates></Point></Placemark>
<Placemark><name>KStyleFitness</name><description>RT @MindyLawhorne: For fast results, circuit train and eliminate sugar and white flour.
Sat, 19 Nov 2011 02:19:33 +0000</description><styleUrl>#hideLabel</styleUrl>
<Point><coordinates>-97.037575,32.902538,0</coordinates></Point></Placemark>
<Placemark><name>davereid</name><description>I'm at Dallas/Fort Worth International Airport (DFW) (3200 E Airfield Dr., International Pkwy., Grapevine) http://t.co/0Cf9AnVf
Sat, 19 Nov 2011 02:23:40 +0000</description><styleUrl>#hideLabel</styleUrl>
<Point><coordinates>-97.037500,32.896389,0</coordinates></Point></Placemark>
<Placemark><name>ptoddFTW</name><description>Back HOME in TEXAS!
Sat, 19 Nov 2011 02:25:22 +0000</description><styleUrl>#hideLabel</styleUrl>
<Point><coordinates>-97.041200,32.883500,0</coordinates></Point></Placemark>
<Placemark><name>SPIFFTvFilms</name><description>RT @AndreBerto: @MeekMill u next up bra @SPIFFTvFilms Iam not for the moment Iam 4 the movement ha ha #MMG
Sat, 19 Nov 2011 02:24:55 +0000</description><styleUrl>#hideLabel</styleUrl>
<Point><coordinates>-97.038203,32.904318,0</coordinates></Point></Placemark>
<Placemark><name>urbanwulf</name><description>RT @AndreBerto: I took my heart away from money Iam not interested in fame and I pray that never change.....
Sat, 19 Nov 2011 02:26:28 +0000</description><styleUrl>#hideLabel</styleUrl>
<Point><coordinates>-97.038203,32.904318,0</coordinates></Point></Placemark>
<Placemark><name>Juicy_Jones</name><description>RT @AndreBerto: I took my heart away from money Iam not interested in fame and I pray that never change.....
Sat, 19 Nov 2011 02:29:12 +0000</description><styleUrl>#hideLabel</styleUrl>
<Point><coordinates>-97.038203,32.904318,0</coordinates></Point></Placemark>
<Placemark><name>Havoc06</name><description>It really needs to keep raining tomorrow, so as to better support my decision to spend all day playing Skyrim.
Sat, 19 Nov 2011 02:33:59 +0000</description><styleUrl>#hideLabel</styleUrl>
<Point><coordinates>-97.037849,32.907021,0</coordinates></Point></Placemark>
<Placemark><name>Havoc06</name><description>@david_shea Youuuuuuuu bastid.
Sat, 19 Nov 2011 02:33:23 +0000</description><styleUrl>#hideLabel</styleUrl>
<Point><coordinates>-97.037849,32.907021,0</coordinates></Point></Placemark>
<Placemark><name>AndreBerto</name><description>Putting in work.... #NoOffSeason  http://t.co/pPwGKf7b
Sat, 19 Nov 2011 02:34:51 +0000</description><styleUrl>#hideLabel</styleUrl>
<Point><coordinates>-97.038203,32.904318,0</coordinates></Point></Placemark>
<Placemark><name>PJSHIRDAN</name><description>RT @AndreBerto: @MeekMill u next up bra @SPIFFTvFilms Iam not for the moment Iam 4 the movement ha ha #MMG
Sat, 19 Nov 2011 02:34:35 +0000</description><styleUrl>#hideLabel</styleUrl>
<Point><coordinates>-97.038203,32.904318,0</coordinates></Point></Placemark>
<Placemark><name>AndreBerto</name><description>Staying focused keeping my eyes on the prize..... Can't this shit for granted http://t.co/GQp8bnBK
Sat, 19 Nov 2011 02:35:59 +0000</description><styleUrl>#hideLabel</styleUrl>
<Point><coordinates>-97.038203,32.904318,0</coordinates></Point></Placemark>
<Placemark><name>MeekMill</name><description>RT @AndreBerto: @MeekMill u next up bra @SPIFFTvFilms Iam not for the moment Iam 4 the movement ha ha #MMG
Sat, 19 Nov 2011 02:38:04 +0000</description><styleUrl>#hideLabel</styleUrl>
<Point><coordinates>-97.038203,32.904318,0</coordinates></Point></Placemark>
<Placemark><name>Kuz_ITsPINk</name><description>RT @AndreBerto: @MeekMill u next up bra @SPIFFTvFilms Iam not for the moment Iam 4 the movement ha ha #MMG
Sat, 19 Nov 2011 02:38:48 +0000</description><styleUrl>#hideLabel</styleUrl>
<Point><coordinates>-97.038203,32.904318,0</coordinates></Point></Placemark>
<Placemark><name>AndreBerto</name><description>Staying focused keeping my eyes on the prize..... Can't take this shit for granted http://t.co/GQp8bnBK http://t.co/Vg8SgfYO
Sat, 19 Nov 2011 02:39:27 +0000</description><styleUrl>#hideLabel</styleUrl>
<Point><coordinates>-97.038203,32.904318,0</coordinates></Point></Placemark>
<Placemark><name>Eridanni</name><description>RT @AndreBerto: Putting in work.... #NoOffSeason  http://t.co/pPwGKf7b
Sat, 19 Nov 2011 02:40:37 +0000</description><styleUrl>#hideLabel</styleUrl>
<Point><coordinates>-97.038203,32.904318,0</coordinates></Point></Placemark>
<Placemark><name>RetroKiidCain23</name><description>RT @AndreBerto: @MeekMill u next up bra @SPIFFTvFilms Iam not for the moment Iam 4 the movement ha ha #MMG
Sat, 19 Nov 2011 02:40:12 +0000</description><styleUrl>#hideLabel</styleUrl>
<Point><coordinates>-97.038203,32.904318,0</coordinates></Point></Placemark>
<Placemark><name>Nelly_sue</name><description>RT @AndreBerto: @MeekMill u next up bra @SPIFFTvFilms Iam not for the moment Iam 4 the movement ha ha #MMG
Sat, 19 Nov 2011 02:41:33 +0000</description><styleUrl>#hideLabel</styleUrl>
<Point><coordinates>-97.038203,32.904318,0</coordinates></Point></Placemark>
<Placemark><name>imLivinYoDreamz</name><description>RT @AndreBerto: It's a Cold Game Smh..but I've learned my listen. Now I move with aggression use my mind as a weapon chances R never given u got to Take 'em
Sat, 19 Nov 2011 02:42:13 +0000</description><styleUrl>#hideLabel</styleUrl>
<Point><coordinates>-97.038203,32.904318,0</coordinates></Point></Placemark>
<Placemark><name>iLIIVE_</name><description>RT @AndreBerto: @MeekMill u next up bra @SPIFFTvFilms Iam not for the moment Iam 4 the movement ha ha #MMG
Sat, 19 Nov 2011 02:43:33 +0000</description><styleUrl>#hideLabel</styleUrl>
<Point><coordinates>-97.038203,32.904318,0</coordinates></Point></Placemark>
<Placemark><name>MrMarcusKFord</name><description>RT @AndreBerto: Ambition is Priceless either u have it or u don't
Sat, 19 Nov 2011 02:47:38 +0000</description><styleUrl>#hideLabel</styleUrl>
<Point><coordinates>-97.038203,32.904318,0</coordinates></Point></Placemark>
<Placemark><name>PineRedd100</name><description>RT @AndreBerto: Ambition is Priceless either u have it or u don't
Sat, 19 Nov 2011 02:48:21 +0000</description><styleUrl>#hideLabel</styleUrl>
<Point><coordinates>-97.038203,32.904318,0</coordinates></Point></Placemark>
<Placemark><name>AndreBerto</name><description>RT @MeekMill: @AndreBerto @SPIFFTvFilms all its about staying focus ....we in it 2 win it!!!!!!!! #blessed&gt;&gt; bet
Sat, 19 Nov 2011 02:53:05 +0000</description><styleUrl>#hideLabel</styleUrl>
<Point><coordinates>-97.038203,32.904318,0</coordinates></Point></Placemark>
<Placemark><name>JordannFreakk</name><description>RT @AndreBerto: @MeekMill u next up bra @SPIFFTvFilms Iam not for the moment Iam 4 the movement ha ha #MMG
Sat, 19 Nov 2011 02:52:57 +0000</description><styleUrl>#hideLabel</styleUrl>
<Point><coordinates>-97.038203,32.904318,0</coordinates></Point></Placemark>
<Placemark><name>INFAMOUSWACKO</name><description>RT @AndreBerto: RT @MeekMill: @AndreBerto @SPIFFTvFilms all its about staying focus ....we in it 2 win it!!!!!!!! #blessed&gt;&gt; bet
Sat, 19 Nov 2011 02:55:35 +0000</description><styleUrl>#hideLabel</styleUrl>
<Point><coordinates>-97.038203,32.904318,0</coordinates></Point></Placemark>
<Placemark><name>C_Clark03</name><description>Whaddup colleyville
Sat, 19 Nov 2011 02:58:08 +0000</description><styleUrl>#hideLabel</styleUrl>
<Point><coordinates>-97.036100,32.900500,0</coordinates></Point></Placemark>
<Placemark><name>shansisk</name><description>RT @MindyLawhorne: For fast results, circuit train and eliminate sugar and white flour.
Sat, 19 Nov 2011 02:57:46 +0000</description><styleUrl>#hideLabel</styleUrl>
<Point><coordinates>-97.037575,32.902538,0</coordinates></Point></Placemark>
<Placemark><name>_kristinamarina</name><description>just ate two different types of edibles and im drinkin tonight.. damn lol
Sat, 19 Nov 2011 03:00:07 +0000</description><styleUrl>#hideLabel</styleUrl>
<Point><coordinates>-97.039545,32.904751,0</coordinates></Point></Placemark>
<Placemark><name>_kristinamarina</name><description>I'm about to buy my ticket @always_osh
Sat, 19 Nov 2011 02:59:45 +0000</description><styleUrl>#hideLabel</styleUrl>
<Point><coordinates>-97.039545,32.904751,0</coordinates></Point></Placemark>
<Placemark><name>_kristinamarina</name><description>@_Laeee curly hair don't care duhhh (;
Sat, 19 Nov 2011 03:00:54 +0000</description><styleUrl>#hideLabel</styleUrl>
<Point><coordinates>-97.039545,32.904751,0</coordinates></Point></Placemark>
<Placemark><name>MindyLawhorne</name><description>Ability is what you're capable of doing. Motivation determines what you do.
Sat, 19 Nov 2011 03:01:48 +0000</description><styleUrl>#hideLabel</styleUrl>
<Point><coordinates>-97.037575,32.902538,0</coordinates></Point></Placemark>
<Placemark><name>sihog</name><description>@Mark_Schlabach @smokeyprice hogs went to sugar bowl last year!!
Sat, 19 Nov 2011 03:03:53 +0000</description><styleUrl>#hideLabel</styleUrl>
<Point><coordinates>-97.045000,32.903900,0</coordinates></Point></Placemark>
<Placemark><name>HantzleyxA</name><description>RT @AndreBerto: S/O to the homie @PierreGarcon85 holding the flag up high http://t.co/P6LgiBUP
Sat, 19 Nov 2011 03:05:15 +0000</description><styleUrl>#hideLabel</styleUrl>
<Point><coordinates>-97.038203,32.904318,0</coordinates></Point></Placemark>
<Placemark><name>AndreBerto</name><description>S/O to the homie @PierreGarcon85 holding the flag up high http://t.co/P6LgiBUP
Sat, 19 Nov 2011 03:04:48 +0000</description><styleUrl>#hideLabel</styleUrl>
<Point><coordinates>-97.038203,32.904318,0</coordinates></Point></Placemark>
<Placemark><name>PAHJr</name><description>I'm at Dallas/Fort Worth International Airport (DFW) (3200 E Airfield Dr., International Pkwy., Grapevine) http://t.co/nSD4OiBq
Sat, 19 Nov 2011 03:06:37 +0000</description><styleUrl>#hideLabel</styleUrl>
<Point><coordinates>-97.037500,32.896389,0</coordinates></Point></Placemark>
<Placemark><name>INFAMOUSWACKO</name><description>RT @AndreBerto: S/O to the homie @PierreGarcon85 holding the flag up high http://t.co/P6LgiBUP
Sat, 19 Nov 2011 03:13:22 +0000</description><styleUrl>#hideLabel</styleUrl>
<Point><coordinates>-97.038203,32.904318,0</coordinates></Point></Placemark>
<Placemark><name>WindyCityGang</name><description>RT @AndreBerto: S/O to the homie @PierreGarcon85 holding the flag up high http://t.co/P6LgiBUP
Sat, 19 Nov 2011 03:23:02 +0000</description><styleUrl>#hideLabel</styleUrl>
<Point><coordinates>-97.038203,32.904318,0</coordinates></Point></Placemark>
<Placemark><name>LAPATRONATRICEY</name><description>RT @AndreBerto: @MeekMill u next up bra @SPIFFTvFilms Iam not for the moment Iam 4 the movement ha ha #MMG
Sat, 19 Nov 2011 03:24:00 +0000</description><styleUrl>#hideLabel</styleUrl>
<Point><coordinates>-97.038203,32.904318,0</coordinates></Point></Placemark>
<Placemark><name>TarvinMorres</name><description>En route to Puerto Rico  @ Dallas / Fort Worth International Airport (DFW) http://t.co/YPzF0M6D
Sat, 19 Nov 2011 03:27:44 +0000</description><styleUrl>#hideLabel</styleUrl>
<Point><coordinates>-97.040900,32.898000,0</coordinates></Point></Placemark>
<Placemark><name>_kristinamarina</name><description>i feel like i haven't alked to @LoveLeeCali in forever.. idk why lol
Sat, 19 Nov 2011 03:39:05 +0000</description><styleUrl>#hideLabel</styleUrl>
<Point><coordinates>-97.039545,32.904751,0</coordinates></Point></Placemark>
<Placemark><name>phampants</name><description>Texas, I'm finally back. (@ Dallas/Fort Worth International Airport (DFW) w/ 83 others) http://t.co/3GAQjT70
Sat, 19 Nov 2011 03:42:20 +0000</description><styleUrl>#hideLabel</styleUrl>
<Point><coordinates>-97.040900,32.898000,0</coordinates></Point></Placemark>
<Placemark><name>edkless</name><description>@collingtonrowe I am hopeful that perhaps Jamaica will begin to improve by opening to a broader economy.
Sat, 19 Nov 2011 03:41:46 +0000</description><styleUrl>#hideLabel</styleUrl>
<Point><coordinates>-97.035800,32.895800,0</coordinates></Point></Placemark>
<Placemark><name>JaviFuentes</name><description>Watching while I fall asleep with a bad fever.  (watching Submarine) http://t.co/y0AwJBUQ
Sat, 19 Nov 2011 03:46:27 +0000</description><styleUrl>#hideLabel</styleUrl>
<Point><coordinates>-97.039111,32.893901,0</coordinates></Point></Placemark>
<Placemark><name>MindyLawhorne</name><description>What do you think drives you to overeat?
Sat, 19 Nov 2011 04:00:26 +0000</description><styleUrl>#hideLabel</styleUrl>
<Point><coordinates>-97.037575,32.902538,0</coordinates></Point></Placemark>
<Placemark><name>JaviFuentes</name><description>Watching movies like SUBMARINE makes my life feel a cliche. #thanksindiemovies
Sat, 19 Nov 2011 04:07:08 +0000</description><styleUrl>#hideLabel</styleUrl>
<Point><coordinates>-97.039111,32.893901,0</coordinates></Point></Placemark>
<Placemark><name>_kristinamarina</name><description>@LoveLeeCali nigga ? ..that hurt lee, it really did
Sat, 19 Nov 2011 04:09:09 +0000</description><styleUrl>#hideLabel</styleUrl>
<Point><coordinates>-97.039545,32.904751,0</coordinates></Point></Placemark>
<Placemark><name>_kristinamarina</name><description>High af..
Sat, 19 Nov 2011 04:09:26 +0000</description><styleUrl>#hideLabel</styleUrl>
<Point><coordinates>-97.039545,32.904751,0</coordinates></Point></Placemark>
<Placemark><name>JaviFuentes</name><description>I want to write about the Mikkeller Beer dinner, but a movie blog talking a/b beer sure feels like I'm copying @xymarla &amp; her cool articles.
Sat, 19 Nov 2011 04:10:34 +0000</description><styleUrl>#hideLabel</styleUrl>
<Point><coordinates>-97.039111,32.893901,0</coordinates></Point></Placemark>
<Placemark><name>warriorsstory</name><description>RT @AndreBerto: Ambition is Priceless either u have it or u don't
Sat, 19 Nov 2011 04:15:17 +0000</description><styleUrl>#hideLabel</styleUrl>
<Point><coordinates>-97.038203,32.904318,0</coordinates></Point></Placemark>
<Placemark><name>_prettybrwn_</name><description>Soooo I just bought this pair of jeans...and I can't fit a 7 now soooo yeah my thighs are upset at bein squished @jocieWAShere want them?
Sat, 19 Nov 2011 04:35:51 +0000</description><styleUrl>#hideLabel</styleUrl>
<Point><coordinates>-97.037154,32.890185,0</coordinates></Point></Placemark>
<Placemark><name>_prettybrwn_</name><description>I'm upset. We were too late for happy feet so subsequently we did not see immortals hmmph
Sat, 19 Nov 2011 04:41:04 +0000</description><styleUrl>#hideLabel</styleUrl>
<Point><coordinates>-97.037154,32.890185,0</coordinates></Point></Placemark>
<Placemark><name>GoErieSports</name><description>(No heading) http://t.co/yY8sk9pt
Sat, 19 Nov 2011 04:46:10 +0000</description><styleUrl>#hideLabel</styleUrl>
<Point><coordinates>-97.038251,32.879968,0</coordinates></Point></Placemark>
<Placemark><name>Chance_81</name><description>I'm at Dallas/Fort Worth International Airport (DFW) (3200 E Airfield Dr., International Pkwy., Grapevine) http://t.co/6sg7gVJa
Sat, 19 Nov 2011 05:03:40 +0000</description><styleUrl>#hideLabel</styleUrl>
<Point><coordinates>-97.037500,32.896389,0</coordinates></Point></Placemark>
<Placemark><name>DMoch0220</name><description>I'm at Dallas/Fort Worth International Airport (DFW) (3200 E Airfield Dr., International Pkwy., Grapevine) http://t.co/hXM34E9O
Sat, 19 Nov 2011 05:28:22 +0000</description><styleUrl>#hideLabel</styleUrl>
<Point><coordinates>-97.037500,32.896389,0</coordinates></Point></Placemark>
<Placemark><name>bteaster</name><description>Woohoo! Early arrival (@ Dallas/Fort Worth International Airport (DFW) w/ 46 others) http://t.co/NNRpYYyf
Sat, 19 Nov 2011 05:27:59 +0000</description><styleUrl>#hideLabel</styleUrl>
<Point><coordinates>-97.040900,32.898000,0</coordinates></Point></Placemark>
<Placemark><name>nicholasloftis</name><description>Heard Drake was trying to leave J.Prince son Jas who found him.  If its true its a bad move for Drake.
Sat, 19 Nov 2011 05:45:00 +0000</description><styleUrl>#hideLabel</styleUrl>
<Point><coordinates>-97.046366,32.891489,0</coordinates></Point></Placemark>
<Placemark><name>nicholasloftis</name><description>Gota pay homage in the music game.  First 2-3 albums you owe to whoever put you in the game.  Then grow.
Sat, 19 Nov 2011 05:45:53 +0000</description><styleUrl>#hideLabel</styleUrl>
<Point><coordinates>-97.046366,32.891489,0</coordinates></Point></Placemark>
<Placemark><name>ChopazWitDrums</name><description>@YOLO_CAP that quarter flew by
Sat, 19 Nov 2011 05:48:05 +0000</description><styleUrl>#hideLabel</styleUrl>
<Point><coordinates>-97.037800,32.909500,0</coordinates></Point></Placemark>
<Placemark><name>GoErieSports</name><description>Erie BayHawks look to learn from scrimmage http://t.co/UC7MCQ69
Sat, 19 Nov 2011 05:49:50 +0000</description><styleUrl>#hideLabel</styleUrl>
<Point><coordinates>-97.038251,32.879968,0</coordinates></Point></Placemark>
<Placemark><name>nicholasloftis</name><description>Here one day, gone the next.
Sat, 19 Nov 2011 05:51:14 +0000</description><styleUrl>#hideLabel</styleUrl>
<Point><coordinates>-97.046366,32.891489,0</coordinates></Point></Placemark>
<Placemark><name>nicholasloftis</name><description>It got cold quick tho.
Sat, 19 Nov 2011 05:52:12 +0000</description><styleUrl>#hideLabel</styleUrl>
<Point><coordinates>-97.046366,32.891489,0</coordinates></Point></Placemark>
<Placemark><name>nicholasloftis</name><description>#GREEDYgangbitch
Sat, 19 Nov 2011 05:52:56 +0000</description><styleUrl>#hideLabel</styleUrl>
<Point><coordinates>-97.046366,32.891489,0</coordinates></Point></Placemark>
<Placemark><name>ChopazWitDrums</name><description>My parents sent me n the airport like I know where the hell I'm going
Sat, 19 Nov 2011 05:55:49 +0000</description><styleUrl>#hideLabel</styleUrl>
<Point><coordinates>-97.036200,32.890200,0</coordinates></Point></Placemark>
<Placemark><name>colbyvasquez</name><description>I'm at Dallas/Fort Worth International Airport (DFW) (3200 E Airfield Dr., International Pkwy., Grapevine) http://t.co/MtN1Lepj
Sat, 19 Nov 2011 05:58:30 +0000</description><styleUrl>#hideLabel</styleUrl>
<Point><coordinates>-97.037500,32.896389,0</coordinates></Point></Placemark>
<Placemark><name>maryzpink</name><description>Thanks so much!  “@dgravenkemper: @maryzpink ticket sales records, BCS upsets, what's next?  Congrats! #collegeticketsales”
Sat, 19 Nov 2011 05:59:10 +0000</description><styleUrl>#hideLabel</styleUrl>
<Point><coordinates>-97.039472,32.904796,0</coordinates></Point></Placemark>
<Placemark><name>maryzpink</name><description>@RyanMHolloway thanks a lot!
Sat, 19 Nov 2011 06:00:08 +0000</description><styleUrl>#hideLabel</styleUrl>
<Point><coordinates>-97.039472,32.904796,0</coordinates></Point></Placemark>
<Placemark><name>ChopazWitDrums</name><description>@bbtheninja @YOLO_CAP tweetin the same stuff
Sat, 19 Nov 2011 06:01:54 +0000</description><styleUrl>#hideLabel</styleUrl>
<Point><coordinates>-97.036000,32.890800,0</coordinates></Point></Placemark>
<Placemark><name>maryzpink</name><description>@mixmastermegs thanks so much. Looking forward to the match up.
Sat, 19 Nov 2011 06:01:29 +0000</description><styleUrl>#hideLabel</styleUrl>
<Point><coordinates>-97.039472,32.904796,0</coordinates></Point></Placemark>
<Placemark><name>maryzpink</name><description>@scottmgarrett thanks it is unbelievable.
Sat, 19 Nov 2011 06:02:16 +0000</description><styleUrl>#hideLabel</styleUrl>
<Point><coordinates>-97.039472,32.904796,0</coordinates></Point></Placemark>
<Placemark><name>maryzpink</name><description>@ASit6 no @TracieHitz and I were hiding from the fans so we wouldn't get run over.
Sat, 19 Nov 2011 06:03:37 +0000</description><styleUrl>#hideLabel</styleUrl>
<Point><coordinates>-97.039472,32.904796,0</coordinates></Point></Placemark>
<Placemark><name>dennypayne</name><description>I'm at Dallas/Fort Worth International Airport (DFW) (3200 E Airfield Dr., International Pkwy., Grapevine) http://t.co/gYdBqyLR
Sat, 19 Nov 2011 06:05:11 +0000</description><styleUrl>#hideLabel</styleUrl>
<Point><coordinates>-97.037500,32.896389,0</coordinates></Point></Placemark>
<Placemark><name>maryzpink</name><description>@ScottJurgens thanks. I can't believe we're the spoiler but I'll take it.
Sat, 19 Nov 2011 06:04:41 +0000</description><styleUrl>#hideLabel</styleUrl>
<Point><coordinates>-97.039472,32.904796,0</coordinates></Point></Placemark>
<Placemark><name>GoErieSports</name><description>New logos for Jays, Marlins http://t.co/YfGfSft1
Sat, 19 Nov 2011 06:06:06 +0000</description><styleUrl>#hideLabel</styleUrl>
<Point><coordinates>-97.038251,32.879968,0</coordinates></Point></Placemark>
<Placemark><name>ChopazWitDrums</name><description>My sis over here disrespecting the iPod
Sat, 19 Nov 2011 06:06:41 +0000</description><styleUrl>#hideLabel</styleUrl>
<Point><coordinates>-97.037600,32.892300,0</coordinates></Point></Placemark>
<Placemark><name>GoErieSports</name><description>Tigers add 3 ex-SeaWolves http://t.co/VHjdMMtK
Sat, 19 Nov 2011 06:08:09 +0000</description><styleUrl>#hideLabel</styleUrl>
<Point><coordinates>-97.038251,32.879968,0</coordinates></Point></Placemark>
<Placemark><name>ChopazWitDrums</name><description>Man they need 2 let that click keep rollin cuz the game over wit
Sat, 19 Nov 2011 06:09:12 +0000</description><styleUrl>#hideLabel</styleUrl>
<Point><coordinates>-97.039400,32.897800,0</coordinates></Point></Placemark>
<Placemark><name>GoErieSports</name><description>Otters trounced in Kitchener http://t.co/GvonPsem
Sat, 19 Nov 2011 06:10:05 +0000</description><styleUrl>#hideLabel</styleUrl>
<Point><coordinates>-97.038251,32.879968,0</coordinates></Point></Placemark>
<Placemark><name>iammissmalik</name><description>RT @AndreBerto: It's a Cold Game Smh..but I've learned my listen. Now I move with aggression use my mind as a weapon chances R never given u got to Take 'em
Sat, 19 Nov 2011 06:12:19 +0000</description><styleUrl>#hideLabel</styleUrl>
<Point><coordinates>-97.038203,32.904318,0</coordinates></Point></Placemark>
<Placemark><name>HeatherVndrbunt</name><description>RT @MindyLawhorne: Ability is what you're capable of doing. Motivation determines what you do.
Sat, 19 Nov 2011 06:13:24 +0000</description><styleUrl>#hideLabel</styleUrl>
<Point><coordinates>-97.037575,32.902538,0</coordinates></Point></Placemark>
<Placemark><name>JaviFuentes</name><description>@Nitrostreak_ much obliged. ::tips standard issue cowboy hat all texans are given::
Sat, 19 Nov 2011 06:21:39 +0000</description><styleUrl>#hideLabel</styleUrl>
<Point><coordinates>-97.039111,32.893901,0</coordinates></Point></Placemark>
<Placemark><name>tweetdreamzzzz</name><description>RT @AndreBerto: Putting in work.... #NoOffSeason  http://t.co/pPwGKf7b
Sat, 19 Nov 2011 06:45:09 +0000</description><styleUrl>#hideLabel</styleUrl>
<Point><coordinates>-97.038203,32.904318,0</coordinates></Point></Placemark>
<Placemark><name>roman203</name><description>I'm at Dallas/Fort Worth International Airport (DFW) (3200 E Airfield Dr., International Pkwy., Grapevine) http://t.co/qtgAXJYC
Sat, 19 Nov 2011 17:35:30 +0000</description><styleUrl>#hideLabel</styleUrl>
<Point><coordinates>-97.037500,32.896389,0</coordinates></Point></Placemark>
<Placemark><name>AdamWTyma</name><description>Half way home. (@ Dallas/Fort Worth International Airport (DFW) w/ 71 others) http://t.co/ULQfkTr3
Sat, 19 Nov 2011 17:38:07 +0000</description><styleUrl>#hideLabel</styleUrl>
<Point><coordinates>-97.040900,32.898000,0</coordinates></Point></Placemark>
<Placemark><name>mikesandry</name><description>Layover. Can't wait to c family soon. (@ Dallas/Fort Worth International Airport (DFW) w/ 72 others) http://t.co/Qx3AHHkE
Sat, 19 Nov 2011 17:51:40 +0000</description><styleUrl>#hideLabel</styleUrl>
<Point><coordinates>-97.040900,32.898000,0</coordinates></Point></Placemark>
<Placemark><name>FrankVC3</name><description>America, spread your golden wings
Sail on freedom's wind, across the sky.
Just landed back in the USA. Good to be home.
Sat, 19 Nov 2011 17:54:07 +0000</description><styleUrl>#hideLabel</styleUrl>
<Point><coordinates>-97.041200,32.889200,0</coordinates></Point></Placemark>
<Placemark><name>lmosinski</name><description>I'm at Dallas/Fort Worth International Airport (DFW) (3200 E Airfield Dr., International Pkwy., Grapevine) http://t.co/OHfbsuE0
Sat, 19 Nov 2011 17:55:09 +0000</description><styleUrl>#hideLabel</styleUrl>
<Point><coordinates>-97.037500,32.896389,0</coordinates></Point></Placemark>
<Placemark><name>ngershon</name><description>@AmericanAir Always happy to support my former employer. :-) cheers!
Sat, 19 Nov 2011 17:55:03 +0000</description><styleUrl>#hideLabel</styleUrl>
<Point><coordinates>-97.036400,32.895200,0</coordinates></Point></Placemark>
<Placemark><name>_kristinamarina</name><description>Why would I care about your opinion about me ? That's right I don't soo shut the fuck up
Sat, 19 Nov 2011 17:57:21 +0000</description><styleUrl>#hideLabel</styleUrl>
<Point><coordinates>-97.039545,32.904751,0</coordinates></Point></Placemark>
<Placemark><name>COFlyerCLE</name><description>@mattnevans Next time you are home you need to check out Thirsty Dog 12 Dogs of  Christmas - from Akron.  May be better than GL...
Sat, 19 Nov 2011 17:56:45 +0000</description><styleUrl>#hideLabel</styleUrl>
<Point><coordinates>-97.037285,32.893169,0</coordinates></Point></Placemark>
<Placemark><name>ngershon</name><description>@billy_sweeney Ah! Cheers!!
Sat, 19 Nov 2011 17:58:53 +0000</description><styleUrl>#hideLabel</styleUrl>
<Point><coordinates>-97.036400,32.895200,0</coordinates></Point></Placemark>
<Placemark><name>MindyLawhorne</name><description>Make sure you have antioxidant-rich foods like berries integrated into your diet, either through food or a daily multivitamin.
Sat, 19 Nov 2011 18:01:21 +0000</description><styleUrl>#hideLabel</styleUrl>
<Point><coordinates>-97.037575,32.902538,0</coordinates></Point></Placemark>
<Placemark><name>_kristinamarina</name><description>I'm ready to go home !!!
Sat, 19 Nov 2011 18:09:45 +0000</description><styleUrl>#hideLabel</styleUrl>
<Point><coordinates>-97.039545,32.904751,0</coordinates></Point></Placemark>
<Placemark><name>_kristinamarina</name><description>@KylieKardash reading it now
Sat, 19 Nov 2011 18:11:31 +0000</description><styleUrl>#hideLabel</styleUrl>
<Point><coordinates>-97.039545,32.904751,0</coordinates></Point></Placemark>
<Placemark><name>MrEspo</name><description>I'm at Dallas/Fort Worth International Airport (DFW) (3200 E Airfield Dr., International Pkwy., Grapevine) http://t.co/LbeZKhu4
Sat, 19 Nov 2011 18:12:48 +0000</description><styleUrl>#hideLabel</styleUrl>
<Point><coordinates>-97.037500,32.896389,0</coordinates></Point></Placemark>
<Placemark><name>brianachene</name><description>I'm at Dallas/Fort Worth International Airport (DFW) (3200 E Airfield Dr., International Pkwy., Grapevine) http://t.co/wtBCk8TT
Sat, 19 Nov 2011 18:12:21 +0000</description><styleUrl>#hideLabel</styleUrl>
<Point><coordinates>-97.037500,32.896389,0</coordinates></Point></Placemark>
<Placemark><name>_kristinamarina</name><description>@KylieKardash I can't finish, I started tearing up reading it and I have to get ready for the game
Sat, 19 Nov 2011 18:18:58 +0000</description><styleUrl>#hideLabel</styleUrl>
<Point><coordinates>-97.039545,32.904751,0</coordinates></Point></Placemark>
<Placemark><name>TheClayFox</name><description>Headed to Houston to meet the parents! (@ Dallas/Fort Worth International Airport (DFW) w/ 78 others) http://t.co/OocmkPAd
Sat, 19 Nov 2011 18:21:21 +0000</description><styleUrl>#hideLabel</styleUrl>
<Point><coordinates>-97.040900,32.898000,0</coordinates></Point></Placemark>
<Placemark><name>GoErieSports</name><description>Indians pursue Sizemore http://t.co/JfeKegru
Sat, 19 Nov 2011 19:07:05 +0000</description><styleUrl>#hideLabel</styleUrl>
<Point><coordinates>-97.038251,32.879968,0</coordinates></Point></Placemark>
<Placemark><name>IzmiraSantiago</name><description>@3martinboys you're too good to me. It doesn't have to be tonight... I'll just crash
Sat, 19 Nov 2011 19:11:02 +0000</description><styleUrl>#hideLabel</styleUrl>
<Point><coordinates>-97.039400,32.900900,0</coordinates></Point></Placemark>
<Placemark><name>awlynn0102</name><description>I'm at Dallas/Fort Worth International Airport (DFW) (3200 E Airfield Dr., International Pkwy., Grapevine) http://t.co/oilLkI4c
Sat, 19 Nov 2011 19:14:55 +0000</description><styleUrl>#hideLabel</styleUrl>
<Point><coordinates>-97.037500,32.896389,0</coordinates></Point></Placemark>
<Placemark><name>PierreGarcon85</name><description>RT @AndreBerto: S/O to the homie @PierreGarcon85 holding the flag up high http://t.co/P6LgiBUP
Sat, 19 Nov 2011 19:17:03 +0000</description><styleUrl>#hideLabel</styleUrl>
<Point><coordinates>-97.038203,32.904318,0</coordinates></Point></Placemark>
<Placemark><name>WhoIsTABOO</name><description>RT @AndreBerto: S/O to the homie @PierreGarcon85 holding the flag up high http://t.co/P6LgiBUP
Sat, 19 Nov 2011 19:18:43 +0000</description><styleUrl>#hideLabel</styleUrl>
<Point><coordinates>-97.038203,32.904318,0</coordinates></Point></Placemark>
<Placemark><name>ifster011</name><description>RT @AndreBerto: S/O to the homie @PierreGarcon85 holding the flag up high http://t.co/P6LgiBUP
Sat, 19 Nov 2011 19:21:02 +0000</description><styleUrl>#hideLabel</styleUrl>
<Point><coordinates>-97.038203,32.904318,0</coordinates></Point></Placemark>
<Placemark><name>CORLYCE</name><description>RT @AndreBerto: S/O to the homie @PierreGarcon85 holding the flag up high http://t.co/P6LgiBUP
Sat, 19 Nov 2011 19:21:48 +0000</description><styleUrl>#hideLabel</styleUrl>
<Point><coordinates>-97.038203,32.904318,0</coordinates></Point></Placemark>
<Placemark><name>IzmiraSantiago</name><description>@3martinboys and you're cooking Thursday so I'm good. What do you need me to make?
Sat, 19 Nov 2011 19:22:44 +0000</description><styleUrl>#hideLabel</styleUrl>
<Point><coordinates>-97.036800,32.903000,0</coordinates></Point></Placemark>
<Placemark><name>GKasun</name><description>Food and rest between flights. (@ T.G.I. Friday's) http://t.co/3C08zXj5
Sat, 19 Nov 2011 19:27:06 +0000</description><styleUrl>#hideLabel</styleUrl>
<Point><coordinates>-97.036100,32.904500,0</coordinates></Point></Placemark>
<Placemark><name>cshaver34</name><description>@Sn00ki @tmrivera says the girl wearing a giants jersey. #tacky
Sat, 19 Nov 2011 19:28:29 +0000</description><styleUrl>#hideLabel</styleUrl>
<Point><coordinates>-97.035700,32.902800,0</coordinates></Point></Placemark>
<Placemark><name>IzmiraSantiago</name><description>@3martinboys what a coincidence, that's my specialty
Sat, 19 Nov 2011 19:30:09 +0000</description><styleUrl>#hideLabel</styleUrl>
<Point><coordinates>-97.037200,32.904600,0</coordinates></Point></Placemark>
<Placemark><name>IzmiraSantiago</name><description>@IzmiraSantiago mac n cheese it is... We'll let mom take care of the rolls, its hard to mess those up :)
Sat, 19 Nov 2011 19:34:32 +0000</description><styleUrl>#hideLabel</styleUrl>
<Point><coordinates>-97.036800,32.903000,0</coordinates></Point></Placemark>
<Placemark><name>BryanEWallace</name><description>Waiting to greet the troops coming home from Iraq. http://t.co/jxyf8RvN
Sat, 19 Nov 2011 19:37:38 +0000</description><styleUrl>#hideLabel</styleUrl>
<Point><coordinates>-97.043000,32.907100,0</coordinates></Point></Placemark>
<Placemark><name>prevsVoice</name><description>RT @AndreBerto: S/O to the homie @PierreGarcon85 holding the flag up high http://t.co/P6LgiBUP
Sat, 19 Nov 2011 19:41:05 +0000</description><styleUrl>#hideLabel</styleUrl>
<Point><coordinates>-97.038203,32.904318,0</coordinates></Point></Placemark>
<Placemark><name>kalumjohnson</name><description>I'm at Dallas/Fort Worth International Airport (DFW) (3200 E Airfield Dr., International Pkwy., Grapevine) http://t.co/NnB7UaEi
Sat, 19 Nov 2011 19:46:53 +0000</description><styleUrl>#hideLabel</styleUrl>
<Point><coordinates>-97.037500,32.896389,0</coordinates></Point></Placemark>
<Placemark><name>derekspringer</name><description>Yeehaw, break out the cowboy hats &amp; spurs! (@ Dallas/Fort Worth International Airport (DFW) w/ 83 others) http://t.co/72x6PZQY
Sat, 19 Nov 2011 19:51:50 +0000</description><styleUrl>#hideLabel</styleUrl>
<Point><coordinates>-97.040900,32.898000,0</coordinates></Point></Placemark>
<Placemark><name>Nomad313</name><description>I'm at Dallas/Fort Worth International Airport (DFW) (3200 E Airfield Dr., International Pkwy., Grapevine) http://t.co/4A4TTwHB
Sat, 19 Nov 2011 19:52:37 +0000</description><styleUrl>#hideLabel</styleUrl>
<Point><coordinates>-97.037500,32.896389,0</coordinates></Point></Placemark>
<Placemark><name>MindyLawhorne</name><description>An outstanding life is no accident. The formula is preparation, attitude, &amp; thoughtful navigation.
Sat, 19 Nov 2011 20:01:38 +0000</description><styleUrl>#hideLabel</styleUrl>
<Point><coordinates>-97.037575,32.902538,0</coordinates></Point></Placemark>
<Placemark><name>DaveVelocity</name><description>SAn Diego! See ya in a couple hours!!!
Sat, 19 Nov 2011 20:17:45 +0000</description><styleUrl>#hideLabel</styleUrl>
<Point><coordinates>-97.030997,32.897931,0</coordinates></Point></Placemark>
<Placemark><name>Havoc06</name><description>@DanStapleton Well, I'm still in pajama pants at the moment, glued to Skyrim, so that's SOMEthing. Annoyingly, I'm hungry. Stupid stomach.
Sat, 19 Nov 2011 20:26:54 +0000</description><styleUrl>#hideLabel</styleUrl>
<Point><coordinates>-97.037849,32.907021,0</coordinates></Point></Placemark>
<Placemark><name>ChrisChino</name><description>RT @DaveVelocity: SAn Diego! See ya in a couple hours!!!
Sat, 19 Nov 2011 20:31:42 +0000</description><styleUrl>#hideLabel</styleUrl>
<Point><coordinates>-97.030997,32.897931,0</coordinates></Point></Placemark>