<?xml version="1.0" encoding="UTF-8"?><kml xmlns="http://www.opengis.net/kml/2.2"><Document>
<Style id="hideLabel"><LabelStyle><scale>0</scale></LabelStyle></Style>
<Placemark><name>AbbyLately</name><description>I'm at Bradley International Airport (BDL) (11 Schoephoester Rd, Windsor Locks) w/ 6 others http://t.co/8CIW5pLl
Fri, 18 Nov 2011 15:57:00 +0000</description><styleUrl>#hideLabel</styleUrl>
<Point><coordinates>-72.683056,41.938889,0</coordinates></Point></Placemark>
<Placemark><name>AlessandraPerna</name><description>@lifeinthehlane it's an Audi R8!
Fri, 18 Nov 2011 15:55:51 +0000</description><styleUrl>#hideLabel</styleUrl>
<Point><coordinates>-72.682400,41.929700,0</coordinates></Point></Placemark>
<Placemark><name>iajephoto</name><description>It's Friday, Friday, Friday ..... time to head home to my girl!!! (@ Bradley International Airport (BDL) w/ 11 others) http://t.co/ACCFft4M
Fri, 18 Nov 2011 17:37:40 +0000</description><styleUrl>#hideLabel</styleUrl>
<Point><coordinates>-72.684400,41.929200,0</coordinates></Point></Placemark>
<Placemark><name>ricky_wise</name><description>Getting people here to do their job here is like pulling teeth.  This helicopter is so close to getting pushed out and run up.
Fri, 18 Nov 2011 17:51:49 +0000</description><styleUrl>#hideLabel</styleUrl>
<Point><coordinates>-72.696600,41.931100,0</coordinates></Point></Placemark>
<Placemark><name>leroyjabari</name><description>I'm at Bradley International Airport (BDL) (11 Schoephoester Rd, Windsor Locks) w/ 12 others http://t.co/eSAFo8am
Fri, 18 Nov 2011 17:54:59 +0000</description><styleUrl>#hideLabel</styleUrl>
<Point><coordinates>-72.683056,41.938889,0</coordinates></Point></Placemark>
<Placemark><name>FrenchieRichon</name><description>Florida bound! (@ Bradley International Airport (BDL) w/ 10 others) http://t.co/alEQvFTG
Fri, 18 Nov 2011 18:04:30 +0000</description><styleUrl>#hideLabel</styleUrl>
<Point><coordinates>-72.684400,41.929200,0</coordinates></Point></Placemark>
<Placemark><name>prsnicketypenny</name><description>I'm at Bradley International Airport (BDL) (11 Schoephoester Rd, Windsor Locks) w/ 15 others http://t.co/CEViedls
Fri, 18 Nov 2011 18:41:09 +0000</description><styleUrl>#hideLabel</styleUrl>
<Point><coordinates>-72.683056,41.938889,0</coordinates></Point></Placemark>
<Placemark><name>ezmac008</name><description>Its always darkest before u blackout
Fri, 18 Nov 2011 19:21:32 +0000</description><styleUrl>#hideLabel</styleUrl>
<Point><coordinates>-72.673100,41.944700,0</coordinates></Point></Placemark>
<Placemark><name>kotakkk</name><description>I'm at Bradley International Airport (BDL) (11 Schoephoester Rd, Windsor Locks) w/ 14 others http://t.co/wMRDIkxS
Fri, 18 Nov 2011 19:43:29 +0000</description><styleUrl>#hideLabel</styleUrl>
<Point><coordinates>-72.683056,41.938889,0</coordinates></Point></Placemark>
<Placemark><name>gregboyd</name><description>March Forth in Providence tonight!
Fri, 18 Nov 2011 21:52:26 +0000</description><styleUrl>#hideLabel</styleUrl>
<Point><coordinates>-72.676821,41.926703,0</coordinates></Point></Placemark>
<Placemark><name>gregboyd</name><description>RT @HuffingtonPost: Was the federal government involved in #OWS crackdowns? http://t.co/kxF18Hgv
Fri, 18 Nov 2011 21:51:30 +0000</description><styleUrl>#hideLabel</styleUrl>
<Point><coordinates>-72.676821,41.926703,0</coordinates></Point></Placemark>
<Placemark><name>ChrisForman12</name><description>Wheels down in Connecticut. Used to fly out a LOT from here when I worked at UMass. @atpecina kept elbowing me in h... http://t.co/aM6zBMm7
Sat, 19 Nov 2011 00:06:44 +0000</description><styleUrl>#hideLabel</styleUrl>
<Point><coordinates>-72.672200,41.924900,0</coordinates></Point></Placemark>
<Placemark><name>exel2000</name><description>I'm at Bradley International Airport (BDL) (11 Schoephoester Rd, Windsor Locks) w/ 9 others http://t.co/ISEKmfXj
Sat, 19 Nov 2011 00:26:05 +0000</description><styleUrl>#hideLabel</styleUrl>
<Point><coordinates>-72.683056,41.938889,0</coordinates></Point></Placemark>
<Placemark><name>Mik3lynn</name><description>Landed...
Sat, 19 Nov 2011 02:31:23 +0000</description><styleUrl>#hideLabel</styleUrl>
<Point><coordinates>-72.683100,41.933600,0</coordinates></Point></Placemark>
<Placemark><name>Mik3lynn</name><description>Air is so thick....
Sat, 19 Nov 2011 02:34:47 +0000</description><styleUrl>#hideLabel</styleUrl>
<Point><coordinates>-72.683300,41.930100,0</coordinates></Point></Placemark>
<Placemark><name>Rennie1498</name><description>Heated seats =happiness on cold days
Sat, 19 Nov 2011 17:06:16 +0000</description><styleUrl>#hideLabel</styleUrl>
<Point><coordinates>-72.674200,41.925200,0</coordinates></Point></Placemark>
<Placemark><name>LoveButtSuyo</name><description>@meekstape is one of them the maker of answered prayers
Sat, 19 Nov 2011 16:56:14 +0000</description><styleUrl>#hideLabel</styleUrl>
<Point><coordinates>-72.685600,41.931100,0</coordinates></Point></Placemark>
<Placemark><name>AbbyLately</name><description>I'm at Bradley International Airport (BDL) (11 Schoephoester Rd, Windsor Locks) w/ 5 others http://t.co/aaZ83RS0
Sat, 19 Nov 2011 16:16:34 +0000</description><styleUrl>#hideLabel</styleUrl>
<Point><coordinates>-72.683056,41.938889,0</coordinates></Point></Placemark>
<Placemark><name>dlspecht</name><description>I'm at Bradley International Airport (BDL) (11 Schoephoester Rd, Windsor Locks) w/ 6 others http://t.co/pGVQ75sv
Sat, 19 Nov 2011 18:01:13 +0000</description><styleUrl>#hideLabel</styleUrl>
<Point><coordinates>-72.683056,41.938889,0</coordinates></Point></Placemark>
<Placemark><name>ltgarcia</name><description>Off to Richmond, then Williamsburg, VA! (@ Bradley International Airport (BDL) w/ 8 others) http://t.co/ag3bXOcn
Sat, 19 Nov 2011 18:14:02 +0000</description><styleUrl>#hideLabel</styleUrl>
<Point><coordinates>-72.684400,41.929200,0</coordinates></Point></Placemark>
<Placemark><name>ricky_wise</name><description>Everyday, it's like their first day.
Sat, 19 Nov 2011 18:23:12 +0000</description><styleUrl>#hideLabel</styleUrl>
<Point><coordinates>-72.673700,41.944300,0</coordinates></Point></Placemark>
<Placemark><name>jefflangan</name><description>I'm at Bradley International Airport (BDL) (11 Schoephoester Rd, Windsor Locks) w/ 13 others http://t.co/lHLBlnRj
Sat, 19 Nov 2011 19:00:25 +0000</description><styleUrl>#hideLabel</styleUrl>
<Point><coordinates>-72.683056,41.938889,0</coordinates></Point></Placemark>
<Placemark><name>joeyblackjack</name><description>I'm at Bradley International Airport (BDL) (11 Schoephoester Rd, Windsor Locks) w/ 13 others http://t.co/n5tzrlrV
Sat, 19 Nov 2011 18:59:15 +0000</description><styleUrl>#hideLabel</styleUrl>
<Point><coordinates>-72.683056,41.938889,0</coordinates></Point></Placemark>
<Placemark><name>MatthewMontoya_</name><description>A little preview for next week. (@ New England Air Museum) http://t.co/MV7bQLpT
Sat, 19 Nov 2011 19:06:02 +0000</description><styleUrl>#hideLabel</styleUrl>
<Point><coordinates>-72.691400,41.947100,0</coordinates></Point></Placemark>
<Placemark><name>Dave_van_Gelder</name><description>Waiting for my flight to Philedelphia. (@ Gate 27) http://t.co/fNBcs7dA
Sat, 19 Nov 2011 19:38:52 +0000</description><styleUrl>#hideLabel</styleUrl>
<Point><coordinates>-72.684100,41.931200,0</coordinates></Point></Placemark>
<Placemark><name>allie42989</name><description>I'm at Bradley International Airport (BDL) (11 Schoephoester Rd, Windsor Locks) w/ 17 others http://t.co/UCYOGHIM
Sat, 19 Nov 2011 20:13:04 +0000</description><styleUrl>#hideLabel</styleUrl>
<Point><coordinates>-72.683056,41.938889,0</coordinates></Point></Placemark>
<Placemark><name>DroAntonio</name><description>Looking forward to working with Gino Chapman @ his Pureform cutting seminar:)
Sat, 19 Nov 2011 22:30:43 +0000</description><styleUrl>#hideLabel</styleUrl>
<Point><coordinates>-72.684200,41.931200,0</coordinates></Point></Placemark>
<Placemark><name>gregboyd</name><description>I just unlocked the &quot;Bento&quot; badge on @foursquare! Irasshaimase! http://t.co/3D3LxNVs
Sat, 19 Nov 2011 23:03:02 +0000</description><styleUrl>#hideLabel</styleUrl>
<Point><coordinates>-72.676821,41.926703,0</coordinates></Point></Placemark>
<Placemark><name>omgitsayand</name><description>RT @DrThrill: @QueenSheba2787 @ekhormeku @omgitsayand oh boy. That wud be interestin--&gt;indeed!
Sun, 20 Nov 2011 01:06:50 +0000</description><styleUrl>#hideLabel</styleUrl>
<Point><coordinates>-72.701184,41.929867,0</coordinates></Point></Placemark>
<Placemark><name>gmortyortega</name><description>Gonna be home with the family. ¡Llegando a casa con mi familia! (@ Bradley International Airport) http://t.co/2QL55Q5G
Sun, 20 Nov 2011 02:55:55 +0000</description><styleUrl>#hideLabel</styleUrl>
<Point><coordinates>-72.684000,41.933000,0</coordinates></Point></Placemark>
<Placemark><name>brrennaaa</name><description>I'm at Bradley International Airport (BDL) (11 Schoephoester Rd, Windsor Locks) w/ 4 others http://t.co/zzXdQdvH
Sun, 20 Nov 2011 05:50:14 +0000</description><styleUrl>#hideLabel</styleUrl>
<Point><coordinates>-72.683056,41.938889,0</coordinates></Point></Placemark>
<Placemark><name>leroyjabari</name><description>It's too early (@ Bradley International Airport (BDL) w/ 2 others) http://t.co/4gqgI0ba
Sun, 20 Nov 2011 08:47:41 +0000</description><styleUrl>#hideLabel</styleUrl>
<Point><coordinates>-72.684400,41.929200,0</coordinates></Point></Placemark>
<Placemark><name>omgitsayand</name><description>You may believe that your imagination can conjure up a wonderf... More for Aries http://t.co/IskwRibb
Sun, 20 Nov 2011 11:13:41 +0000</description><styleUrl>#hideLabel</styleUrl>
<Point><coordinates>-72.701184,41.929867,0</coordinates></Point></Placemark>
<Placemark><name>bobbydelarosa</name><description>Heading back to Texas
Sun, 20 Nov 2011 15:54:14 +0000</description><styleUrl>#hideLabel</styleUrl>
<Point><coordinates>-72.682800,41.929800,0</coordinates></Point></Placemark>
<Placemark><name>omgitsayand</name><description>workout flow....
Sun, 20 Nov 2011 16:28:58 +0000</description><styleUrl>#hideLabel</styleUrl>
<Point><coordinates>-72.701184,41.929867,0</coordinates></Point></Placemark>
<Placemark><name>EricManly</name><description>I'm at Bradley International Airport (BDL) (11 Schoephoester Rd, Windsor Locks) w/ 4 others http://t.co/LfPJMztq
Sun, 20 Nov 2011 17:23:41 +0000</description><styleUrl>#hideLabel</styleUrl>
<Point><coordinates>-72.683056,41.938889,0</coordinates></Point></Placemark>
<Placemark><name>DanielAFerguson</name><description>I'm at Bradley International Airport (BDL) (11 Schoephoester Rd, Windsor Locks) w/ 3 others http://t.co/ZL2dSx28
Sun, 20 Nov 2011 17:47:58 +0000</description><styleUrl>#hideLabel</styleUrl>
<Point><coordinates>-72.683056,41.938889,0</coordinates></Point></Placemark>
<Placemark><name>wick98</name><description>Atlanta bound. (@ Bradley International Airport) http://t.co/E3n2cll4
Sun, 20 Nov 2011 18:19:20 +0000</description><styleUrl>#hideLabel</styleUrl>
<Point><coordinates>-72.672200,41.924900,0</coordinates></Point></Placemark>
<Placemark><name>VINR10</name><description>Vin is back Connecticut! I know you've missed me!
Sun, 20 Nov 2011 18:40:23 +0000</description><styleUrl>#hideLabel</styleUrl>
<Point><coordinates>-72.675100,41.923100,0</coordinates></Point></Placemark>
<Placemark><name>VINR10</name><description>@jacciixo no booing just love
Sun, 20 Nov 2011 18:58:47 +0000</description><styleUrl>#hideLabel</styleUrl>
<Point><coordinates>-72.675100,41.923200,0</coordinates></Point></Placemark>
<Placemark><name>timstrel</name><description>Home 4 Thanksgiving the back on the grind!! It's a grind but I love my job!! [pic]: http://t.co/6omna3fi
Sun, 20 Nov 2011 19:45:38 +0000</description><styleUrl>#hideLabel</styleUrl>
<Point><coordinates>-72.684400,41.929200,0</coordinates></Point></Placemark>
<Placemark><name>itsSHANGELA</name><description>@NICKIMINAJ I'll be watching the AMAs 2nite to see Nicki Turn the Party with Turn Me On! #Halleloo #PinkFridayFish
Sun, 20 Nov 2011 20:00:02 +0000</description><styleUrl>#hideLabel</styleUrl>
<Point><coordinates>-72.684000,41.931500,0</coordinates></Point></Placemark>
<Placemark><name>itsSHANGELA</name><description>B! Please don't take my husband @BravoAndy! I'm marching for marraige rights just so he can put a ring on it! RT @lovebscott hi muffin
Sun, 20 Nov 2011 19:58:40 +0000</description><styleUrl>#hideLabel</styleUrl>
<Point><coordinates>-72.684000,41.931500,0</coordinates></Point></Placemark>
<Placemark><name>itsSHANGELA</name><description>@ThePandoraBoxx ....And keep ur shoes on!
Sun, 20 Nov 2011 20:01:22 +0000</description><styleUrl>#hideLabel</styleUrl>
<Point><coordinates>-72.684000,41.931500,0</coordinates></Point></Placemark>
<Placemark><name>itsSHANGELA</name><description>@ThePandoraBoxx Have fun Aussie Fish! :)
Sun, 20 Nov 2011 20:01:07 +0000</description><styleUrl>#hideLabel</styleUrl>
<Point><coordinates>-72.684000,41.931500,0</coordinates></Point></Placemark>
<Placemark><name>itsSHANGELA</name><description>Now how is me drooling all over the trade gonna help?! RT @jdoyle4: @itsSHANGELA just fall asleep mouth open in his lap, or get him drunk :)
Sun, 20 Nov 2011 20:21:41 +0000</description><styleUrl>#hideLabel</styleUrl>
<Point><coordinates>-72.671300,41.931100,0</coordinates></Point></Placemark>
<Placemark><name>itsSHANGELA</name><description>I'm not watching any more Reese Witherspoon or JLo movies before noon!! #MushyFish
Sun, 20 Nov 2011 20:20:55 +0000</description><styleUrl>#hideLabel</styleUrl>
<Point><coordinates>-72.671300,41.931100,0</coordinates></Point></Placemark>
<Placemark><name>itsSHANGELA</name><description>Why am I in such a love mood?....must be the damn holidays...oh Lord. Watch out! LaQuifa's on the prowl! Lol
Sun, 20 Nov 2011 20:19:54 +0000</description><styleUrl>#hideLabel</styleUrl>
<Point><coordinates>-72.671300,41.931100,0</coordinates></Point></Placemark>
<Placemark><name>itsSHANGELA</name><description>Just sat down on the plane next to the finest trade! If this were a romantic comedy, by the time we land I'd be engaged or married mid-air!
Sun, 20 Nov 2011 20:18:59 +0000</description><styleUrl>#hideLabel</styleUrl>
<Point><coordinates>-72.671300,41.931100,0</coordinates></Point></Placemark>
<Placemark><name>itsSHANGELA</name><description>Excited to go home to see my Mom and Granny...and all the Fam! And I'm comin with an appetite! :)
Sun, 20 Nov 2011 20:30:03 +0000</description><styleUrl>#hideLabel</styleUrl>
<Point><coordinates>-72.671300,41.931100,0</coordinates></Point></Placemark>
<Placemark><name>itsSHANGELA</name><description>@TheeFrancisco muah!
Sun, 20 Nov 2011 20:29:06 +0000</description><styleUrl>#hideLabel</styleUrl>
<Point><coordinates>-72.671300,41.931100,0</coordinates></Point></Placemark>
<Placemark><name>itsSHANGELA</name><description>@JuniorTorezani Home for the holidays!! Excited to go see my Mom and Granny! :)
Sun, 20 Nov 2011 20:28:29 +0000</description><styleUrl>#hideLabel</styleUrl>
<Point><coordinates>-72.671300,41.931100,0</coordinates></Point></Placemark>
<Placemark><name>Rennie1498</name><description>Gotta love working Sundays. :) http://t.co/gOelhLlp
Sun, 20 Nov 2011 20:27:54 +0000</description><styleUrl>#hideLabel</styleUrl>
<Point><coordinates>-72.675900,41.925700,0</coordinates></Point></Placemark>
<Placemark><name>islanderpr</name><description>I'm at Bradley International Airport (BDL) (11 Schoephoester Rd, Windsor Locks) w/ 8 others http://t.co/USgJjrMP
Sun, 20 Nov 2011 20:51:33 +0000</description><styleUrl>#hideLabel</styleUrl>
<Point><coordinates>-72.683056,41.938889,0</coordinates></Point></Placemark>
<Placemark><name>Belbey</name><description>Last time I was here, was driven home by NASCAR driver. In blinding snowstorm (@ Bradley International Airport (BDL)) http://t.co/pqc6S6M0
Sun, 20 Nov 2011 23:20:00 +0000</description><styleUrl>#hideLabel</styleUrl>
<Point><coordinates>-72.684400,41.929200,0</coordinates></Point></Placemark>
<Placemark><name>senorgloss</name><description>I'm at Bradley International Airport (BDL) (11 Schoephoester Rd, Windsor Locks) w/ 12 others http://t.co/I9rnL1nq
Sun, 20 Nov 2011 23:25:05 +0000</description><styleUrl>#hideLabel</styleUrl>
<Point><coordinates>-72.683056,41.938889,0</coordinates></Point></Placemark>
<Placemark><name>j_thies</name><description>@mikesw0826 early actually
Sun, 20 Nov 2011 23:37:13 +0000</description><styleUrl>#hideLabel</styleUrl>
<Point><coordinates>-72.695900,41.933300,0</coordinates></Point></Placemark>
<Placemark><name>j_thies</name><description>@mikesw0826 right on time!
Sun, 20 Nov 2011 23:36:47 +0000</description><styleUrl>#hideLabel</styleUrl>
<Point><coordinates>-72.688500,41.935400,0</coordinates></Point></Placemark>
<Placemark><name>j_thies</name><description>@mikesw0826 why'd you respond then
Sun, 20 Nov 2011 23:35:06 +0000</description><styleUrl>#hideLabel</styleUrl>
<Point><coordinates>-72.667600,41.941500,0</coordinates></Point></Placemark>
<Placemark><name>omgitsayand</name><description>just saw Twilight Breaking Dawn Pt 1 w/ my sisters....#AMAZING
Mon, 21 Nov 2011 00:59:17 +0000</description><styleUrl>#hideLabel</styleUrl>
<Point><coordinates>-72.701184,41.929867,0</coordinates></Point></Placemark>
<Placemark><name>scottconnor</name><description>...and we're back. (@ Bradley International Airport (BDL) w/ 5 others) http://t.co/8oehKtiR
Mon, 21 Nov 2011 03:05:32 +0000</description><styleUrl>#hideLabel</styleUrl>
<Point><coordinates>-72.684400,41.929200,0</coordinates></Point></Placemark>
<Placemark><name>jimlaposta</name><description>I'm at Bradley International Airport (BDL) (11 Schoephoester Rd, Windsor Locks) w/ 2 others http://t.co/AuylOgrl
Mon, 21 Nov 2011 09:44:21 +0000</description><styleUrl>#hideLabel</styleUrl>
<Point><coordinates>-72.683056,41.938889,0</coordinates></Point></Placemark>
<Placemark><name>MGrEimm</name><description>Flight in the mornin..
Mon, 21 Nov 2011 10:36:22 +0000</description><styleUrl>#hideLabel</styleUrl>
<Point><coordinates>-72.674700,41.926600,0</coordinates></Point></Placemark>
<Placemark><name>omgitsayand</name><description>You might be very appreciative of a long-time partner or a ste... More for Aries http://t.co/IskwRibb
Mon, 21 Nov 2011 11:18:57 +0000</description><styleUrl>#hideLabel</styleUrl>
<Point><coordinates>-72.701184,41.929867,0</coordinates></Point></Placemark>
<Placemark><name>leroyjabari</name><description>I'm at Bradley International Airport (BDL) (11 Schoephoester Rd, Windsor Locks) w/ 6 others http://t.co/ZtB8Ihuw
Mon, 21 Nov 2011 11:29:47 +0000</description><styleUrl>#hideLabel</styleUrl>
<Point><coordinates>-72.683056,41.938889,0</coordinates></Point></Placemark>
<Placemark><name>JB117</name><description>Boston was the sh!t. Connecticut was boring and cold. After a layover in Baltimore, it's home sweet home. #ILoveLA http://t.co/vwYQkQc2
Mon, 21 Nov 2011 12:56:39 +0000</description><styleUrl>#hideLabel</styleUrl>
<Point><coordinates>-72.684400,41.929200,0</coordinates></Point></Placemark>
<Placemark><name>JB117</name><description>Sitting in the airport people watching. I can't wait to get back home.
Mon, 21 Nov 2011 14:15:31 +0000</description><styleUrl>#hideLabel</styleUrl>
<Point><coordinates>-72.676700,41.924400,0</coordinates></Point></Placemark>
<Placemark><name>KellyAnneLewis</name><description>@youngfollowill happy quarter century bday!
Mon, 21 Nov 2011 14:52:20 +0000</description><styleUrl>#hideLabel</styleUrl>
<Point><coordinates>-72.666100,41.931600,0</coordinates></Point></Placemark>
<Placemark><name>ricky_wise</name><description>Went into work on my day off, took about 15 minutes and I lost motivation. It's too nice out, gonna go #flying instead.
Mon, 21 Nov 2011 16:14:15 +0000</description><styleUrl>#hideLabel</styleUrl>
<Point><coordinates>-72.672400,41.944400,0</coordinates></Point></Placemark>
<Placemark><name>KellyAnneLewis</name><description>I'm high but I'm grounded
Mon, 21 Nov 2011 16:38:32 +0000</description><styleUrl>#hideLabel</styleUrl>
<Point><coordinates>-72.666400,41.932000,0</coordinates></Point></Placemark>
<Placemark><name>EricManly</name><description>I'm at Bradley International Airport (BDL) (11 Schoephoester Rd, Windsor Locks) http://t.co/znWnksT2
Mon, 21 Nov 2011 17:23:22 +0000</description><styleUrl>#hideLabel</styleUrl>
<Point><coordinates>-72.683056,41.938889,0</coordinates></Point></Placemark>
<Placemark><name>omgitsayand</name><description>much needed lunch break!
Mon, 21 Nov 2011 17:35:01 +0000</description><styleUrl>#hideLabel</styleUrl>
<Point><coordinates>-72.701184,41.929867,0</coordinates></Point></Placemark>
<Placemark><name>wendymay</name><description>The show at @HouseOfComedyMN this week is going to be awesome!
Mon, 21 Nov 2011 17:41:32 +0000</description><styleUrl>#hideLabel</styleUrl>
<Point><coordinates>-72.678500,41.940100,0</coordinates></Point></Placemark>
<Placemark><name>wendymay</name><description>I am sitting next to a raging stress monkey. As soon as she conks out, I am photographing it. *if* she conks out-- this girl is wound up!
Mon, 21 Nov 2011 17:41:28 +0000</description><styleUrl>#hideLabel</styleUrl>
<Point><coordinates>-72.678500,41.940100,0</coordinates></Point></Placemark>
<Placemark><name>wendymay</name><description>@MCDS_Patrick @houseofcomedymn nope. Old tweet. Just plugging for you! :) you featuring?
Mon, 21 Nov 2011 17:43:38 +0000</description><styleUrl>#hideLabel</styleUrl>
<Point><coordinates>-72.680900,41.931900,0</coordinates></Point></Placemark>
<Placemark><name>AbbyLately</name><description>Come buy 3 items n a backscratcher im before security! (@ Bradley International Airport (BDL) w/ @ericmanly) http://t.co/jv8huK4l
Mon, 21 Nov 2011 18:08:53 +0000</description><styleUrl>#hideLabel</styleUrl>
<Point><coordinates>-72.684400,41.929200,0</coordinates></Point></Placemark>
<Placemark><name>gracee5</name><description>SO PUMPED WOO
Mon, 21 Nov 2011 18:58:45 +0000</description><styleUrl>#hideLabel</styleUrl>
<Point><coordinates>-72.685400,41.929900,0</coordinates></Point></Placemark>
<Placemark><name>gracee5</name><description>@TheBadddBitch hehe me too!! Thanks girl ;)
Mon, 21 Nov 2011 18:58:04 +0000</description><styleUrl>#hideLabel</styleUrl>
<Point><coordinates>-72.675300,41.926700,0</coordinates></Point></Placemark>
<Placemark><name>vivekbd</name><description>Spain Tourism received 600,000 enquiries from India after the release of Bollywood's Zindagi Naa Milegi Dobara - Economic Times”
Mon, 21 Nov 2011 20:10:09 +0000</description><styleUrl>#hideLabel</styleUrl>
<Point><coordinates>-72.685453,41.925964,0</coordinates></Point></Placemark>
<Placemark><name>_jak_attack</name><description>I'm home bitches. (@ Bradley International Airport (BDL) w/ 8 others) http://t.co/IeseFzaH
Mon, 21 Nov 2011 21:05:47 +0000</description><styleUrl>#hideLabel</styleUrl>
<Point><coordinates>-72.684400,41.929200,0</coordinates></Point></Placemark>
<Placemark><name>alekrsmith</name><description>@mal17mal sorry I missed ya! stay outta trouble in the sted I'll see you over xmas break
Mon, 21 Nov 2011 23:13:24 +0000</description><styleUrl>#hideLabel</styleUrl>
<Point><coordinates>-72.685800,41.930900,0</coordinates></Point></Placemark>
<Placemark><name>Caitklein1</name><description>My grammas so confused about Facebook.
Tue, 22 Nov 2011 01:15:13 +0000</description><styleUrl>#hideLabel</styleUrl>
<Point><coordinates>-72.670400,41.925300,0</coordinates></Point></Placemark>
<Placemark><name>Caitklein1</name><description>Grams killing it tonight, were discussing her grillzzz. #Notthekindyoucookon
Tue, 22 Nov 2011 01:18:37 +0000</description><styleUrl>#hideLabel</styleUrl>
<Point><coordinates>-72.670400,41.925300,0</coordinates></Point></Placemark>
<Placemark><name>djBenStep</name><description>On my ct shit. Wadddup 860???
Tue, 22 Nov 2011 02:21:25 +0000</description><styleUrl>#hideLabel</styleUrl>
<Point><coordinates>-72.683300,41.930000,0</coordinates></Point></Placemark>
<Placemark><name>jmdgibson</name><description>I'm at Bradley International Airport (BDL) (11 Schoephoester Rd, Windsor Locks) w/ 4 others http://t.co/c28ZRP0Q
Tue, 22 Nov 2011 03:09:11 +0000</description><styleUrl>#hideLabel</styleUrl>
<Point><coordinates>-72.683056,41.938889,0</coordinates></Point></Placemark>
<Placemark><name>leroyjabari</name><description>I'm at Bradley International Airport (BDL) (11 Schoephoester Rd, Windsor Locks) http://t.co/BpuWRWqi
Tue, 22 Nov 2011 09:19:43 +0000</description><styleUrl>#hideLabel</styleUrl>
<Point><coordinates>-72.683056,41.938889,0</coordinates></Point></Placemark>
<Placemark><name>omgitsayand</name><description>You might become agitated by something that seems to be just b... More for Aries http://t.co/IskwRibb
Tue, 22 Nov 2011 10:58:26 +0000</description><styleUrl>#hideLabel</styleUrl>
<Point><coordinates>-72.701184,41.929867,0</coordinates></Point></Placemark>
<Placemark><name>Royce3D</name><description>I guess today is finally the day where they got me for my face wash at security...#happythanksgiving http://t.co/nb58x74l
Tue, 22 Nov 2011 11:22:03 +0000</description><styleUrl>#hideLabel</styleUrl>
<Point><coordinates>-72.684400,41.929200,0</coordinates></Point></Placemark>
<Placemark><name>Capta1nCam</name><description>Why cant I be on that plane? #toofresh http://t.co/RP3mWtTM
Tue, 22 Nov 2011 12:00:27 +0000</description><styleUrl>#hideLabel</styleUrl>
<Point><coordinates>-72.674900,41.925700,0</coordinates></Point></Placemark>
<Placemark><name>gregoree</name><description>Enterprise, if you have a giant line at the dense then you probably need to be open.
Tue, 22 Nov 2011 12:00:18 +0000</description><styleUrl>#hideLabel</styleUrl>
<Point><coordinates>-72.667900,41.925000,0</coordinates></Point></Placemark>
<Placemark><name>gregoree</name><description>New England runs on Dunkin.
Tue, 22 Nov 2011 12:30:39 +0000</description><styleUrl>#hideLabel</styleUrl>
<Point><coordinates>-72.684400,41.931100,0</coordinates></Point></Placemark>
<Placemark><name>gregoree</name><description>I love getting scolded for having my seat back down when it is actually broken. You'd think they know, they fly the same planes all day.
Tue, 22 Nov 2011 12:55:39 +0000</description><styleUrl>#hideLabel</styleUrl>
<Point><coordinates>-72.675700,41.923700,0</coordinates></Point></Placemark>
<Placemark><name>omgitsayand</name><description>Hope this isn't a sign of the day to come...
Tue, 22 Nov 2011 12:43:06 +0000</description><styleUrl>#hideLabel</styleUrl>
<Point><coordinates>-72.701184,41.929867,0</coordinates></Point></Placemark>
<Placemark><name>BenFoleyMIE</name><description>On plane. FL here I come bitches. #CadillacRentalCarSwag
Tue, 22 Nov 2011 12:56:50 +0000</description><styleUrl>#hideLabel</styleUrl>
<Point><coordinates>-72.681900,41.930200,0</coordinates></Point></Placemark>
<Placemark><name>BenFoleyMIE</name><description>@TimLarew there is a guy on my plane to fl that looks EXACTLY like you
Tue, 22 Nov 2011 13:02:27 +0000</description><styleUrl>#hideLabel</styleUrl>
<Point><coordinates>-72.675300,41.923400,0</coordinates></Point></Placemark>
<Placemark><name>gregoree</name><description>I am at a carrefour in my life.
Tue, 22 Nov 2011 13:08:17 +0000</description><styleUrl>#hideLabel</styleUrl>
<Point><coordinates>-72.691200,41.941900,0</coordinates></Point></Placemark>
<Placemark><name>KellyAnneLewis</name><description>That awkward moment when you know someone is thinking about you and you just don't give a fuck
Tue, 22 Nov 2011 14:23:32 +0000</description><styleUrl>#hideLabel</styleUrl>
<Point><coordinates>-72.666200,41.931900,0</coordinates></Point></Placemark>
<Placemark><name>ApriliaLac</name><description>I'm at Bradley International Airport (BDL) (11 Schoephoester Rd, Windsor Locks) w/ 11 others http://t.co/Gd5qjhOT
Tue, 22 Nov 2011 15:06:36 +0000</description><styleUrl>#hideLabel</styleUrl>
<Point><coordinates>-72.683056,41.938889,0</coordinates></Point></Placemark>
<Placemark><name>KellyAnneLewis</name><description>@NickDiCiancia lol it's a joke geek
Tue, 22 Nov 2011 16:03:28 +0000</description><styleUrl>#hideLabel</styleUrl>
<Point><coordinates>-72.666200,41.931800,0</coordinates></Point></Placemark>
<Placemark><name>KellyAnneLewis</name><description>Get a bandaid your cut!
Tue, 22 Nov 2011 16:12:01 +0000</description><styleUrl>#hideLabel</styleUrl>
<Point><coordinates>-72.666200,41.931900,0</coordinates></Point></Placemark>
<Placemark><name>omgitsayand</name><description>first @QueenSheba2787 used to drag me to nyc every wknd, now @MsNandiM is picking up the slack! I'm thinking about it girl...
Tue, 22 Nov 2011 16:22:12 +0000</description><styleUrl>#hideLabel</styleUrl>
<Point><coordinates>-72.701184,41.929867,0</coordinates></Point></Placemark>
<Placemark><name>JulianneKrutka</name><description>Airport is much quieter than I expected...that's a good thing! – at BDL Departures http://t.co/iCXUiEAh
Tue, 22 Nov 2011 16:59:57 +0000</description><styleUrl>#hideLabel</styleUrl>
<Point><coordinates>-72.684300,41.929100,0</coordinates></Point></Placemark>
<Placemark><name>EricManly</name><description>I'm at Bradley International Airport (BDL) (11 Schoephoester Rd, Windsor Locks) w/ 6 others http://t.co/amf1yPiN
Tue, 22 Nov 2011 17:20:38 +0000</description><styleUrl>#hideLabel</styleUrl>
<Point><coordinates>-72.683056,41.938889,0</coordinates></Point></Placemark>
<Placemark><name>ricky_wise</name><description>1 payment to go and I'm shoveling another $400 into the canyonero today. #WTF
Tue, 22 Nov 2011 17:26:08 +0000</description><styleUrl>#hideLabel</styleUrl>
<Point><coordinates>-72.672700,41.945300,0</coordinates></Point></Placemark>
<Placemark><name>Jillian_Wood</name><description>Well CT, ya havnt changed one bit. Although, I can sense the Holidays. #pro
Tue, 22 Nov 2011 19:11:34 +0000</description><styleUrl>#hideLabel</styleUrl>
<Point><coordinates>-72.674900,41.925700,0</coordinates></Point></Placemark>
<Placemark><name>Jillian_Wood</name><description>@jimmyjet2001 I know babe, but it'll be worth it once we get to see eachother again! &lt;3
Tue, 22 Nov 2011 19:10:58 +0000</description><styleUrl>#hideLabel</styleUrl>
<Point><coordinates>-72.674900,41.925700,0</coordinates></Point></Placemark>
<Placemark><name>omgitsayand</name><description>RT @DrThrill: Lmao the sexy body Asian chick at my job came up to me n said &quot;You are hot. You are a hot man&quot; #dead-&gt;so that's what u like?
Tue, 22 Nov 2011 19:31:28 +0000</description><styleUrl>#hideLabel</styleUrl>
<Point><coordinates>-72.701184,41.929867,0</coordinates></Point></Placemark>
<Placemark><name>dj_walt</name><description>Finally in CT (@ Bradley International Airport (BDL) w/ 4 others) http://t.co/QEZoPNwo
Tue, 22 Nov 2011 21:20:22 +0000</description><styleUrl>#hideLabel</styleUrl>
<Point><coordinates>-72.684400,41.929200,0</coordinates></Point></Placemark>
<Placemark><name>brittney321995</name><description>@nflanaghan yesss ;) send me a pictures of yours!
Tue, 22 Nov 2011 21:44:36 +0000</description><styleUrl>#hideLabel</styleUrl>
<Point><coordinates>-72.681400,41.925800,0</coordinates></Point></Placemark>
<Placemark><name>donato_jd</name><description>I'm at Bradley International Airport (BDL) (11 Schoephoester Rd, Windsor Locks) w/ 11 others http://t.co/qiaKhEVn
Tue, 22 Nov 2011 22:35:38 +0000</description><styleUrl>#hideLabel</styleUrl>
<Point><coordinates>-72.683056,41.938889,0</coordinates></Point></Placemark>
<Placemark><name>michaelsobota</name><description>@awesumvin you would follow and mention @vanhouttecoffee
Wed, 23 Nov 2011 00:41:46 +0000</description><styleUrl>#hideLabel</styleUrl>
<Point><coordinates>-72.675100,41.923200,0</coordinates></Point></Placemark>
<Placemark><name>omgitsayand</name><description>RT @DrThrill: Yo Juelz baby moms is bad as fuck--&gt;hmmm debatable
Wed, 23 Nov 2011 01:49:15 +0000</description><styleUrl>#hideLabel</styleUrl>
<Point><coordinates>-72.701184,41.929867,0</coordinates></Point></Placemark>
<Placemark><name>cpro3</name><description>I'm at Bradley International Airport (BDL) (11 Schoephoester Rd, Windsor Locks) w/ 4 others http://t.co/9voM7w9L
Wed, 23 Nov 2011 03:06:50 +0000</description><styleUrl>#hideLabel</styleUrl>
<Point><coordinates>-72.683056,41.938889,0</coordinates></Point></Placemark>
<Placemark><name>ctp</name><description>Landed, finally. Hello, east coast. – at BDL Bradley International http://t.co/D5TEhTfI
Wed, 23 Nov 2011 04:27:22 +0000</description><styleUrl>#hideLabel</styleUrl>
<Point><coordinates>-72.684300,41.931500,0</coordinates></Point></Placemark>
<Placemark><name>BradLindemann</name><description>I'm at Bradley International Airport (BDL) (11 Schoephoester Rd, Windsor Locks) w/ 5 others http://t.co/A4TiC2do
Wed, 23 Nov 2011 10:07:29 +0000</description><styleUrl>#hideLabel</styleUrl>
<Point><coordinates>-72.683056,41.938889,0</coordinates></Point></Placemark>
<Placemark><name>omgitsayand</name><description>Reaching your career objectives or finding your life's purpose... More for Aries http://t.co/IskwRibb
Wed, 23 Nov 2011 10:58:57 +0000</description><styleUrl>#hideLabel</styleUrl>
<Point><coordinates>-72.701184,41.929867,0</coordinates></Point></Placemark>
<Placemark><name>kevinebaugh</name><description>Puerto Rico here we come! – at BDL Bradley International http://t.co/NfH8u4nk
Wed, 23 Nov 2011 11:06:08 +0000</description><styleUrl>#hideLabel</styleUrl>
<Point><coordinates>-72.684300,41.931500,0</coordinates></Point></Placemark>
<Placemark><name>d1domenique</name><description>I need me a flyin buddy 4 tha day
Wed, 23 Nov 2011 12:11:01 +0000</description><styleUrl>#hideLabel</styleUrl>
<Point><coordinates>-72.685000,41.930100,0</coordinates></Point></Placemark>
<Placemark><name>d1domenique</name><description>Wow this airport McDs is OD!! I should b able 2 get 5 sausage biscuits nd a drink 4 this damn price #smh http://t.co/oR3kATWf
Wed, 23 Nov 2011 12:10:29 +0000</description><styleUrl>#hideLabel</styleUrl>
<Point><coordinates>-72.668700,41.928200,0</coordinates></Point></Placemark>
<Placemark><name>d1domenique</name><description>Y i still got this pic in my wallet . . . D1 gon hav 2 regulate on Dommy this early #D1vsDommy
Wed, 23 Nov 2011 12:20:21 +0000</description><styleUrl>#hideLabel</styleUrl>
<Point><coordinates>-72.685100,41.930100,0</coordinates></Point></Placemark>
<Placemark><name>d1domenique</name><description>damn she had tha cakes . . . But she at a diff gate
Wed, 23 Nov 2011 12:45:54 +0000</description><styleUrl>#hideLabel</styleUrl>
<Point><coordinates>-72.682600,41.929700,0</coordinates></Point></Placemark>
<Placemark><name>d1domenique</name><description>#nf @Royal2955 #teamfollowback
Wed, 23 Nov 2011 12:42:53 +0000</description><styleUrl>#hideLabel</styleUrl>
<Point><coordinates>-72.682600,41.929700,0</coordinates></Point></Placemark>
<Placemark><name>d1domenique</name><description>so if a sausage biscuit here is 2.19 wuts it like $4 a bottle water?? #madness
Wed, 23 Nov 2011 12:53:01 +0000</description><styleUrl>#hideLabel</styleUrl>
<Point><coordinates>-72.682600,41.929700,0</coordinates></Point></Placemark>
<Placemark><name>d1domenique</name><description>I need a shave nd lineup . . . Nd i wuz jus at tha barber on friday -__-
Wed, 23 Nov 2011 12:56:29 +0000</description><styleUrl>#hideLabel</styleUrl>
<Point><coordinates>-72.682600,41.929700,0</coordinates></Point></Placemark>
<Placemark><name>d1domenique</name><description>yah them 2 can get it . . .
Wed, 23 Nov 2011 13:01:27 +0000</description><styleUrl>#hideLabel</styleUrl>
<Point><coordinates>-72.682600,41.929700,0</coordinates></Point></Placemark>
<Placemark><name>d1domenique</name><description>this beats hot but i aint payin no attention wut this nigga sayin lol
Wed, 23 Nov 2011 12:59:36 +0000</description><styleUrl>#hideLabel</styleUrl>
<Point><coordinates>-72.682600,41.929700,0</coordinates></Point></Placemark>
<Placemark><name>d1domenique</name><description>dommy u a herb u kno u aint talk 2 em. This a job 4 D1 #D1vsDommy
Wed, 23 Nov 2011 13:04:00 +0000</description><styleUrl>#hideLabel</styleUrl>
<Point><coordinates>-72.680100,41.931700,0</coordinates></Point></Placemark>
<Placemark><name>d1domenique</name><description>cot damn this flight packd
Wed, 23 Nov 2011 13:08:17 +0000</description><styleUrl>#hideLabel</styleUrl>
<Point><coordinates>-72.687000,41.930700,0</coordinates></Point></Placemark>
<Placemark><name>d1domenique</name><description>off 2 baltimore then nashville
Wed, 23 Nov 2011 13:15:02 +0000</description><styleUrl>#hideLabel</styleUrl>
<Point><coordinates>-72.695200,41.932400,0</coordinates></Point></Placemark>
<Placemark><name>d1domenique</name><description>yah no shot no of these white ppl sittin between 2 niggaz
Wed, 23 Nov 2011 13:13:53 +0000</description><styleUrl>#hideLabel</styleUrl>
<Point><coordinates>-72.694700,41.932300,0</coordinates></Point></Placemark>
<Placemark><name>EricManly</name><description>I'm at Bradley International Airport (BDL) (11 Schoephoester Rd, Windsor Locks) w/ 10 others http://t.co/i7taYemw
Wed, 23 Nov 2011 13:19:01 +0000</description><styleUrl>#hideLabel</styleUrl>
<Point><coordinates>-72.683056,41.938889,0</coordinates></Point></Placemark>
<Placemark><name>chrisgolden</name><description>Good Morning! Bumpy flight through the rain clouds... (@ Bradley International Airport (BDL) w/ 11 others) http://t.co/4NWLor5x
Wed, 23 Nov 2011 13:32:15 +0000</description><styleUrl>#hideLabel</styleUrl>
<Point><coordinates>-72.684400,41.929200,0</coordinates></Point></Placemark>
<Placemark><name>TAbarzua</name><description>It's raining? What's rain? And what are trees? It's been a while
Wed, 23 Nov 2011 13:37:36 +0000</description><styleUrl>#hideLabel</styleUrl>
<Point><coordinates>-72.694700,41.937200,0</coordinates></Point></Placemark>
<Placemark><name>TAbarzua</name><description>Talking to @jenskibek 's brother in the airport
Wed, 23 Nov 2011 13:48:11 +0000</description><styleUrl>#hideLabel</styleUrl>
<Point><coordinates>-72.675200,41.923000,0</coordinates></Point></Placemark>
<Placemark><name>TAbarzua</name><description>@kifafaaaaaa hahah how was the homecoming with all your girls?
Wed, 23 Nov 2011 13:54:11 +0000</description><styleUrl>#hideLabel</styleUrl>
<Point><coordinates>-72.685300,41.929400,0</coordinates></Point></Placemark>
<Placemark><name>MegMac002</name><description>Hello Connecticut! Let the five days of binge drinking and eating begin!
Wed, 23 Nov 2011 14:12:20 +0000</description><styleUrl>#hideLabel</styleUrl>
<Point><coordinates>-72.668000,41.941300,0</coordinates></Point></Placemark>
<Placemark><name>joeypatterson</name><description>Landed in Hartford. (@ Bradley International Airport (BDL) w/ 11 others) http://t.co/cHalu0LI
Wed, 23 Nov 2011 14:26:17 +0000</description><styleUrl>#hideLabel</styleUrl>
<Point><coordinates>-72.684400,41.929200,0</coordinates></Point></Placemark>
<Placemark><name>cwlucas</name><description>I'm at Bradley International Airport (BDL) (11 Schoephoester Rd, Windsor Locks) w/ 16 others http://t.co/B33jHICD
Wed, 23 Nov 2011 16:31:05 +0000</description><styleUrl>#hideLabel</styleUrl>
<Point><coordinates>-72.683056,41.938889,0</coordinates></Point></Placemark>
<Placemark><name>stevecomingdeer</name><description>BDL&gt;MSP (@ Bradley International Airport (BDL) w/ 21 others) http://t.co/oPuvf9T3
Wed, 23 Nov 2011 17:11:00 +0000</description><styleUrl>#hideLabel</styleUrl>
<Point><coordinates>-72.684400,41.929200,0</coordinates></Point></Placemark>
<Placemark><name>DeniseLegrand</name><description>Why is it 34 degrees in Hartford, CT?? Where is the van driver? I'm cold and sleepy, take me to the hotel now. Please and Thank You
Wed, 23 Nov 2011 17:24:34 +0000</description><styleUrl>#hideLabel</styleUrl>
<Point><coordinates>-72.679500,41.922400,0</coordinates></Point></Placemark>
<Placemark><name>tiffanyrisucci</name><description>I'm at Bradley International Airport (BDL) (11 Schoephoester Rd, Windsor Locks) w/ 11 others http://t.co/rjoEr85u
Wed, 23 Nov 2011 20:12:52 +0000</description><styleUrl>#hideLabel</styleUrl>
<Point><coordinates>-72.683056,41.938889,0</coordinates></Point></Placemark>
<Placemark><name>WhittieBittie</name><description>I'm at Bradley International Airport (BDL) (11 Schoephoester Rd, Windsor Locks) w/ 12 others http://t.co/9hZn4Eem
Wed, 23 Nov 2011 21:01:37 +0000</description><styleUrl>#hideLabel</styleUrl>
<Point><coordinates>-72.683056,41.938889,0</coordinates></Point></Placemark>
<Placemark><name>jmcrouch77</name><description>I'm herrrrrrre (@ Bradley International Airport (BDL) w/ 13 others) http://t.co/ytL4XJh2
Wed, 23 Nov 2011 21:04:13 +0000</description><styleUrl>#hideLabel</styleUrl>
<Point><coordinates>-72.684400,41.929200,0</coordinates></Point></Placemark>
<Placemark><name>christynemi</name><description>Woohoo! Off to Buffalo! @gabbykiger is going to Tampa, how fair is that? (@ Bradley International Airport (BDL)) http://t.co/nDjoQtAW
Wed, 23 Nov 2011 22:18:54 +0000</description><styleUrl>#hideLabel</styleUrl>
<Point><coordinates>-72.684400,41.929200,0</coordinates></Point></Placemark>
<Placemark><name>gabbykiger</name><description>FL bound! Changing in to flip flops before i board (@ Bradley International Airport (BDL) w/ 19 others) http://t.co/I2uaI3DL
Wed, 23 Nov 2011 22:18:05 +0000</description><styleUrl>#hideLabel</styleUrl>
<Point><coordinates>-72.684400,41.929200,0</coordinates></Point></Placemark>
<Placemark><name>gabbykiger</name><description>Pre flight drinks with @christynemi (@ Blackbear Saloon) http://t.co/ExpIrHPQ
Wed, 23 Nov 2011 22:41:26 +0000</description><styleUrl>#hideLabel</styleUrl>
<Point><coordinates>-72.674800,41.931400,0</coordinates></Point></Placemark>
<Placemark><name>MissSnaxsi</name><description>I'm at Bradley International Airport (BDL) (11 Schoephoester Rd, Windsor Locks) w/ 13 others http://t.co/JqMvQRqn
Wed, 23 Nov 2011 23:43:35 +0000</description><styleUrl>#hideLabel</styleUrl>
<Point><coordinates>-72.683056,41.938889,0</coordinates></Point></Placemark>
<Placemark><name>christynemi</name><description>@ctjime thank you!
Wed, 23 Nov 2011 23:55:06 +0000</description><styleUrl>#hideLabel</styleUrl>
<Point><coordinates>-72.683200,41.930500,0</coordinates></Point></Placemark>
<Placemark><name>christynemi</name><description>Mom at gate at airport:&quot;sit up straight and act normal&quot; Daughter: &quot; I'm not normal. I'm the most unnormal kid you ever met.&quot; #me20yearsago
Thu, 24 Nov 2011 00:07:13 +0000</description><styleUrl>#hideLabel</styleUrl>
<Point><coordinates>-72.681600,41.930500,0</coordinates></Point></Placemark>
<Placemark><name>omgitsayand</name><description>Shun! @mizz_muna came and scooped me in grandpa's red minivan....#dead
Thu, 24 Nov 2011 00:33:23 +0000</description><styleUrl>#hideLabel</styleUrl>
<Point><coordinates>-72.701184,41.929867,0</coordinates></Point></Placemark>
<Placemark><name>amansk</name><description>This is the first time I've seen a pilot come to the passengers and have a personal conversation seeking feedback about the airlines.
Thu, 24 Nov 2011 00:48:45 +0000</description><styleUrl>#hideLabel</styleUrl>
<Point><coordinates>-72.685400,41.929800,0</coordinates></Point></Placemark>
<Placemark><name>Maxwell2871</name><description>I'm at Bradley International Airport (BDL) (11 Schoephoester Rd, Windsor Locks) w/ 9 others http://t.co/FIqHXU8Q
Thu, 24 Nov 2011 01:02:38 +0000</description><styleUrl>#hideLabel</styleUrl>
<Point><coordinates>-72.683056,41.938889,0</coordinates></Point></Placemark>
<Placemark><name>AngelMangiafico</name><description>Enough already. My daughter was supposed to land @ 3:30 but was delayed twice.  Still hasn't gotten here!
Thu, 24 Nov 2011 01:27:58 +0000</description><styleUrl>#hideLabel</styleUrl>
<Point><coordinates>-72.685200,41.930000,0</coordinates></Point></Placemark>
<Placemark><name>omgitsayand</name><description>this police officer totally just violated me with his eyes...smh...
Thu, 24 Nov 2011 04:23:17 +0000</description><styleUrl>#hideLabel</styleUrl>
<Point><coordinates>-72.701184,41.929867,0</coordinates></Point></Placemark>
<Placemark><name>omgitsayand</name><description>hyped for what the night has in store....#leggo
Thu, 24 Nov 2011 04:58:45 +0000</description><styleUrl>#hideLabel</styleUrl>
<Point><coordinates>-72.701184,41.929867,0</coordinates></Point></Placemark>
<Placemark><name>mattmbelair</name><description>I'm at Bradley International Airport (BDL) (11 Schoephoester Rd, Windsor Locks) w/ 10 others http://t.co/JNQA2c67
Thu, 24 Nov 2011 05:00:51 +0000</description><styleUrl>#hideLabel</styleUrl>
<Point><coordinates>-72.683056,41.938889,0</coordinates></Point></Placemark>
<Placemark><name>achieveabundanc</name><description>Happy Thanksgiving!  @BethCarterCoach @carol_mcmanus @EuroBeads @jillberquist @kathienitz @kensousa @SusanBCondon
Thu, 24 Nov 2011 10:08:15 +0000</description><styleUrl>#hideLabel</styleUrl>
<Point><coordinates>-72.674922,41.925690,0</coordinates></Point></Placemark>
<Placemark><name>Rennie1498</name><description>Happy Thanksgiving!   Working but enjoying morning with pumpkin spice coffee love Dublin Donuts!
Thu, 24 Nov 2011 10:38:58 +0000</description><styleUrl>#hideLabel</styleUrl>
<Point><coordinates>-72.674100,41.925300,0</coordinates></Point></Placemark>
<Placemark><name>omgitsayand</name><description>You'd like to believe that what you see is what you get today,... More for Aries http://t.co/IskwRibb
Thu, 24 Nov 2011 11:01:57 +0000</description><styleUrl>#hideLabel</styleUrl>
<Point><coordinates>-72.701184,41.929867,0</coordinates></Point></Placemark>
<Placemark><name>rcarver777</name><description>I'm at Bradley International Airport (BDL) (11 Schoephoester Rd, Windsor Locks) w/ 6 others http://t.co/kMRIHgoo
Thu, 24 Nov 2011 11:35:54 +0000</description><styleUrl>#hideLabel</styleUrl>
<Point><coordinates>-72.683056,41.938889,0</coordinates></Point></Placemark>
<Placemark><name>Rennie1498</name><description>Two hours down five to go
Thu, 24 Nov 2011 12:03:13 +0000</description><styleUrl>#hideLabel</styleUrl>
<Point><coordinates>-72.674200,41.925300,0</coordinates></Point></Placemark>
<Placemark><name>CTIMT3</name><description>Happy Thanksgiving to all!
Thu, 24 Nov 2011 14:10:20 +0000</description><styleUrl>#hideLabel</styleUrl>
<Point><coordinates>-72.688300,41.932100,0</coordinates></Point></Placemark>
<Placemark><name>omgitsayand</name><description>feel like death but gotta get up and cook...#turkeyday
Thu, 24 Nov 2011 17:11:11 +0000</description><styleUrl>#hideLabel</styleUrl>
<Point><coordinates>-72.701184,41.929867,0</coordinates></Point></Placemark>
<Placemark><name>stevethu</name><description>I'm at Bradley International Airport (BDL) (11 Schoephoester Rd, Windsor Locks) w/ 10 others http://t.co/Goghpx5C
Thu, 24 Nov 2011 19:20:30 +0000</description><styleUrl>#hideLabel</styleUrl>
<Point><coordinates>-72.683056,41.938889,0</coordinates></Point></Placemark>
<Placemark><name>omgitsayand</name><description>RT @Swag_On_Attack: My nephews have arrived *refills drink + moves wallet from back pocket to front pocket*--&gt;lmao! tell my boos i say hi!
Thu, 24 Nov 2011 22:10:49 +0000</description><styleUrl>#hideLabel</styleUrl>
<Point><coordinates>-72.701184,41.929867,0</coordinates></Point></Placemark>
<Placemark><name>omgitsayand</name><description>finally ate! and after an over-sized plate, i go to my sister and say &quot;my food baby nadeemah had a baby&quot; @QueenSheba2787 lmfao!
Fri, 25 Nov 2011 00:00:50 +0000</description><styleUrl>#hideLabel</styleUrl>
<Point><coordinates>-72.701184,41.929867,0</coordinates></Point></Placemark>
<Placemark><name>fatmiko</name><description>I'm at Bradley International Airport (BDL) (11 Schoephoester Rd, Windsor Locks) w/ 3 others http://t.co/xAqRTlbN
Fri, 25 Nov 2011 02:50:01 +0000</description><styleUrl>#hideLabel</styleUrl>
<Point><coordinates>-72.683056,41.938889,0</coordinates></Point></Placemark>
<Placemark><name>chrisboytellem</name><description>Flights out!!! ✈✈
Fri, 25 Nov 2011 10:46:04 +0000</description><styleUrl>#hideLabel</styleUrl>
<Point><coordinates>-72.684600,41.931000,0</coordinates></Point></Placemark>
<Placemark><name>omgitsayand</name><description>You are impatient to begin a new project today, but complicati... More for Aries http://t.co/IskwRibb
Fri, 25 Nov 2011 10:58:19 +0000</description><styleUrl>#hideLabel</styleUrl>
<Point><coordinates>-72.701184,41.929867,0</coordinates></Point></Placemark>
<Placemark><name>spciii</name><description>Only 364 more days until &quot;coma&quot; is a funny word again.
Fri, 25 Nov 2011 12:28:59 +0000</description><styleUrl>#hideLabel</styleUrl>
<Point><coordinates>-72.682900,41.930000,0</coordinates></Point></Placemark>
<Placemark><name>oh_elisabeth</name><description>Uuggh broken strobe light. Then paper work. De-icing... All complete with screaming child 4 rows ahead of me. http://t.co/MNiHeyJ1
Fri, 25 Nov 2011 12:25:54 +0000</description><styleUrl>#hideLabel</styleUrl>
<Point><coordinates>-72.674300,41.926800,0</coordinates></Point></Placemark>
<Placemark><name>oh_elisabeth</name><description>Bahahha. Actually i cant stand him #hollowback --&gt;RT @PeanutFreeMom: I don't usually like hardcore rap, but I love Jay-Zee.
Fri, 25 Nov 2011 12:47:55 +0000</description><styleUrl>#hideLabel</styleUrl>
<Point><coordinates>-72.685300,41.935000,0</coordinates></Point></Placemark>
<Placemark><name>Metromarissa</name><description>Workworkwork gettin #bank
Fri, 25 Nov 2011 12:55:22 +0000</description><styleUrl>#hideLabel</styleUrl>
<Point><coordinates>-72.666100,41.931700,0</coordinates></Point></Placemark>
<Placemark><name>leroyjabari</name><description>I'm at Bradley International Airport (BDL) (11 Schoephoester Rd, Windsor Locks) w/ 5 others http://t.co/PlDoJ0S7
Fri, 25 Nov 2011 12:59:31 +0000</description><styleUrl>#hideLabel</styleUrl>
<Point><coordinates>-72.683056,41.938889,0</coordinates></Point></Placemark>
<Placemark><name>jmayojr</name><description>On my way to Seattle to help Dig Dug move. But first a stop over for lunch in Denver http://t.co/Z7X0cNWC
Fri, 25 Nov 2011 13:23:24 +0000</description><styleUrl>#hideLabel</styleUrl>
<Point><coordinates>-72.684400,41.929200,0</coordinates></Point></Placemark>
<Placemark><name>Rennie1498</name><description>This job sucks today!!!!!! To cold to be outside!!!!!! Miss my pillow!!!!!! Dislike my coworkers!!!!!!! Like the holiday pay!!!!!!!
Fri, 25 Nov 2011 13:33:09 +0000</description><styleUrl>#hideLabel</styleUrl>
<Point><coordinates>-72.674300,41.925300,0</coordinates></Point></Placemark>
<Placemark><name>achieveabundanc</name><description>True &quot;@ptarkkonen: &quot;Governments tend not to solve problems, only rearrange them.&quot;  -Ronald Reagan #quote&quot;
Fri, 25 Nov 2011 14:27:11 +0000</description><styleUrl>#hideLabel</styleUrl>
<Point><coordinates>-72.674922,41.925690,0</coordinates></Point></Placemark>
<Placemark><name>oh_elisabeth</name><description>Planes at ORD, eating people or luggage or both #omnyomnyom http://t.co/zFHGGcKK
Fri, 25 Nov 2011 15:10:52 +0000</description><styleUrl>#hideLabel</styleUrl>
<Point><coordinates>-72.688400,41.936200,0</coordinates></Point></Placemark>
<Placemark><name>AbbyLately</name><description>Im coming after that mayorship eric (@ Bradley International Airport (BDL) w/ 5 others) http://t.co/5ALeoEP6
Fri, 25 Nov 2011 16:05:43 +0000</description><styleUrl>#hideLabel</styleUrl>
<Point><coordinates>-72.684400,41.929200,0</coordinates></Point></Placemark>
<Placemark><name>KellyAnneLewis</name><description>@Metromarissa quit taking my phone biotch
Fri, 25 Nov 2011 15:57:35 +0000</description><styleUrl>#hideLabel</styleUrl>
<Point><coordinates>-72.667700,41.941500,0</coordinates></Point></Placemark>
<Placemark><name>omgitsayand</name><description>finally getting up + it feels great! time for shopping!!!
Fri, 25 Nov 2011 16:51:42 +0000</description><styleUrl>#hideLabel</styleUrl>
<Point><coordinates>-72.701184,41.929867,0</coordinates></Point></Placemark>
<Placemark><name>omgitsayand</name><description>@YETTIsays LOL! I'm a snob...didn't want to deal w/ crazy ppl
Fri, 25 Nov 2011 17:05:03 +0000</description><styleUrl>#hideLabel</styleUrl>
<Point><coordinates>-72.701184,41.929867,0</coordinates></Point></Placemark>
<Placemark><name>bjscreek</name><description>On my flight back to CA, via Minnesota, I count at least six children under age 2. Too bad I left my pepper spray at home. Wish me luck!
Fri, 25 Nov 2011 19:14:40 +0000</description><styleUrl>#hideLabel</styleUrl>
<Point><coordinates>-72.686600,41.932000,0</coordinates></Point></Placemark>
<Placemark><name>bjscreek</name><description>@bigmoneytony store.apple.com had most things on sale. Did you look there?
Fri, 25 Nov 2011 19:16:26 +0000</description><styleUrl>#hideLabel</styleUrl>
<Point><coordinates>-72.695200,41.932400,0</coordinates></Point></Placemark>
<Placemark><name>MeganSterritt</name><description>Connecticut! (@ Bradley International Airport w/ 3 others) http://t.co/it1a1tDC
Fri, 25 Nov 2011 21:36:01 +0000</description><styleUrl>#hideLabel</styleUrl>
<Point><coordinates>-72.672200,41.924900,0</coordinates></Point></Placemark>
<Placemark><name>the_real_trista</name><description>Taking off to come home (@ Bradley International Airport (BDL) w/ 9 others) http://t.co/3PJc9MbV
Fri, 25 Nov 2011 22:05:42 +0000</description><styleUrl>#hideLabel</styleUrl>
<Point><coordinates>-72.684400,41.929200,0</coordinates></Point></Placemark>
<Placemark><name>nellynelly84</name><description>To accomplish anything good in life we must pass thru 3 stages; 1.Dreaming Stage 2. Doing Stage 
3. Reward Stage
Fri, 25 Nov 2011 23:34:44 +0000</description><styleUrl>#hideLabel</styleUrl>
<Point><coordinates>-72.683507,41.940403,0</coordinates></Point></Placemark>
<Placemark><name>UGottaLuvLesTer</name><description>On this plane bout to come home.
Sat, 26 Nov 2011 00:36:27 +0000</description><styleUrl>#hideLabel</styleUrl>
<Point><coordinates>-72.674900,41.925700,0</coordinates></Point></Placemark>
<Placemark><name>omgitsayand</name><description>@mizz_muna call me! Where r u
Sat, 26 Nov 2011 02:47:04 +0000</description><styleUrl>#hideLabel</styleUrl>
<Point><coordinates>-72.701184,41.929867,0</coordinates></Point></Placemark>
<Placemark><name>drunkpapa148</name><description>Landed at Bradley
Sat, 26 Nov 2011 02:55:17 +0000</description><styleUrl>#hideLabel</styleUrl>
<Point><coordinates>-72.683100,41.929800,0</coordinates></Point></Placemark>
<Placemark><name>cnweaponx</name><description>Aquanet! (@ Blackboard Cafe w/ 4 others) http://t.co/0y1MjIEc
Sat, 26 Nov 2011 03:24:07 +0000</description><styleUrl>#hideLabel</styleUrl>
<Point><coordinates>-72.666400,41.932000,0</coordinates></Point></Placemark>
<Placemark><name>fatmiko</name><description>Ok - now I'm tired (@ Bradley International Airport (BDL)) http://t.co/Oj6tAsxX
Sat, 26 Nov 2011 08:58:39 +0000</description><styleUrl>#hideLabel</styleUrl>
<Point><coordinates>-72.684400,41.929200,0</coordinates></Point></Placemark>
<Placemark><name>leroyjabari</name><description>I'm at Bradley International Airport (BDL) (11 Schoephoester Rd, Windsor Locks) w/ 2 others http://t.co/MTgWr18K
Sat, 26 Nov 2011 09:31:44 +0000</description><styleUrl>#hideLabel</styleUrl>
<Point><coordinates>-72.683056,41.938889,0</coordinates></Point></Placemark>
<Placemark><name>daveedcajas</name><description>New perspective. Thankful for having viveza criolla. #Ecuador influences #mylife is awesome.
Sat, 26 Nov 2011 09:58:54 +0000</description><styleUrl>#hideLabel</styleUrl>
<Point><coordinates>-72.685500,41.930000,0</coordinates></Point></Placemark>
<Placemark><name>HasaunGlasgow_</name><description>Im at the airport
Sat, 26 Nov 2011 10:24:59 +0000</description><styleUrl>#hideLabel</styleUrl>
<Point><coordinates>-72.685200,41.929900,0</coordinates></Point></Placemark>
<Placemark><name>omgitsayand</name><description>Risking your current security might seem like a good plan toda... More for Aries http://t.co/IskwRibb
Sat, 26 Nov 2011 10:56:50 +0000</description><styleUrl>#hideLabel</styleUrl>
<Point><coordinates>-72.701184,41.929867,0</coordinates></Point></Placemark>
<Placemark><name>EDavis</name><description>Off to San Juan to catch the cruise tomorrow. (@ Bradley International Airport (BDL) w/ 12 others) http://t.co/p28zBRBo
Sat, 26 Nov 2011 11:20:46 +0000</description><styleUrl>#hideLabel</styleUrl>
<Point><coordinates>-72.684400,41.929200,0</coordinates></Point></Placemark>
<Placemark><name>MichaelTaricani</name><description>RSNA (@ Bradley International Airport (BDL) w/ 12 others) http://t.co/6bonaLpk
Sat, 26 Nov 2011 12:10:24 +0000</description><styleUrl>#hideLabel</styleUrl>
<Point><coordinates>-72.684400,41.929200,0</coordinates></Point></Placemark>
<Placemark><name>chrisgolden</name><description>I'm at Bradley International Airport (BDL) (11 Schoephoester Rd, Windsor Locks) w/ 11 others http://t.co/UhMEzAPw
Sat, 26 Nov 2011 12:48:18 +0000</description><styleUrl>#hideLabel</styleUrl>
<Point><coordinates>-72.683056,41.938889,0</coordinates></Point></Placemark>
<Placemark><name>ctp</name><description>On board DL2501 to MSP, beginning the flights to CA. – at BDL Bradley International http://t.co/Xo7gJDMl
Sat, 26 Nov 2011 16:12:09 +0000</description><styleUrl>#hideLabel</styleUrl>
<Point><coordinates>-72.684300,41.931500,0</coordinates></Point></Placemark>
<Placemark><name>Metromarissa</name><description>I want my dad to buy me my new hood #likenow. You brake it, you pay #firstworldproblems Then new paint! My baby is gonna be sexy as fuck.
Sat, 26 Nov 2011 16:19:04 +0000</description><styleUrl>#hideLabel</styleUrl>
<Point><coordinates>-72.666100,41.931800,0</coordinates></Point></Placemark>
<Placemark><name>Metromarissa</name><description>Dream shoes #iwishiwasrich http://t.co/qqYlA06K
Sat, 26 Nov 2011 16:33:53 +0000</description><styleUrl>#hideLabel</styleUrl>
<Point><coordinates>-72.666200,41.931900,0</coordinates></Point></Placemark>
<Placemark><name>EricManly</name><description>I'm at Bradley International Airport (BDL) (11 Schoephoester Rd, Windsor Locks) w/ 8 others http://t.co/7S1pOuEL
Sat, 26 Nov 2011 17:20:55 +0000</description><styleUrl>#hideLabel</styleUrl>
<Point><coordinates>-72.683056,41.938889,0</coordinates></Point></Placemark>
<Placemark><name>renareed</name><description>@tim_wiseman Whatever it takes.
Sat, 26 Nov 2011 17:44:18 +0000</description><styleUrl>#hideLabel</styleUrl>
<Point><coordinates>-72.684300,41.931200,0</coordinates></Point></Placemark>
<Placemark><name>omgitsayand</name><description>in a terrible mood...:-/
Sat, 26 Nov 2011 23:26:56 +0000</description><styleUrl>#hideLabel</styleUrl>
<Point><coordinates>-72.701184,41.929867,0</coordinates></Point></Placemark>
<Placemark><name>LizaMarie13</name><description>Landed safely. Thanks @ericlemasters  and @StephLeMasters for an awesome thanksgiving in CO http://t.co/SkCO7Qv3
Sun, 27 Nov 2011 02:44:43 +0000</description><styleUrl>#hideLabel</styleUrl>
<Point><coordinates>-72.684400,41.929200,0</coordinates></Point></Placemark>
<Placemark><name>omgitsayand</name><description>RT@AngelaSimmons:We are shaped by our thoughts; we become what we think. When the mind is pure, joy follows like a shadow that never leaves
Sun, 27 Nov 2011 04:34:42 +0000</description><styleUrl>#hideLabel</styleUrl>
<Point><coordinates>-72.701184,41.929867,0</coordinates></Point></Placemark>
<Placemark><name>omgitsayand</name><description>RT @Oguh_like_Ragu: Where's BAA?--&gt;refined BAA stayed her ass at home tonight lol!
Sun, 27 Nov 2011 08:23:16 +0000</description><styleUrl>#hideLabel</styleUrl>
<Point><coordinates>-72.701184,41.929867,0</coordinates></Point></Placemark>
<Placemark><name>mattmfm</name><description>Where better to be before sunrise? (@ Bradley International Airport (BDL) w/ 9 others) http://t.co/HnhpQLNY
Sun, 27 Nov 2011 10:32:07 +0000</description><styleUrl>#hideLabel</styleUrl>
<Point><coordinates>-72.684400,41.929200,0</coordinates></Point></Placemark>
<Placemark><name>omgitsayand</name><description>Remain upbeat about your contributions when pushing toward you... More for Aries http://t.co/IskwRibb
Sun, 27 Nov 2011 10:57:31 +0000</description><styleUrl>#hideLabel</styleUrl>
<Point><coordinates>-72.701184,41.929867,0</coordinates></Point></Placemark>
<Placemark><name>leroyjabari</name><description>I'm at Bradley International Airport (BDL) (11 Schoephoester Rd, Windsor Locks) w/ 14 others http://t.co/GpDFqQy8
Sun, 27 Nov 2011 11:05:28 +0000</description><styleUrl>#hideLabel</styleUrl>
<Point><coordinates>-72.683056,41.938889,0</coordinates></Point></Placemark>
<Placemark><name>kjostarr</name><description>I'm at Bradley International Airport (BDL) (11 Schoephoester Rd, Windsor Locks) w/ 18 others http://t.co/Lz17dMgC
Sun, 27 Nov 2011 12:00:26 +0000</description><styleUrl>#hideLabel</styleUrl>
<Point><coordinates>-72.683056,41.938889,0</coordinates></Point></Placemark>
<Placemark><name>plivacpa</name><description>I'm at Bradley International Airport (BDL) (11 Schoephoester Rd, Windsor Locks) w/ 10 others http://t.co/KTw9E9rC
Sun, 27 Nov 2011 15:39:38 +0000</description><styleUrl>#hideLabel</styleUrl>
<Point><coordinates>-72.683056,41.938889,0</coordinates></Point></Placemark>
<Placemark><name>bobbydelarosa</name><description>Almost there!
Sun, 27 Nov 2011 16:23:42 +0000</description><styleUrl>#hideLabel</styleUrl>
<Point><coordinates>-72.685500,41.929900,0</coordinates></Point></Placemark>
<Placemark><name>pedroazevedo</name><description>smart ass flight attendants up in here
Sun, 27 Nov 2011 16:49:01 +0000</description><styleUrl>#hideLabel</styleUrl>
<Point><coordinates>-72.683800,41.931200,0</coordinates></Point></Placemark>
<Placemark><name>DanielAFerguson</name><description>I'm at Bradley International Airport (BDL) (11 Schoephoester Rd, Windsor Locks) w/ 10 others http://t.co/eqRPsm8K
Sun, 27 Nov 2011 17:00:59 +0000</description><styleUrl>#hideLabel</styleUrl>
<Point><coordinates>-72.683056,41.938889,0</coordinates></Point></Placemark>
<Placemark><name>bobbydelarosa</name><description>Um, CT limo, scheduled departure was at 12:05 and I'm definitely still sitting on the floor waiting. I want to be back for brunch/fritters.
Sun, 27 Nov 2011 17:09:19 +0000</description><styleUrl>#hideLabel</styleUrl>
<Point><coordinates>-72.685500,41.929900,0</coordinates></Point></Placemark>
<Placemark><name>CaitieParsons</name><description>Finally back in Connecticut, it's been a long morning. #uconn
Sun, 27 Nov 2011 17:22:19 +0000</description><styleUrl>#hideLabel</styleUrl>
<Point><coordinates>-72.678000,41.923300,0</coordinates></Point></Placemark>
<Placemark><name>pilotpentennis</name><description>I'm at Bradley International Airport (BDL) (11 Schoephoester Rd, Windsor Locks) w/ 10 others http://t.co/JTltnYV9
Sun, 27 Nov 2011 17:21:51 +0000</description><styleUrl>#hideLabel</styleUrl>
<Point><coordinates>-72.683056,41.938889,0</coordinates></Point></Placemark>
<Placemark><name>CaitieParsons</name><description>90% of the women in the mall yesterday thought they were @KimKardashian
Sun, 27 Nov 2011 17:21:24 +0000</description><styleUrl>#hideLabel</styleUrl>
<Point><coordinates>-72.685500,41.930200,0</coordinates></Point></Placemark>
<Placemark><name>EricManly</name><description>I'm at Bradley International Airport (BDL) (11 Schoephoester Rd, Windsor Locks) w/ 11 others http://t.co/XTEQYEd7
Sun, 27 Nov 2011 17:25:55 +0000</description><styleUrl>#hideLabel</styleUrl>
<Point><coordinates>-72.683056,41.938889,0</coordinates></Point></Placemark>
<Placemark><name>jennabesaw</name><description>There is a god! First class seat on my flight to Atlanta. #whatatreat!
Sun, 27 Nov 2011 18:24:26 +0000</description><styleUrl>#hideLabel</styleUrl>
<Point><coordinates>-72.678000,41.927100,0</coordinates></Point></Placemark>
<Placemark><name>BenFoleyMIE</name><description>@marisssy16 yeah true but my boy @JoeyFranchize is the UConn DJ lol
Sun, 27 Nov 2011 20:08:15 +0000</description><styleUrl>#hideLabel</styleUrl>
<Point><coordinates>-72.687500,41.936900,0</coordinates></Point></Placemark>
<Placemark><name>BenFoleyMIE</name><description>@JoeyFranchize yo we should do a day in the life of joey franchize video. ESPN UConn and your radio show.
Sun, 27 Nov 2011 20:37:18 +0000</description><styleUrl>#hideLabel</styleUrl>
<Point><coordinates>-72.686200,41.929700,0</coordinates></Point></Placemark>
<Placemark><name>BenFoleyMIE</name><description>@JoeyFranchize shoot me a text, let's make plans.
Sun, 27 Nov 2011 20:40:29 +0000</description><styleUrl>#hideLabel</styleUrl>
<Point><coordinates>-72.689000,41.931500,0</coordinates></Point></Placemark>
<Placemark><name>dangerbill</name><description>Breezed through security #JetSetterStatus
Sun, 27 Nov 2011 21:08:08 +0000</description><styleUrl>#hideLabel</styleUrl>
<Point><coordinates>-72.684900,41.930100,0</coordinates></Point></Placemark>
<Placemark><name>Aakar15</name><description>I'm at Bradley International Airport (BDL) (11 Schoephoester Rd, Windsor Locks) w/ 11 others http://t.co/3wagqI1W
Sun, 27 Nov 2011 21:49:19 +0000</description><styleUrl>#hideLabel</styleUrl>
<Point><coordinates>-72.683056,41.938889,0</coordinates></Point></Placemark>
<Placemark><name>ScooterSquirrel</name><description>@vermyfox looks nice, dang dude you got some big eyebrows.  Hair reminds me of mine when I was younger and it was still red.
Sun, 27 Nov 2011 23:11:03 +0000</description><styleUrl>#hideLabel</styleUrl>
<Point><coordinates>-72.675100,41.923200,0</coordinates></Point></Placemark>
<Placemark><name>nellynelly84</name><description>Tebow is going to win this game!
Mon, 28 Nov 2011 00:44:02 +0000</description><styleUrl>#hideLabel</styleUrl>
<Point><coordinates>-72.683507,41.940403,0</coordinates></Point></Placemark>
<Placemark><name>nellynelly84</name><description>That boy Tebow needs a Ford commercial
Mon, 28 Nov 2011 00:50:54 +0000</description><styleUrl>#hideLabel</styleUrl>
<Point><coordinates>-72.683507,41.940403,0</coordinates></Point></Placemark>
<Placemark><name>ScooterSquirrel</name><description>@JanArrah the rat, Rizzo I think his name is
Mon, 28 Nov 2011 01:06:42 +0000</description><styleUrl>#hideLabel</styleUrl>
<Point><coordinates>-72.682200,41.930300,0</coordinates></Point></Placemark>
<Placemark><name>pcforsgren</name><description>I'm at Bradley International Airport (BDL) (11 Schoephoester Rd, Windsor Locks) w/ 9 others http://t.co/ZSluA58m
Mon, 28 Nov 2011 01:38:18 +0000</description><styleUrl>#hideLabel</styleUrl>
<Point><coordinates>-72.683056,41.938889,0</coordinates></Point></Placemark>
<Placemark><name>omgitsayand</name><description>longest weekend ever...and all i did was work, smh time to study!
Mon, 28 Nov 2011 01:40:47 +0000</description><styleUrl>#hideLabel</styleUrl>
<Point><coordinates>-72.701184,41.929867,0</coordinates></Point></Placemark>
<Placemark><name>Carling1230</name><description>Just touched down in Hartford.
Mon, 28 Nov 2011 03:21:18 +0000</description><styleUrl>#hideLabel</styleUrl>
<Point><coordinates>-72.669500,41.937700,0</coordinates></Point></Placemark>
<Placemark><name>omgitsayand</name><description>@QueenSheba2787 yes, yes i do and #uaintshit lol!
Mon, 28 Nov 2011 03:41:21 +0000</description><styleUrl>#hideLabel</styleUrl>
<Point><coordinates>-72.701184,41.929867,0</coordinates></Point></Placemark>
<Placemark><name>omgitsayand</name><description>Yooo but Malcolm Jamal Warner aka Theo Huxtable could get it...#imjustsaying
Mon, 28 Nov 2011 03:46:15 +0000</description><styleUrl>#hideLabel</styleUrl>
<Point><coordinates>-72.701184,41.929867,0</coordinates></Point></Placemark>
<Placemark><name>omgitsayand</name><description>@QueenSheba2787 don't get me wrong...i still love my RAJ's #teammakebeautifulbabies
Mon, 28 Nov 2011 03:55:24 +0000</description><styleUrl>#hideLabel</styleUrl>
<Point><coordinates>-72.701184,41.929867,0</coordinates></Point></Placemark>
<Placemark><name>omgitsayand</name><description>RT @MIKE_2pt0: Muslim girls love me like taking off their hijab--&gt;noooo, we do NOT lol!
Mon, 28 Nov 2011 03:54:32 +0000</description><styleUrl>#hideLabel</styleUrl>
<Point><coordinates>-72.701184,41.929867,0</coordinates></Point></Placemark>
<Placemark><name>omgitsayand</name><description>@QueenSheba2787 relax woman, all black men are beautiful ;-)
Mon, 28 Nov 2011 04:05:06 +0000</description><styleUrl>#hideLabel</styleUrl>
<Point><coordinates>-72.701184,41.929867,0</coordinates></Point></Placemark>
<Placemark><name>omgitsayand</name><description>@QueenSheba2787 @EKHormeku no words for you too! it's not true...i like brown, im just open to the various shades!
Mon, 28 Nov 2011 04:44:48 +0000</description><styleUrl>#hideLabel</styleUrl>
<Point><coordinates>-72.701184,41.929867,0</coordinates></Point></Placemark>
<Placemark><name>tiffanyrisucci</name><description>Just landed at 1:49. I think I had the best/craziest/neurotic flight attendant, ever.
Mon, 28 Nov 2011 06:50:26 +0000</description><styleUrl>#hideLabel</styleUrl>
<Point><coordinates>-72.698400,41.950100,0</coordinates></Point></Placemark>
<Placemark><name>walkdesign</name><description>I'm at Bradley International Airport (BDL) (11 Schoephoester Rd, Windsor Locks) w/ 6 others http://t.co/ALwFdO43
Mon, 28 Nov 2011 10:29:34 +0000</description><styleUrl>#hideLabel</styleUrl>
<Point><coordinates>-72.683056,41.938889,0</coordinates></Point></Placemark>
<Placemark><name>omgitsayand</name><description>You are motivated to get ahead on the job now, but your ambiti... More for Aries http://t.co/IskwRibb
Mon, 28 Nov 2011 10:57:00 +0000</description><styleUrl>#hideLabel</styleUrl>
<Point><coordinates>-72.701184,41.929867,0</coordinates></Point></Placemark>
<Placemark><name>stevethu</name><description>I'm at Bradley International Airport (BDL) (11 Schoephoester Rd, Windsor Locks) w/ 16 others http://t.co/oP7kGjeE
Mon, 28 Nov 2011 11:01:40 +0000</description><styleUrl>#hideLabel</styleUrl>
<Point><coordinates>-72.683056,41.938889,0</coordinates></Point></Placemark>
<Placemark><name>KellyAnneLewis</name><description>Another case of the Mondays
Mon, 28 Nov 2011 12:01:02 +0000</description><styleUrl>#hideLabel</styleUrl>
<Point><coordinates>-72.666100,41.932400,0</coordinates></Point></Placemark>
<Placemark><name>KellyAnneLewis</name><description>This weekend kicked my ass
Mon, 28 Nov 2011 12:21:42 +0000</description><styleUrl>#hideLabel</styleUrl>
<Point><coordinates>-72.666200,41.932000,0</coordinates></Point></Placemark>
<Placemark><name>MatthewMontoya_</name><description>I'm at Bradley International Airport (BDL) (11 Schoephoester Rd, Windsor Locks) w/ 22 others http://t.co/vXPJ3Kzl
Mon, 28 Nov 2011 13:13:26 +0000</description><styleUrl>#hideLabel</styleUrl>
<Point><coordinates>-72.683056,41.938889,0</coordinates></Point></Placemark>
</Document></kml>