<?xml version="1.0" encoding="UTF-8"?><kml xmlns="http://www.opengis.net/kml/2.2"><Document>
<Style id="hideLabel"><LabelStyle><scale>0</scale></LabelStyle></Style>
<Placemark><name>KevinVielbaum</name><description>How is months of unappointed rule in #Greece + #Italy democratic? Maybe it will work but it seems like a major loophole
http://t.co/5pVlmzCy
Fri, 18 Nov 2011 16:35:02 +0000</description><styleUrl>#hideLabel</styleUrl>
<Point><coordinates>-122.385000,37.613200,0</coordinates></Point></Placemark>
<Placemark><name>smalnr88</name><description>I'm at San Francisco International Airport (SFO) (SFO Airport, San Francisco) w/ 100 others http://t.co/682hr9rw
Fri, 18 Nov 2011 16:33:28 +0000</description><styleUrl>#hideLabel</styleUrl>
<Point><coordinates>-122.374722,37.618889,0</coordinates></Point></Placemark>
<Placemark><name>chris_sloan</name><description>SFO is a spaghetti bowl but definitely pretty scenery. #airtrain
Fri, 18 Nov 2011 16:29:57 +0000</description><styleUrl>#hideLabel</styleUrl>
<Point><coordinates>-122.392500,37.612500,0</coordinates></Point></Placemark>
<Placemark><name>philstepson</name><description>I'm at San Francisco International Airport (SFO) (SFO Airport, San Francisco) w/ 98 others http://t.co/ag3l8ukn
Fri, 18 Nov 2011 16:27:21 +0000</description><styleUrl>#hideLabel</styleUrl>
<Point><coordinates>-122.374722,37.618889,0</coordinates></Point></Placemark>
<Placemark><name>novi_</name><description>✈✈✈ (@ San Francisco International Airport (SFO) w/ 97 others) http://t.co/Rr0d44On
Fri, 18 Nov 2011 16:26:38 +0000</description><styleUrl>#hideLabel</styleUrl>
<Point><coordinates>-122.387900,37.615800,0</coordinates></Point></Placemark>
<Placemark><name>justinriordan</name><description>I'm at San Francisco International Airport (SFO) (SFO Airport, San Francisco) w/ 98 others http://t.co/xA2QGsTp
Fri, 18 Nov 2011 16:38:38 +0000</description><styleUrl>#hideLabel</styleUrl>
<Point><coordinates>-122.374722,37.618889,0</coordinates></Point></Placemark>
<Placemark><name>beecarolyn</name><description>Pdx bound for the game tomorrow!!! (@ San Francisco International Airport (SFO) w/ 99 others) http://t.co/CCGyiKRp
Fri, 18 Nov 2011 16:40:11 +0000</description><styleUrl>#hideLabel</styleUrl>
<Point><coordinates>-122.387900,37.615800,0</coordinates></Point></Placemark>
<Placemark><name>JoshKlenert</name><description>I'm at San Francisco International Airport (SFO) (SFO Airport, San Francisco) w/ 106 others http://t.co/OsjPSGQ9
Fri, 18 Nov 2011 16:47:27 +0000</description><styleUrl>#hideLabel</styleUrl>
<Point><coordinates>-122.374722,37.618889,0</coordinates></Point></Placemark>
<Placemark><name>peerside</name><description>@jkeyes check out EU-US safe harbour - they need to be compliant afaik. Try @daraghobrien as data protection guru
Fri, 18 Nov 2011 16:47:24 +0000</description><styleUrl>#hideLabel</styleUrl>
<Point><coordinates>-122.392906,37.611337,0</coordinates></Point></Placemark>
<Placemark><name>MoWineGirl</name><description>Today is get to go home day. Yea! (@ San Francisco International Airport (SFO) w/ 106 others) http://t.co/brT33iNF
Fri, 18 Nov 2011 16:45:58 +0000</description><styleUrl>#hideLabel</styleUrl>
<Point><coordinates>-122.387900,37.615800,0</coordinates></Point></Placemark>
<Placemark><name>coach_stevo</name><description>@anthony_mychal check out my friend Charlie's thoughts on barefoot running. He's uber smart. http://t.co/ouimrWPJ
Fri, 18 Nov 2011 16:49:14 +0000</description><styleUrl>#hideLabel</styleUrl>
<Point><coordinates>-122.381400,37.617400,0</coordinates></Point></Placemark>
<Placemark><name>rfradin</name><description>@gfulgoni Agree 100%
Fri, 18 Nov 2011 16:49:08 +0000</description><styleUrl>#hideLabel</styleUrl>
<Point><coordinates>-122.368632,37.611249,0</coordinates></Point></Placemark>
<Placemark><name>coach_stevo</name><description>Every now and then Dan John drops a daisy cutter knowledge bomb. &quot;programming is movement, then volume, then load&quot;
Fri, 18 Nov 2011 16:51:24 +0000</description><styleUrl>#hideLabel</styleUrl>
<Point><coordinates>-122.381400,37.617400,0</coordinates></Point></Placemark>
<Placemark><name>rr</name><description>Hello, San Francisco. I missed your face.
Fri, 18 Nov 2011 16:51:16 +0000</description><styleUrl>#hideLabel</styleUrl>
<Point><coordinates>-122.389700,37.618900,0</coordinates></Point></Placemark>
<Placemark><name>brjavaman</name><description>RT @joshmarinacci: Will cheap 3D printers capable of making chairs mean that we need furniture DRM? http://t.co/xf0DGrjv
Fri, 18 Nov 2011 16:58:36 +0000</description><styleUrl>#hideLabel</styleUrl>
<Point><coordinates>-122.383900,37.621774,0</coordinates></Point></Placemark>
<Placemark><name>moonki421</name><description>Probably have to wait 8 hours since I can't seem to get on an earlier flight. http://t.co/GvCuTs9g
Fri, 18 Nov 2011 17:02:02 +0000</description><styleUrl>#hideLabel</styleUrl>
<Point><coordinates>-122.387900,37.615800,0</coordinates></Point></Placemark>
<Placemark><name>ebelove</name><description>Heading home (@ San Francisco International Airport (SFO) w/ 109 others) http://t.co/aggwmU1Q
Fri, 18 Nov 2011 17:04:11 +0000</description><styleUrl>#hideLabel</styleUrl>
<Point><coordinates>-122.387900,37.615800,0</coordinates></Point></Placemark>
<Placemark><name>AkikoOda</name><description>I'm at San Francisco International Airport (SFO) (SFO Airport, San Francisco) w/ 112 others http://t.co/PMyZDd9E
Fri, 18 Nov 2011 17:06:18 +0000</description><styleUrl>#hideLabel</styleUrl>
<Point><coordinates>-122.374722,37.618889,0</coordinates></Point></Placemark>
<Placemark><name>anthonyAzmar</name><description>@IHateCaveman 
Fri, 18 Nov 2011 17:05:31 +0000</description><styleUrl>#hideLabel</styleUrl>
<Point><coordinates>-122.387700,37.611300,0</coordinates></Point></Placemark>
<Placemark><name>ShortyRossi</name><description>Getting ready to catch a flight from SFO to Chicago to Kalamazoo. H  @ United Red Carpet Club - Domestic Terminal http://t.co/19lVLWLo
Fri, 18 Nov 2011 17:08:09 +0000</description><styleUrl>#hideLabel</styleUrl>
<Point><coordinates>-122.387000,37.619500,0</coordinates></Point></Placemark>
<Placemark><name>chris_sloan</name><description>Sweet. Free wireless at SFO. About time.
Fri, 18 Nov 2011 17:07:46 +0000</description><styleUrl>#hideLabel</styleUrl>
<Point><coordinates>-122.384000,37.612800,0</coordinates></Point></Placemark>
<Placemark><name>anthonyAzmar</name><description>http://t.co/GqQwYpfT
Fri, 18 Nov 2011 17:10:06 +0000</description><styleUrl>#hideLabel</styleUrl>
<Point><coordinates>-122.387900,37.610300,0</coordinates></Point></Placemark>
<Placemark><name>DomCam9</name><description>Headed to Reno, Nevada (@ San Francisco International Airport (SFO) w/ 116 others) http://t.co/iCCF9uJ5
Fri, 18 Nov 2011 17:14:29 +0000</description><styleUrl>#hideLabel</styleUrl>
<Point><coordinates>-122.387900,37.615800,0</coordinates></Point></Placemark>
<Placemark><name>Toruxx</name><description>I'm at San Francisco International Airport (SFO) (SFO Airport, San Francisco) w/ 116 others http://t.co/MqdFyK9H
Fri, 18 Nov 2011 17:16:01 +0000</description><styleUrl>#hideLabel</styleUrl>
<Point><coordinates>-122.374722,37.618889,0</coordinates></Point></Placemark>
<Placemark><name>melindabyerley</name><description>What's your favorite prototyping tool? Would it work for customer research as well?
Fri, 18 Nov 2011 17:25:21 +0000</description><styleUrl>#hideLabel</styleUrl>
<Point><coordinates>-122.384117,37.612808,0</coordinates></Point></Placemark>
<Placemark><name>brendangahan</name><description>@sf_sj @mikepreuss pizzas. We kept going back for more. Lol.
Fri, 18 Nov 2011 17:29:37 +0000</description><styleUrl>#hideLabel</styleUrl>
<Point><coordinates>-122.382600,37.614900,0</coordinates></Point></Placemark>
<Placemark><name>hairmanmao</name><description>I'm at San Francisco International Airport (SFO) (SFO Airport, San Francisco) w/ 120 others http://t.co/BVeEjOKu
Fri, 18 Nov 2011 17:31:14 +0000</description><styleUrl>#hideLabel</styleUrl>
<Point><coordinates>-122.374722,37.618889,0</coordinates></Point></Placemark>
<Placemark><name>peerside</name><description>&quot;Any Screen Computing&quot; by booting Android off a custom USB key - http://t.co/citBS8ie
Fri, 18 Nov 2011 17:33:03 +0000</description><styleUrl>#hideLabel</styleUrl>
<Point><coordinates>-122.392906,37.611337,0</coordinates></Point></Placemark>
<Placemark><name>mollydot</name><description>RT @peerside: &quot;Any Screen Computing&quot; by booting Android off a custom USB key - http://t.co/citBS8ie
Fri, 18 Nov 2011 17:35:40 +0000</description><styleUrl>#hideLabel</styleUrl>
<Point><coordinates>-122.392906,37.611337,0</coordinates></Point></Placemark>
<Placemark><name>peerside</name><description>Just discovered that http://t.co/mX1GEGPC - a Random Number Service - is run out of Trinity Dublin - http://t.co/O3OCRXgU
Fri, 18 Nov 2011 17:35:28 +0000</description><styleUrl>#hideLabel</styleUrl>
<Point><coordinates>-122.392906,37.611337,0</coordinates></Point></Placemark>
<Placemark><name>xmppjingle</name><description>RT @joshmarinacci: Will cheap 3D printers capable of making chairs mean that we need furniture DRM? http://t.co/xf0DGrjv
Fri, 18 Nov 2011 17:35:14 +0000</description><styleUrl>#hideLabel</styleUrl>
<Point><coordinates>-122.383900,37.621774,0</coordinates></Point></Placemark>
<Placemark><name>dmcgrath</name><description>Puerto vallarta here i come (@ San Francisco International Airport (SFO) w/ 124 others) http://t.co/xa4CQK61
Fri, 18 Nov 2011 17:38:50 +0000</description><styleUrl>#hideLabel</styleUrl>
<Point><coordinates>-122.387900,37.615800,0</coordinates></Point></Placemark>
<Placemark><name>tryphoon</name><description>Back at my WB office. At some point I shall  really decide which office I live in: The one above the bar or the one next to the gym?
Fri, 18 Nov 2011 17:45:34 +0000</description><styleUrl>#hideLabel</styleUrl>
<Point><coordinates>-122.383057,37.614990,0</coordinates></Point></Placemark>
<Placemark><name>stangerous</name><description>I'm at San Francisco International Airport (SFO) (SFO Airport, San Francisco) w/ 132 others http://t.co/awPNjyAk
Fri, 18 Nov 2011 17:49:37 +0000</description><styleUrl>#hideLabel</styleUrl>
<Point><coordinates>-122.374722,37.618889,0</coordinates></Point></Placemark>
<Placemark><name>semih_okur</name><description>The weather in Phoenix was far better than SF:) foggy, rainy... Darn!
Fri, 18 Nov 2011 17:48:40 +0000</description><styleUrl>#hideLabel</styleUrl>
<Point><coordinates>-122.383200,37.619700,0</coordinates></Point></Placemark>
<Placemark><name>tedwada</name><description>I'm at San Francisco International Airport (SFO) (SFO Airport, San Francisco) w/ 131 others http://t.co/B1F9Af8c
Fri, 18 Nov 2011 17:51:33 +0000</description><styleUrl>#hideLabel</styleUrl>
<Point><coordinates>-122.374722,37.618889,0</coordinates></Point></Placemark>
<Placemark><name>rlee522</name><description>Half(ish) way to Korea! (@ San Francisco International Airport (SFO) w/ 130 others) http://t.co/6mEi8Qn8
Fri, 18 Nov 2011 17:50:48 +0000</description><styleUrl>#hideLabel</styleUrl>
<Point><coordinates>-122.387900,37.615800,0</coordinates></Point></Placemark>
<Placemark><name>micahmoreau</name><description>Gmail's 'send in the background' is huge b/c page load time REALLY matters. Amazon: 100 ms extra = 1% drop in sales. http://t.co/6plslOKJ
Fri, 18 Nov 2011 17:52:30 +0000</description><styleUrl>#hideLabel</styleUrl>
<Point><coordinates>-122.386849,37.617915,0</coordinates></Point></Placemark>
<Placemark><name>ryanpphelan</name><description>I'm at San Francisco International Airport (SFO) (SFO Airport, San Francisco) w/ 131 others http://t.co/6CQA8UvL
Fri, 18 Nov 2011 17:52:13 +0000</description><styleUrl>#hideLabel</styleUrl>
<Point><coordinates>-122.374722,37.618889,0</coordinates></Point></Placemark>
<Placemark><name>MEOWPWR</name><description>I'm at San Francisco International Airport (SFO) (SFO Airport, San Francisco) w/ 131 others http://t.co/mEqAuElL
Fri, 18 Nov 2011 17:55:29 +0000</description><styleUrl>#hideLabel</styleUrl>
<Point><coordinates>-122.374722,37.618889,0</coordinates></Point></Placemark>
<Placemark><name>masapong</name><description>I'm at San Francisco International Airport (SFO) (SFO Airport, San Francisco) w/ 133 others http://t.co/fZqCCDxj
Fri, 18 Nov 2011 17:57:30 +0000</description><styleUrl>#hideLabel</styleUrl>
<Point><coordinates>-122.374722,37.618889,0</coordinates></Point></Placemark>
<Placemark><name>marcdzb</name><description>Don't give me no bammer weed (@ San Francisco International Airport (SFO) w/ 132 others) http://t.co/KzNaFOn8
Fri, 18 Nov 2011 17:56:52 +0000</description><styleUrl>#hideLabel</styleUrl>
<Point><coordinates>-122.387900,37.615800,0</coordinates></Point></Placemark>
<Placemark><name>manshedottawa</name><description>@DavidBastlTSN is this what they are going back to? or a trip down memory lane? is the black version with the revised 'Jay' being scrapped?
Fri, 18 Nov 2011 17:56:40 +0000</description><styleUrl>#hideLabel</styleUrl>
<Point><coordinates>-122.387082,37.619201,0</coordinates></Point></Placemark>
<Placemark><name>tryphoon</name><description>I think I finally managed to prevent stupid AOL Lifestream to post on all of my profiles each time I change my AIM status. Beats FB privacy!
Fri, 18 Nov 2011 17:59:52 +0000</description><styleUrl>#hideLabel</styleUrl>
<Point><coordinates>-122.383057,37.614990,0</coordinates></Point></Placemark>
<Placemark><name>efitol</name><description>Quick drink before heading off to #Cabo. ¡Vamenos! http://t.co/Qkn1Cpo8
Fri, 18 Nov 2011 18:02:22 +0000</description><styleUrl>#hideLabel</styleUrl>
<Point><coordinates>-122.385000,37.612900,0</coordinates></Point></Placemark>
<Placemark><name>adiazher</name><description>So long San Francisco! Heading to Madrid!
Fri, 18 Nov 2011 18:05:37 +0000</description><styleUrl>#hideLabel</styleUrl>
<Point><coordinates>-122.380300,37.611000,0</coordinates></Point></Placemark>
<Placemark><name>JanSenderek</name><description>I'm at San Francisco International Airport (SFO) (SFO Airport, San Francisco) w/ 139 others http://t.co/CA4yPL6Z
Fri, 18 Nov 2011 18:05:31 +0000</description><styleUrl>#hideLabel</styleUrl>
<Point><coordinates>-122.374722,37.618889,0</coordinates></Point></Placemark>
<Placemark><name>BrittanyHolt</name><description>I would hang out at SFO Terminal 2 if you didn't have to buy a plane ticket to get in. #virginamerica #bravo
Fri, 18 Nov 2011 18:05:09 +0000</description><styleUrl>#hideLabel</styleUrl>
<Point><coordinates>-122.381400,37.617500,0</coordinates></Point></Placemark>
<Placemark><name>mikojava</name><description>@brynn @jdc that's so cool... I worked with Jon at Sun Microsystems JavaSoft about what 15 years ago?
Fri, 18 Nov 2011 18:08:48 +0000</description><styleUrl>#hideLabel</styleUrl>
<Point><coordinates>-122.389775,37.619022,0</coordinates></Point></Placemark>
<Placemark><name>lizasperling</name><description>RT @mikojava: RT @BrianNorgard: Leaked YouTube redesign. http://t.co/8FCXxCEf
Fri, 18 Nov 2011 18:11:09 +0000</description><styleUrl>#hideLabel</styleUrl>
<Point><coordinates>-122.389775,37.619022,0</coordinates></Point></Placemark>
<Placemark><name>mikojava</name><description>RT @BrianNorgard: Leaked YouTube redesign. http://t.co/8FCXxCEf
Fri, 18 Nov 2011 18:10:56 +0000</description><styleUrl>#hideLabel</styleUrl>
<Point><coordinates>-122.389775,37.619022,0</coordinates></Point></Placemark>
<Placemark><name>sobeit</name><description>I'm at San Francisco International Airport (SFO) (SFO Airport, San Francisco) w/ 137 others http://t.co/MDRhGMjG
Fri, 18 Nov 2011 18:10:33 +0000</description><styleUrl>#hideLabel</styleUrl>
<Point><coordinates>-122.374722,37.618889,0</coordinates></Point></Placemark>
<Placemark><name>mikojava</name><description>RT @davidhornik: Howard and I discuss Zynga's stock-gate on the 50th VentureCast: http://t.co/pFEZFAhd
Fri, 18 Nov 2011 18:09:40 +0000</description><styleUrl>#hideLabel</styleUrl>
<Point><coordinates>-122.389775,37.619022,0</coordinates></Point></Placemark>
<Placemark><name>mikojava</name><description>RT @krishnan: Engine Yard announces Node.js support. Man, they are going fast on multi-language  Now time for some big differentiation.
Fri, 18 Nov 2011 18:12:43 +0000</description><styleUrl>#hideLabel</styleUrl>
<Point><coordinates>-122.389775,37.619022,0</coordinates></Point></Placemark>
<Placemark><name>mikojava</name><description>RT @davewiner: Facebook Employees Go Nuts As Zuckerberg Tells Them The IPO Is Coming.  http://t.co/UUSKl9k2
Fri, 18 Nov 2011 18:14:08 +0000</description><styleUrl>#hideLabel</styleUrl>
<Point><coordinates>-122.389775,37.619022,0</coordinates></Point></Placemark>
<Placemark><name>mikojava</name><description>RT @Rafe: For &quot;anti bully day&quot; at kid's school, kids  to wear red shirts. Don't they know redshirts are first to get blasted by the aliens?
Fri, 18 Nov 2011 18:13:27 +0000</description><styleUrl>#hideLabel</styleUrl>
<Point><coordinates>-122.389775,37.619022,0</coordinates></Point></Placemark>
<Placemark><name>caseyp</name><description>Home please. (@ San Francisco International Airport (SFO) w/ 139 others) http://t.co/KRCF0Edj
Fri, 18 Nov 2011 18:12:57 +0000</description><styleUrl>#hideLabel</styleUrl>
<Point><coordinates>-122.387900,37.615800,0</coordinates></Point></Placemark>
<Placemark><name>mikojava</name><description>RT @sgarciaDev: &quot;My method is to look at something that seems like a good idea and assume it's true.&quot; - Bill Joy
Fri, 18 Nov 2011 18:15:39 +0000</description><styleUrl>#hideLabel</styleUrl>
<Point><coordinates>-122.389775,37.619022,0</coordinates></Point></Placemark>
<Placemark><name>jzb</name><description>RT @mikojava: RT @Rafe: For &quot;anti bully day&quot; at kid's school, kids  to wear red shirts. Don't they know redshirts are first to get blasted by the aliens?
Fri, 18 Nov 2011 18:20:15 +0000</description><styleUrl>#hideLabel</styleUrl>
<Point><coordinates>-122.389775,37.619022,0</coordinates></Point></Placemark>
<Placemark><name>Almost_Famous09</name><description>Touchdown San Francisco!!!!
Fri, 18 Nov 2011 18:22:44 +0000</description><styleUrl>#hideLabel</styleUrl>
<Point><coordinates>-122.381600,37.614600,0</coordinates></Point></Placemark>
<Placemark><name>ThisIsW</name><description>Jump... (@ San Francisco International Airport (SFO) w/ 145 others) http://t.co/R99gykBJ
Fri, 18 Nov 2011 18:22:32 +0000</description><styleUrl>#hideLabel</styleUrl>
<Point><coordinates>-122.387900,37.615800,0</coordinates></Point></Placemark>
<Placemark><name>Almost_Famous09</name><description>@305MAYOR what up trick
Fri, 18 Nov 2011 18:24:09 +0000</description><styleUrl>#hideLabel</styleUrl>
<Point><coordinates>-122.381600,37.614900,0</coordinates></Point></Placemark>
<Placemark><name>_sulsurf_</name><description>I'm at San Francisco International Airport (SFO) (SFO Airport, San Francisco) w/ 146 others http://t.co/NqdNO6RN
Fri, 18 Nov 2011 18:23:05 +0000</description><styleUrl>#hideLabel</styleUrl>
<Point><coordinates>-122.374722,37.618889,0</coordinates></Point></Placemark>
<Placemark><name>colinj</name><description>RT @mikojava: RT @Rafe: For &quot;anti bully day&quot; at kid's school, kids  to wear red shirts. Don't they know redshirts are first to get blasted by the aliens?
Fri, 18 Nov 2011 18:24:33 +0000</description><styleUrl>#hideLabel</styleUrl>
<Point><coordinates>-122.389775,37.619022,0</coordinates></Point></Placemark>
<Placemark><name>ebelove</name><description>Heading home after a fantastic shoot with a great SF crew (@ Gate 26) http://t.co/PQExXvHb
Fri, 18 Nov 2011 18:26:59 +0000</description><styleUrl>#hideLabel</styleUrl>
<Point><coordinates>-122.384000,37.612900,0</coordinates></Point></Placemark>
<Placemark><name>tryphoon</name><description>@WordPressiOS Sadly little as the text &amp; media editors are so clunky. Please look at solutions like the Posterous app or Blogsy for iPad.
Fri, 18 Nov 2011 18:28:19 +0000</description><styleUrl>#hideLabel</styleUrl>
<Point><coordinates>-122.383057,37.614990,0</coordinates></Point></Placemark>
<Placemark><name>Younai</name><description>Okay got no charge to get my flight earlier on flight 888 gate 88 but there are no piliots on the plane go figure,... http://t.co/3YkUxKAt
Fri, 18 Nov 2011 18:28:11 +0000</description><styleUrl>#hideLabel</styleUrl>
<Point><coordinates>-122.387900,37.615800,0</coordinates></Point></Placemark>
<Placemark><name>June_Yer</name><description>Landed in the bay!!!!! (@ San Francisco International Airport (SFO) w/ 147 others) http://t.co/802YXvuB
Fri, 18 Nov 2011 18:29:59 +0000</description><styleUrl>#hideLabel</styleUrl>
<Point><coordinates>-122.387900,37.615800,0</coordinates></Point></Placemark>
<Placemark><name>brendangahan</name><description>@mayka good seeing u last night!
Fri, 18 Nov 2011 18:36:37 +0000</description><styleUrl>#hideLabel</styleUrl>
<Point><coordinates>-122.382800,37.615000,0</coordinates></Point></Placemark>
<Placemark><name>melindabyerley</name><description>@kcpike I want to do early prototypes myself for my startup.  all the devs said Ruby. I won't be putting any devs out of a job soon tho. ;P
Fri, 18 Nov 2011 18:36:09 +0000</description><styleUrl>#hideLabel</styleUrl>
<Point><coordinates>-122.384117,37.612808,0</coordinates></Point></Placemark>
<Placemark><name>NRyanHall</name><description>I'm at San Francisco International Airport (SFO) (SFO Airport, San Francisco) w/ 150 others http://t.co/F2MYAB6q
Fri, 18 Nov 2011 18:38:29 +0000</description><styleUrl>#hideLabel</styleUrl>
<Point><coordinates>-122.374722,37.618889,0</coordinates></Point></Placemark>
<Placemark><name>ekg2009</name><description>RT @mikojava: RT @Rafe: For &quot;anti bully day&quot; at kid's school, kids  to wear red shirts. Don't they know redshirts are first to get blasted by the aliens?
Fri, 18 Nov 2011 18:42:22 +0000</description><styleUrl>#hideLabel</styleUrl>
<Point><coordinates>-122.389775,37.619022,0</coordinates></Point></Placemark>
<Placemark><name>AndyA3</name><description>Off to the Philippines (@ San Francisco International Airport (SFO) w/ 145 others) http://t.co/h8yfoOQh
Fri, 18 Nov 2011 18:55:28 +0000</description><styleUrl>#hideLabel</styleUrl>
<Point><coordinates>-122.387900,37.615800,0</coordinates></Point></Placemark>
<Placemark><name>benorum</name><description>I'm at San Francisco International Airport (SFO) (SFO Airport, San Francisco) w/ 146 others http://t.co/yEq06YZx
Fri, 18 Nov 2011 18:56:51 +0000</description><styleUrl>#hideLabel</styleUrl>
<Point><coordinates>-122.374722,37.618889,0</coordinates></Point></Placemark>
<Placemark><name>_xiang_chen_</name><description>thought: would it be a valid user study if conducted by someone with #schizophrenia with imaginary participants? #chi2012
Fri, 18 Nov 2011 18:56:40 +0000</description><styleUrl>#hideLabel</styleUrl>
<Point><coordinates>-122.381583,37.617762,0</coordinates></Point></Placemark>
<Placemark><name>melindabyerley</name><description>My answer on @Quora to: Are the courses provided on http://t.co/dS7PmxNe quality courses? http://t.co/llocC3xY
Fri, 18 Nov 2011 19:01:23 +0000</description><styleUrl>#hideLabel</styleUrl>
<Point><coordinates>-122.384117,37.612808,0</coordinates></Point></Placemark>
<Placemark><name>tmcw</name><description>Random upgrade to first class win!?
Fri, 18 Nov 2011 19:01:06 +0000</description><styleUrl>#hideLabel</styleUrl>
<Point><coordinates>-122.383500,37.612800,0</coordinates></Point></Placemark>
<Placemark><name>melindabyerley</name><description>@kcpike that's what I understand too.  why PHP for you?
Fri, 18 Nov 2011 19:03:04 +0000</description><styleUrl>#hideLabel</styleUrl>
<Point><coordinates>-122.384117,37.612808,0</coordinates></Point></Placemark>
<Placemark><name>melindabyerley</name><description>@kcpike also your answer on quora rocked the house &quot;I'm lazy.&quot;  haha.  totally true for me too.
Fri, 18 Nov 2011 19:05:14 +0000</description><styleUrl>#hideLabel</styleUrl>
<Point><coordinates>-122.384117,37.612808,0</coordinates></Point></Placemark>
<Placemark><name>kevinliu</name><description>Later haters! (@ San Francisco International Airport (SFO) w/ 151 others) http://t.co/5r34sjKa
Fri, 18 Nov 2011 19:04:22 +0000</description><styleUrl>#hideLabel</styleUrl>
<Point><coordinates>-122.387900,37.615800,0</coordinates></Point></Placemark>
<Placemark><name>jeffreymcmanus</name><description>RT @melindabyerley: My answer on @Quora to: Are the courses provided on http://t.co/dS7PmxNe quality courses? http://t.co/llocC3xY
Fri, 18 Nov 2011 19:13:01 +0000</description><styleUrl>#hideLabel</styleUrl>
<Point><coordinates>-122.384117,37.612808,0</coordinates></Point></Placemark>
<Placemark><name>KeliiClyburn</name><description>Gotta be 10th I say lol RT @woahdereCRiSSY: this was either 10th or 11th grade i cant remember . lol http://t.co/GiI0bsy3
Fri, 18 Nov 2011 19:14:57 +0000</description><styleUrl>#hideLabel</styleUrl>
<Point><coordinates>-122.387660,37.616222,0</coordinates></Point></Placemark>
<Placemark><name>melindabyerley</name><description>@kcpike I prefer to think of it as &quot;have other priorities.&quot; ;)
Fri, 18 Nov 2011 19:13:46 +0000</description><styleUrl>#hideLabel</styleUrl>
<Point><coordinates>-122.384117,37.612808,0</coordinates></Point></Placemark>
<Placemark><name>A_TRAIN54</name><description>@Eli_The_Giant lol.
Fri, 18 Nov 2011 19:16:49 +0000</description><styleUrl>#hideLabel</styleUrl>
<Point><coordinates>-122.388900,37.621800,0</coordinates></Point></Placemark>
<Placemark><name>chrinder</name><description>I'm at San Francisco International Airport (SFO) (SFO Airport, San Francisco) w/ 149 others http://t.co/nAbL0wTu
Fri, 18 Nov 2011 19:15:36 +0000</description><styleUrl>#hideLabel</styleUrl>
<Point><coordinates>-122.374722,37.618889,0</coordinates></Point></Placemark>
<Placemark><name>A_TRAIN54</name><description>@Niccpula ima get some just for you. I just landed in SF.
Fri, 18 Nov 2011 19:17:14 +0000</description><styleUrl>#hideLabel</styleUrl>
<Point><coordinates>-122.388900,37.621800,0</coordinates></Point></Placemark>
<Placemark><name>imagineboldly</name><description>@RyanEGregg @kylelaird16 I know so I need to get my fill of jabs in before I'm cut off, otherwise what will you do?? #12daysofsilencenonate
Fri, 18 Nov 2011 19:22:38 +0000</description><styleUrl>#hideLabel</styleUrl>
<Point><coordinates>-122.389600,37.618500,0</coordinates></Point></Placemark>
<Placemark><name>A_TRAIN54</name><description>@Niccpula lol I got you nd good luck bro!!
Fri, 18 Nov 2011 19:26:19 +0000</description><styleUrl>#hideLabel</styleUrl>
<Point><coordinates>-122.383100,37.617900,0</coordinates></Point></Placemark>
<Placemark><name>vincedicaprio</name><description>Waiting for my flight to Singapore (@ San Francisco International Airport (SFO) w/ 146 others) [pic]: http://t.co/QMktaEOa
Fri, 18 Nov 2011 19:25:56 +0000</description><styleUrl>#hideLabel</styleUrl>
<Point><coordinates>-122.387900,37.615800,0</coordinates></Point></Placemark>
<Placemark><name>A_TRAIN54</name><description>@Travis_Billings where at?
Fri, 18 Nov 2011 19:25:35 +0000</description><styleUrl>#hideLabel</styleUrl>
<Point><coordinates>-122.383100,37.617900,0</coordinates></Point></Placemark>
<Placemark><name>Deezign</name><description>Later, SF! You've been lovely! (@ San Francisco International Airport (SFO) w/ 147 others) http://t.co/dbljvcfM
Fri, 18 Nov 2011 19:27:22 +0000</description><styleUrl>#hideLabel</styleUrl>
<Point><coordinates>-122.387900,37.615800,0</coordinates></Point></Placemark>
<Placemark><name>FedericoZH</name><description>I'm at San Francisco International Airport (SFO) (SFO Airport, San Francisco) w/ 149 others http://t.co/gJruQBYS
Fri, 18 Nov 2011 19:28:36 +0000</description><styleUrl>#hideLabel</styleUrl>
<Point><coordinates>-122.374722,37.618889,0</coordinates></Point></Placemark>
<Placemark><name>simplyali</name><description>I'm at San Francisco International Airport (SFO) (SFO Airport, San Francisco) w/ 151 others http://t.co/1NlP191a
Fri, 18 Nov 2011 19:39:16 +0000</description><styleUrl>#hideLabel</styleUrl>
<Point><coordinates>-122.374722,37.618889,0</coordinates></Point></Placemark>
<Placemark><name>MarioGuillenSF</name><description>Another day at work   @ SFO http://t.co/ePm6S8eN
Fri, 18 Nov 2011 19:38:32 +0000</description><styleUrl>#hideLabel</styleUrl>
<Point><coordinates>-122.388000,37.620300,0</coordinates></Point></Placemark>
<Placemark><name>ryanmcgrath</name><description>@ninamehta The irony is that your tweet about 4sq checkins is geo-tagged. ;)
Fri, 18 Nov 2011 19:43:56 +0000</description><styleUrl>#hideLabel</styleUrl>
<Point><coordinates>-122.385500,37.612400,0</coordinates></Point></Placemark>
<Placemark><name>mikojava</name><description>@PCGame_Examiner good one =)
Fri, 18 Nov 2011 19:46:34 +0000</description><styleUrl>#hideLabel</styleUrl>
<Point><coordinates>-122.389775,37.619022,0</coordinates></Point></Placemark>
<Placemark><name>ryanmcgrath</name><description>@enotionz The only thing I'll force myself to forget is your ass backwards logic.
Fri, 18 Nov 2011 19:46:02 +0000</description><styleUrl>#hideLabel</styleUrl>
<Point><coordinates>-122.385500,37.612400,0</coordinates></Point></Placemark>
<Placemark><name>mikojava</name><description>@appolicious thanks for the FF shara =)
Fri, 18 Nov 2011 19:45:42 +0000</description><styleUrl>#hideLabel</styleUrl>
<Point><coordinates>-122.389775,37.619022,0</coordinates></Point></Placemark>
<Placemark><name>mikojava</name><description>http://t.co/XmsKeujZ Monkey Sugar... a leading provider in the 12B Simian Delivery Service business (SDS), serving ppl who live in trees
Fri, 18 Nov 2011 19:49:08 +0000</description><styleUrl>#hideLabel</styleUrl>
<Point><coordinates>-122.389775,37.619022,0</coordinates></Point></Placemark>
<Placemark><name>jian_</name><description>The Ride. #OVOXO
Fri, 18 Nov 2011 19:48:32 +0000</description><styleUrl>#hideLabel</styleUrl>
<Point><coordinates>-122.393122,37.608833,0</coordinates></Point></Placemark>
<Placemark><name>Swedeadorian</name><description>I'm at San Francisco International Airport (SFO) (SFO Airport, San Francisco) w/ 150 others http://t.co/DrqMCeBJ
Fri, 18 Nov 2011 19:52:05 +0000</description><styleUrl>#hideLabel</styleUrl>
<Point><coordinates>-122.374722,37.618889,0</coordinates></Point></Placemark>
<Placemark><name>coleylogan</name><description>@ericlumiere check out this video on @topblip! http://t.co/aosbN6Ze
Fri, 18 Nov 2011 19:55:43 +0000</description><styleUrl>#hideLabel</styleUrl>
<Point><coordinates>-122.381400,37.617400,0</coordinates></Point></Placemark>
<Placemark><name>melindabyerley</name><description>sometimes it's fun to feed the trolls. Just can't do it too much.
Fri, 18 Nov 2011 19:55:12 +0000</description><styleUrl>#hideLabel</styleUrl>
<Point><coordinates>-122.384117,37.612808,0</coordinates></Point></Placemark>
<Placemark><name>coleylogan</name><description>@meheine that would be the life, that's for sure!
Fri, 18 Nov 2011 20:09:07 +0000</description><styleUrl>#hideLabel</styleUrl>
<Point><coordinates>-122.381500,37.617300,0</coordinates></Point></Placemark>
<Placemark><name>TheClayFox</name><description>I have utterly mastered the airport security line. I wish they had competitions for that. I would pwn. http://t.co/WLMoy2rT
Fri, 18 Nov 2011 20:11:00 +0000</description><styleUrl>#hideLabel</styleUrl>
<Point><coordinates>-122.387900,37.615800,0</coordinates></Point></Placemark>
<Placemark><name>oferm0d</name><description>Finally through with my original pic.  #fb http://t.co/g7NZ1oEx
Fri, 18 Nov 2011 20:12:21 +0000</description><styleUrl>#hideLabel</styleUrl>
<Point><coordinates>-122.387300,37.620100,0</coordinates></Point></Placemark>
<Placemark><name>maggiefox</name><description>I'm at San Francisco International Airport (SFO) (SFO Airport, San Francisco) w/ 144 others http://t.co/IP8Qgf4B
Fri, 18 Nov 2011 20:13:20 +0000</description><styleUrl>#hideLabel</styleUrl>
<Point><coordinates>-122.374722,37.618889,0</coordinates></Point></Placemark>
<Placemark><name>McKay_Julie</name><description>Ahhh, it feels good to be back #californialovin
Fri, 18 Nov 2011 20:15:48 +0000</description><styleUrl>#hideLabel</styleUrl>
<Point><coordinates>-122.383100,37.606700,0</coordinates></Point></Placemark>
<Placemark><name>McKay_Julie</name><description>@Katia_Demetra now! Haha just landed in SF
Fri, 18 Nov 2011 20:16:34 +0000</description><styleUrl>#hideLabel</styleUrl>
<Point><coordinates>-122.385700,37.608100,0</coordinates></Point></Placemark>
<Placemark><name>KeliiClyburn</name><description>I can't wait until December ima cut all this facial hair off
Fri, 18 Nov 2011 20:20:10 +0000</description><styleUrl>#hideLabel</styleUrl>
<Point><coordinates>-122.385549,37.616622,0</coordinates></Point></Placemark>
<Placemark><name>KeliiClyburn</name><description>RT @GOEDKOOLESTOUT: at the end of the day fuck wit u say nigga im a keep it G!
Fri, 18 Nov 2011 20:19:43 +0000</description><styleUrl>#hideLabel</styleUrl>
<Point><coordinates>-122.385549,37.616622,0</coordinates></Point></Placemark>
<Placemark><name>jenbee</name><description>I'm at San Francisco International Airport (SFO) (SFO Airport, San Francisco) w/ 152 others http://t.co/jYV6EotD
Fri, 18 Nov 2011 20:24:21 +0000</description><styleUrl>#hideLabel</styleUrl>
<Point><coordinates>-122.374722,37.618889,0</coordinates></Point></Placemark>
<Placemark><name>kyungsunmin</name><description>I'm at San Francisco International Airport (SFO) (SFO Airport, San Francisco) w/ 154 others http://t.co/W5q8pHV0
Fri, 18 Nov 2011 20:26:03 +0000</description><styleUrl>#hideLabel</styleUrl>
<Point><coordinates>-122.374722,37.618889,0</coordinates></Point></Placemark>
<Placemark><name>KeliiClyburn</name><description>@urstruly_faith yea I am haha
Fri, 18 Nov 2011 20:29:37 +0000</description><styleUrl>#hideLabel</styleUrl>
<Point><coordinates>-122.385549,37.616622,0</coordinates></Point></Placemark>
<Placemark><name>melindabyerley</name><description>@Jamiegirl1 @tashadrew @antioxygen omg me too. Born in WI.
Fri, 18 Nov 2011 20:35:42 +0000</description><styleUrl>#hideLabel</styleUrl>
<Point><coordinates>-122.384117,37.612808,0</coordinates></Point></Placemark>
<Placemark><name>drewmc2912</name><description>I'm at San Francisco International Airport (SFO) (SFO Airport, San Francisco) w/ 151 others http://t.co/mqqGXSKF
Fri, 18 Nov 2011 20:37:26 +0000</description><styleUrl>#hideLabel</styleUrl>
<Point><coordinates>-122.374722,37.618889,0</coordinates></Point></Placemark>
<Placemark><name>AshBaxNYC</name><description>Foggy landing! (@ San Francisco International Airport (SFO) w/ 148 others) http://t.co/mrayzGRJ
Fri, 18 Nov 2011 20:41:30 +0000</description><styleUrl>#hideLabel</styleUrl>
<Point><coordinates>-122.387900,37.615800,0</coordinates></Point></Placemark>
<Placemark><name>Juvry</name><description>Back on US soil. Now I just have to drive home (@ San Francisco International Airport (SFO) w/ 146 others) http://t.co/EvxZaAXr
Fri, 18 Nov 2011 20:41:10 +0000</description><styleUrl>#hideLabel</styleUrl>
<Point><coordinates>-122.387900,37.615800,0</coordinates></Point></Placemark>
<Placemark><name>micahmoreau</name><description>@CougJe #whereonearthisthesunhidaway?
Fri, 18 Nov 2011 20:44:14 +0000</description><styleUrl>#hideLabel</styleUrl>
<Point><coordinates>-122.386849,37.617915,0</coordinates></Point></Placemark>
<Placemark><name>TheClayFox</name><description>Airport art.   @ Terminal 2 (T2) http://t.co/6t75PvUg
Fri, 18 Nov 2011 20:43:50 +0000</description><styleUrl>#hideLabel</styleUrl>
<Point><coordinates>-122.382500,37.617100,0</coordinates></Point></Placemark>
<Placemark><name>_xiang_chen_</name><description>#Monga is such a great youth movie; a lens to peep into the taiwanese/chinese cultures. http://t.co/MIwCEtnh
Fri, 18 Nov 2011 20:45:11 +0000</description><styleUrl>#hideLabel</styleUrl>
<Point><coordinates>-122.381583,37.617762,0</coordinates></Point></Placemark>
<Placemark><name>cakdeeds</name><description>D.F. here we come. (@ San Francisco International Airport (SFO) w/ 153 others) http://t.co/bZsS6DRw
Fri, 18 Nov 2011 20:49:05 +0000</description><styleUrl>#hideLabel</styleUrl>
<Point><coordinates>-122.387900,37.615800,0</coordinates></Point></Placemark>
<Placemark><name>StephensKevin</name><description>I'm at San Francisco International Airport (SFO) (SFO Airport, San Francisco) w/ 153 others http://t.co/dhI2NLNQ
Fri, 18 Nov 2011 20:52:52 +0000</description><styleUrl>#hideLabel</styleUrl>
<Point><coordinates>-122.374722,37.618889,0</coordinates></Point></Placemark>
<Placemark><name>tektalk</name><description>I'm at San Francisco International Airport (SFO) (SFO Airport, San Francisco) w/ 151 others http://t.co/HDZPoamZ
Fri, 18 Nov 2011 20:56:20 +0000</description><styleUrl>#hideLabel</styleUrl>
<Point><coordinates>-122.374722,37.618889,0</coordinates></Point></Placemark>
<Placemark><name>harrymccracken</name><description>For the first time in--oh, 20 years--I'm going on a business trip with no laptop. Just an iPad. (I am, however, taking three phones.)
Fri, 18 Nov 2011 21:18:30 +0000</description><styleUrl>#hideLabel</styleUrl>
<Point><coordinates>-122.383200,37.617900,0</coordinates></Point></Placemark>
<Placemark><name>harrymccracken</name><description>@AngelinaSouren Thanks! None of the features I need on your site are working. There's no record of my upcoming flights and I can't check in.
Fri, 18 Nov 2011 21:20:13 +0000</description><styleUrl>#hideLabel</styleUrl>
<Point><coordinates>-122.383200,37.617900,0</coordinates></Point></Placemark>
<Placemark><name>ddxboi</name><description>Waiting in this airport is going to be fun, especially since I don't board for another hour or so haha
Fri, 18 Nov 2011 21:22:00 +0000</description><styleUrl>#hideLabel</styleUrl>
<Point><coordinates>-122.390300,37.611600,0</coordinates></Point></Placemark>
<Placemark><name>brettmirl</name><description>I made it in one piece!!! (@ San Francisco International Airport (SFO) w/ 133 others) http://t.co/mAaqRyZ0
Fri, 18 Nov 2011 21:20:55 +0000</description><styleUrl>#hideLabel</styleUrl>
<Point><coordinates>-122.387900,37.615800,0</coordinates></Point></Placemark>
<Placemark><name>rkeally</name><description>&gt;LAS to celebrate 40 great years (@ San Francisco International Airport (SFO) w/ 136 others) http://t.co/whHFEkbR
Fri, 18 Nov 2011 21:22:44 +0000</description><styleUrl>#hideLabel</styleUrl>
<Point><coordinates>-122.387900,37.615800,0</coordinates></Point></Placemark>
<Placemark><name>planetMitch</name><description>RT @Anthony_Malzone: Looking for a quality Canon 5D DP Cinematographer to shoot my film #movie in Jan.  Filming in Los Angeles, paid position.  Set designer.
Fri, 18 Nov 2011 21:24:07 +0000</description><styleUrl>#hideLabel</styleUrl>
<Point><coordinates>-122.393036,37.612473,0</coordinates></Point></Placemark>
<Placemark><name>harrymccracken</name><description>@dennya The Logitech/Zagg one. It's changed my life meaningfully for the better.
Fri, 18 Nov 2011 21:26:16 +0000</description><styleUrl>#hideLabel</styleUrl>
<Point><coordinates>-122.383200,37.617900,0</coordinates></Point></Placemark>
<Placemark><name>ddxboi</name><description>Sooo this complimentary wi-fi is not working...
Fri, 18 Nov 2011 21:26:04 +0000</description><styleUrl>#hideLabel</styleUrl>
<Point><coordinates>-122.392600,37.611700,0</coordinates></Point></Placemark>
<Placemark><name>harrymccracken</name><description>WAIT, WAIT. I forgot I also have a Kindle Fire and a Nook Tablet with me.
Fri, 18 Nov 2011 21:25:33 +0000</description><styleUrl>#hideLabel</styleUrl>
<Point><coordinates>-122.383200,37.617900,0</coordinates></Point></Placemark>
<Placemark><name>harrymccracken</name><description>@AnotherDK Probably, but I know tech writers who are way worse than me,
Fri, 18 Nov 2011 21:28:30 +0000</description><styleUrl>#hideLabel</styleUrl>
<Point><coordinates>-122.383200,37.617900,0</coordinates></Point></Placemark>
<Placemark><name>lionelcook</name><description>RT @Anthony_Malzone: Looking for a quality Canon 5D DP Cinematographer to shoot my film #movie in Jan.  Filming in Los Angeles, paid position.  Set designer.
Fri, 18 Nov 2011 21:28:27 +0000</description><styleUrl>#hideLabel</styleUrl>
<Point><coordinates>-122.393036,37.612473,0</coordinates></Point></Placemark>
<Placemark><name>harrymccracken</name><description>@EricKintz Using it (the Logitech/Zagg one) right now. It's a miraculously userful product.
Fri, 18 Nov 2011 21:27:50 +0000</description><styleUrl>#hideLabel</styleUrl>
<Point><coordinates>-122.383200,37.617900,0</coordinates></Point></Placemark>
<Placemark><name>ddxboi</name><description>Pillow pets or pet pillows whatever they're called, kind of want one. Lol
Fri, 18 Nov 2011 21:30:13 +0000</description><styleUrl>#hideLabel</styleUrl>
<Point><coordinates>-122.393100,37.611500,0</coordinates></Point></Placemark>
<Placemark><name>shawngo</name><description>OH: how did you just do that without thinking it was going to do something WAAAAY different than it did before you changed it?
Fri, 18 Nov 2011 21:29:39 +0000</description><styleUrl>#hideLabel</styleUrl>
<Point><coordinates>-122.385460,37.615040,0</coordinates></Point></Placemark>
<Placemark><name>harrymccracken</name><description>@GabiGoldberg Everything except the iPad and one phone, I have because I'm writing about them.
Fri, 18 Nov 2011 21:33:33 +0000</description><styleUrl>#hideLabel</styleUrl>
<Point><coordinates>-122.383200,37.617900,0</coordinates></Point></Placemark>
<Placemark><name>PaulMiller</name><description>Tried to get on earlier flight home. Failed. Settling down here for the afternoon... http://t.co/QtYeFu5L
Fri, 18 Nov 2011 21:33:26 +0000</description><styleUrl>#hideLabel</styleUrl>
<Point><coordinates>-122.390200,37.613200,0</coordinates></Point></Placemark>
<Placemark><name>ddxboi</name><description>Woo! The Internet is up, thank you SFO for the free Internet.
Fri, 18 Nov 2011 21:32:10 +0000</description><styleUrl>#hideLabel</styleUrl>
<Point><coordinates>-122.393200,37.611700,0</coordinates></Point></Placemark>
<Placemark><name>Kittybln</name><description>I'm at San Francisco International Airport (SFO) (SFO Airport, San Francisco) w/ 137 others http://t.co/NkXci5Zh
Fri, 18 Nov 2011 21:34:26 +0000</description><styleUrl>#hideLabel</styleUrl>
<Point><coordinates>-122.374722,37.618889,0</coordinates></Point></Placemark>
<Placemark><name>philfna</name><description>I'm at San Francisco International Airport (SFO) (SFO Airport, San Francisco) w/ 134 others http://t.co/WzZBwI7M
Fri, 18 Nov 2011 21:33:59 +0000</description><styleUrl>#hideLabel</styleUrl>
<Point><coordinates>-122.374722,37.618889,0</coordinates></Point></Placemark>
<Placemark><name>StratLearner</name><description>RT @melindabyerley: @Leadershipfreak @stratlearner OTOH you'll never change anything either. --me.
Fri, 18 Nov 2011 21:40:03 +0000</description><styleUrl>#hideLabel</styleUrl>
<Point><coordinates>-122.384117,37.612808,0</coordinates></Point></Placemark>
<Placemark><name>harrymccracken</name><description>@apollo729 I've been on trips where I left the laptop in the hotel room. This time I'm not taking it, period.
Fri, 18 Nov 2011 21:42:48 +0000</description><styleUrl>#hideLabel</styleUrl>
<Point><coordinates>-122.383200,37.617900,0</coordinates></Point></Placemark>
<Placemark><name>harrymccracken</name><description>When I run for president, remind me not to put myself up on Twitter as a paid &quot;Who To Follow&quot; listing. Looks like you need to buy friends.
Fri, 18 Nov 2011 21:44:34 +0000</description><styleUrl>#hideLabel</styleUrl>
<Point><coordinates>-122.383200,37.617900,0</coordinates></Point></Placemark>
<Placemark><name>JayWacker</name><description>Landed (@ San Francisco International Airport (SFO) w/ 136 others) http://t.co/NtJ3PjAj
Fri, 18 Nov 2011 21:46:35 +0000</description><styleUrl>#hideLabel</styleUrl>
<Point><coordinates>-122.387900,37.615800,0</coordinates></Point></Placemark>
<Placemark><name>aandmthompson</name><description>At 1.00 mi at 46.9 m/mi. Currently walking using the LogYourRun Free iPhone app. #TwtMyDst
Fri, 18 Nov 2011 21:50:17 +0000</description><styleUrl>#hideLabel</styleUrl>
<Point><coordinates>-122.384865,37.617863,0</coordinates></Point></Placemark>
<Placemark><name>aandmthompson</name><description>Walked 1.08 miles in 48 mins. Uploaded from LogYourRun for iPhone http://t.co/1AsmfpSn
Fri, 18 Nov 2011 21:52:01 +0000</description><styleUrl>#hideLabel</styleUrl>
<Point><coordinates>-122.384865,37.617863,0</coordinates></Point></Placemark>
<Placemark><name>angiemouse</name><description>Please don't make me go thru this again... (@ San Francisco International Airport (SFO) w/ @oroooo) http://t.co/Pl0odCwQ
Fri, 18 Nov 2011 21:57:03 +0000</description><styleUrl>#hideLabel</styleUrl>
<Point><coordinates>-122.387900,37.615800,0</coordinates></Point></Placemark>
<Placemark><name>erica_rod99</name><description>I'm at San Francisco International Airport (SFO) (SFO Airport, San Francisco) w/ 142 others http://t.co/SjvuJAtP
Fri, 18 Nov 2011 22:02:35 +0000</description><styleUrl>#hideLabel</styleUrl>
<Point><coordinates>-122.374722,37.618889,0</coordinates></Point></Placemark>
<Placemark><name>importantshock</name><description>@benstiglitz @rentzsch Yes. Two man-days and a whiteboard full of octothorpes.
Fri, 18 Nov 2011 22:07:32 +0000</description><styleUrl>#hideLabel</styleUrl>
<Point><coordinates>-122.390600,37.611600,0</coordinates></Point></Placemark>
<Placemark><name>ddxboi</name><description>@ETweethome just send me the pics to my email
Fri, 18 Nov 2011 22:11:36 +0000</description><styleUrl>#hideLabel</styleUrl>
<Point><coordinates>-122.393400,37.611600,0</coordinates></Point></Placemark>
<Placemark><name>ddxboi</name><description>Lol half of these people at the terminal are SFSU students.
Fri, 18 Nov 2011 22:13:10 +0000</description><styleUrl>#hideLabel</styleUrl>
<Point><coordinates>-122.392000,37.610800,0</coordinates></Point></Placemark>
<Placemark><name>w1kedZ</name><description>@cmdshft we have a buck on the iPhone 5 one ;)
Fri, 18 Nov 2011 22:16:10 +0000</description><styleUrl>#hideLabel</styleUrl>
<Point><coordinates>-122.385579,37.612361,0</coordinates></Point></Placemark>
<Placemark><name>cmdshft</name><description>RT @w1kedZ: @cmdshft we have a buck on the iPhone 5 one ;)
Fri, 18 Nov 2011 22:16:22 +0000</description><styleUrl>#hideLabel</styleUrl>
<Point><coordinates>-122.385579,37.612361,0</coordinates></Point></Placemark>
<Placemark><name>importantshock</name><description>@ii Nice new screen name.
Fri, 18 Nov 2011 22:26:45 +0000</description><styleUrl>#hideLabel</styleUrl>
<Point><coordinates>-122.385900,37.617800,0</coordinates></Point></Placemark>
<Placemark><name>es_el_vee</name><description>I'm at San Francisco International Airport (SFO) (SFO Airport, San Francisco) w/ 141 others http://t.co/YdV5G2a0
Fri, 18 Nov 2011 22:28:28 +0000</description><styleUrl>#hideLabel</styleUrl>
<Point><coordinates>-122.374722,37.618889,0</coordinates></Point></Placemark>
<Placemark><name>richardgodfrey</name><description>I'm at San Francisco International Airport (SFO) (SFO Airport, San Francisco) w/ 140 others http://t.co/7E2IgpvX
Fri, 18 Nov 2011 22:28:14 +0000</description><styleUrl>#hideLabel</styleUrl>
<Point><coordinates>-122.374722,37.618889,0</coordinates></Point></Placemark>
<Placemark><name>melindabyerley</name><description>@StratLearner thank you for the response and RT!
Fri, 18 Nov 2011 22:29:36 +0000</description><styleUrl>#hideLabel</styleUrl>
<Point><coordinates>-122.384117,37.612808,0</coordinates></Point></Placemark>
<Placemark><name>jtdavies</name><description>Gregor Hohpe (@ghohpe) plays Jack in the remake of The Shining. Last night at Rod's house recking party. http://t.co/5Cm8fspx
Fri, 18 Nov 2011 22:32:17 +0000</description><styleUrl>#hideLabel</styleUrl>
<Point><coordinates>-122.388400,37.614300,0</coordinates></Point></Placemark>
<Placemark><name>amandapearl</name><description>Let's get this wedding weekend started, yeee! (@ San Francisco International Airport (SFO) w/ @kcmitchell) [pic]: http://t.co/wIWhTtoT
Fri, 18 Nov 2011 22:34:44 +0000</description><styleUrl>#hideLabel</styleUrl>
<Point><coordinates>-122.387900,37.615800,0</coordinates></Point></Placemark>
<Placemark><name>dbrownusc</name><description>I'm at San Francisco International Airport (SFO) (SFO Airport, San Francisco) w/ 137 others http://t.co/tHJIze3P
Fri, 18 Nov 2011 22:36:42 +0000</description><styleUrl>#hideLabel</styleUrl>
<Point><coordinates>-122.374722,37.618889,0</coordinates></Point></Placemark>
<Placemark><name>w1kedZ</name><description>@patcell87 @cmdshft The 4S is a refresh of the 4th iPhone… it's not a new generation phone, I still think new phone will have 5 in name :)
Fri, 18 Nov 2011 22:36:32 +0000</description><styleUrl>#hideLabel</styleUrl>
<Point><coordinates>-122.385579,37.612361,0</coordinates></Point></Placemark>
<Placemark><name>ddxboi</name><description>2 Bs, 1 A on the last midterms I took, what's really good?!
Fri, 18 Nov 2011 22:37:50 +0000</description><styleUrl>#hideLabel</styleUrl>
<Point><coordinates>-122.393000,37.611200,0</coordinates></Point></Placemark>
<Placemark><name>pamelaparker</name><description>Homeward bound! (@ San Francisco International Airport (SFO) w/ 139 others) http://t.co/ekpB1oWS
Fri, 18 Nov 2011 22:43:21 +0000</description><styleUrl>#hideLabel</styleUrl>
<Point><coordinates>-122.387900,37.615800,0</coordinates></Point></Placemark>
<Placemark><name>chowdhury</name><description>Back to EWR! (@ San Francisco International Airport (SFO) w/ 142 others) http://t.co/p9pYA8ID
Fri, 18 Nov 2011 22:45:27 +0000</description><styleUrl>#hideLabel</styleUrl>
<Point><coordinates>-122.387900,37.615800,0</coordinates></Point></Placemark>
<Placemark><name>USMCwife06</name><description>I'm at San Francisco International Airport (SFO) (SFO Airport, San Francisco) w/ 145 others http://t.co/tj6sFmPt
Fri, 18 Nov 2011 22:46:22 +0000</description><styleUrl>#hideLabel</styleUrl>
<Point><coordinates>-122.374722,37.618889,0</coordinates></Point></Placemark>
<Placemark><name>importantshock</name><description>Just got freedom-groped. Fuck the fucking TSA.
Fri, 18 Nov 2011 22:47:26 +0000</description><styleUrl>#hideLabel</styleUrl>
<Point><coordinates>-122.386000,37.618800,0</coordinates></Point></Placemark>
<Placemark><name>FletcherPrice</name><description>@FoodPorn I always want dessert.
Fri, 18 Nov 2011 22:50:13 +0000</description><styleUrl>#hideLabel</styleUrl>
<Point><coordinates>-122.384000,37.612800,0</coordinates></Point></Placemark>
<Placemark><name>colbyvasquez</name><description>I'm at San Francisco International Airport (SFO) (SFO Airport, San Francisco) w/ 149 others http://t.co/ROXLzP4v
Fri, 18 Nov 2011 22:51:18 +0000</description><styleUrl>#hideLabel</styleUrl>
<Point><coordinates>-122.374722,37.618889,0</coordinates></Point></Placemark>
<Placemark><name>kylelowe</name><description>RT @Anthony_Malzone: Looking for a quality Canon 5D DP Cinematographer to shoot my film #movie in Jan.  Filming in Los Angeles, paid position.  Set designer.
Fri, 18 Nov 2011 22:53:10 +0000</description><styleUrl>#hideLabel</styleUrl>
<Point><coordinates>-122.393036,37.612473,0</coordinates></Point></Placemark>
<Placemark><name>w1kedZ</name><description>@patcell87 @cmdshft but consumers already identified with the 3 in 3G .. it would have been confusing… to go from 3GS to 3
Fri, 18 Nov 2011 22:53:03 +0000</description><styleUrl>#hideLabel</styleUrl>
<Point><coordinates>-122.385579,37.612361,0</coordinates></Point></Placemark>
<Placemark><name>amandapearl</name><description>@mitchellfriedmn yes, imminently!  @taywhit is swooping me from the airport, haha :)
Fri, 18 Nov 2011 22:52:27 +0000</description><styleUrl>#hideLabel</styleUrl>
<Point><coordinates>-122.388800,37.616800,0</coordinates></Point></Placemark>
<Placemark><name>importantshock</name><description>@jorbsd IN THE &quot;JUNK&quot; AREA, SIR
Fri, 18 Nov 2011 22:54:02 +0000</description><styleUrl>#hideLabel</styleUrl>
<Point><coordinates>-122.386400,37.618800,0</coordinates></Point></Placemark>
<Placemark><name>KellyKuhnert</name><description>@TracyOttey I'm at SFO about to head to SPAIN, can't wait to see you when I get back!!!! Muah!
Fri, 18 Nov 2011 22:58:20 +0000</description><styleUrl>#hideLabel</styleUrl>
<Point><coordinates>-122.386700,37.607900,0</coordinates></Point></Placemark>
<Placemark><name>amandapearl</name><description>OH: &quot;Mam, would you like a jacket?&quot; &quot;It's okay I don't get cold here; I'm like a seal - I have lots of blubber...&quot;
Fri, 18 Nov 2011 23:00:29 +0000</description><styleUrl>#hideLabel</styleUrl>
<Point><coordinates>-122.388800,37.616800,0</coordinates></Point></Placemark>
<Placemark><name>andrethagiant</name><description>I'm at San Francisco International Airport (SFO) (SFO Airport, San Francisco) w/ 149 others http://t.co/txjCIDlT
Fri, 18 Nov 2011 22:59:09 +0000</description><styleUrl>#hideLabel</styleUrl>
<Point><coordinates>-122.374722,37.618889,0</coordinates></Point></Placemark>
<Placemark><name>importantshock</name><description>I am at an airport bar, listening to this utter douchebag harangue and condescend to the overworked bartender. I hate him. So much.
Fri, 18 Nov 2011 23:05:59 +0000</description><styleUrl>#hideLabel</styleUrl>
<Point><coordinates>-122.386300,37.618900,0</coordinates></Point></Placemark>
<Placemark><name>laurenlea</name><description>Can't wait to see my bestie!!!! (@ San Francisco International Airport (SFO) w/ 142 others) http://t.co/p7alDK3L
Fri, 18 Nov 2011 23:08:01 +0000</description><styleUrl>#hideLabel</styleUrl>
<Point><coordinates>-122.387900,37.615800,0</coordinates></Point></Placemark>
<Placemark><name>hawesness</name><description>I'm at San Francisco International Airport (SFO) (SFO Airport, San Francisco) w/ 144 others http://t.co/hKmLaGUR
Fri, 18 Nov 2011 23:08:56 +0000</description><styleUrl>#hideLabel</styleUrl>
<Point><coordinates>-122.374722,37.618889,0</coordinates></Point></Placemark>
<Placemark><name>w1kedZ</name><description>@patcell87 holy sh@% .. no one ever admits that.. please take it back!
Fri, 18 Nov 2011 23:14:42 +0000</description><styleUrl>#hideLabel</styleUrl>
<Point><coordinates>-122.385579,37.612361,0</coordinates></Point></Placemark>
<Placemark><name>importantshock</name><description>@jorbsd I meant I just wanted to straight-up kill him.
Fri, 18 Nov 2011 23:14:17 +0000</description><styleUrl>#hideLabel</styleUrl>
<Point><coordinates>-122.386300,37.618800,0</coordinates></Point></Placemark>
<Placemark><name>w1kedZ</name><description>@patcell87 @cmdshft yeah, and they fixed the confusion by moving on the iPhone 4 =P … next… the iPhone 5 ;)
Fri, 18 Nov 2011 23:13:38 +0000</description><styleUrl>#hideLabel</styleUrl>
<Point><coordinates>-122.385579,37.612361,0</coordinates></Point></Placemark>
<Placemark><name>michaelgorsuch</name><description>@obfuscurity @asenchi lol
Fri, 18 Nov 2011 23:15:38 +0000</description><styleUrl>#hideLabel</styleUrl>
<Point><coordinates>-122.387000,37.620200,0</coordinates></Point></Placemark>
<Placemark><name>jvagner</name><description>SF. Why so gray? http://t.co/DZy0KAS0
Fri, 18 Nov 2011 23:21:15 +0000</description><styleUrl>#hideLabel</styleUrl>
<Point><coordinates>-122.393300,37.616700,0</coordinates></Point></Placemark>
<Placemark><name>RhoAsh</name><description>Goodbye, Bay Area! Next stop, Heathrow. :D (@ San Francisco International Airport (SFO) w/ 142 others) http://t.co/U15TQsD3
Fri, 18 Nov 2011 23:23:50 +0000</description><styleUrl>#hideLabel</styleUrl>
<Point><coordinates>-122.387900,37.615800,0</coordinates></Point></Placemark>
<Placemark><name>chickrawker</name><description>Got on an earlier flight. (@ San Francisco International Airport (SFO) w/ 150 others) http://t.co/6ED1PIep
Fri, 18 Nov 2011 23:26:26 +0000</description><styleUrl>#hideLabel</styleUrl>
<Point><coordinates>-122.387900,37.615800,0</coordinates></Point></Placemark>
<Placemark><name>bernardmoon</name><description>I'm at San Francisco International Airport (SFO) (SFO Airport, San Francisco) w/ 150 others http://t.co/sAgXYdO2
Fri, 18 Nov 2011 23:25:41 +0000</description><styleUrl>#hideLabel</styleUrl>
<Point><coordinates>-122.374722,37.618889,0</coordinates></Point></Placemark>
<Placemark><name>pommedepin</name><description>NOLA (@ San Francisco International Airport (SFO) w/ 150 others) http://t.co/A7j7jqfI
Fri, 18 Nov 2011 23:25:16 +0000</description><styleUrl>#hideLabel</styleUrl>
<Point><coordinates>-122.387900,37.615800,0</coordinates></Point></Placemark>
<Placemark><name>maddiefattiee</name><description>An hour and a half till our flight..yes our my roommate and I are on the same flight isnt that presh
Fri, 18 Nov 2011 23:29:42 +0000</description><styleUrl>#hideLabel</styleUrl>
<Point><coordinates>-122.381500,37.617500,0</coordinates></Point></Placemark>
<Placemark><name>andykleinman</name><description>Going home! (@ Pinkberry w/ 2 others) http://t.co/24eCLLKL
Fri, 18 Nov 2011 23:33:54 +0000</description><styleUrl>#hideLabel</styleUrl>
<Point><coordinates>-122.381800,37.617400,0</coordinates></Point></Placemark>
<Placemark><name>importantshock</name><description>Airport PA: &quot;Paging passenger… Wang&quot; 
Me: *giggle* 
Everyone else around me: *disapproving glare*
Fri, 18 Nov 2011 23:37:45 +0000</description><styleUrl>#hideLabel</styleUrl>
<Point><coordinates>-122.385900,37.618800,0</coordinates></Point></Placemark>
<Placemark><name>JEFFBM</name><description>I'm inside you SFO. (@ San Francisco International Airport (SFO) w/ 152 others) http://t.co/tyIz9aiu
Fri, 18 Nov 2011 23:36:36 +0000</description><styleUrl>#hideLabel</styleUrl>
<Point><coordinates>-122.387900,37.615800,0</coordinates></Point></Placemark>
<Placemark><name>maddiefattiee</name><description>Ugh I've texted like 5 people and none of them have responded
Fri, 18 Nov 2011 23:42:10 +0000</description><styleUrl>#hideLabel</styleUrl>
<Point><coordinates>-122.381500,37.617500,0</coordinates></Point></Placemark>
<Placemark><name>JayMutzafi</name><description>RT @Anthony_Malzone: Looking for a quality Canon 5D DP Cinematographer to shoot my film #movie in Jan.  Filming in Los Angeles, paid position.  Set designer.
Fri, 18 Nov 2011 23:43:09 +0000</description><styleUrl>#hideLabel</styleUrl>
<Point><coordinates>-122.393036,37.612473,0</coordinates></Point></Placemark>
<Placemark><name>philstepson</name><description>RT @SenatorSanders: America has lost an average of 15 manufacturing facilities a day over the last 10 years. #supercommittee
Fri, 18 Nov 2011 23:51:00 +0000</description><styleUrl>#hideLabel</styleUrl>
<Point><coordinates>-122.370239,37.617966,0</coordinates></Point></Placemark>
<Placemark><name>Shank71</name><description>Presentation on Digital Inclusiveness - done! Good conversation afterwards, met some good folks. Thanks to those who attended. #mcpc2011
Fri, 18 Nov 2011 23:55:47 +0000</description><styleUrl>#hideLabel</styleUrl>
<Point><coordinates>-122.383000,37.606600,0</coordinates></Point></Placemark>
<Placemark><name>melindabyerley</name><description>just tried out @DocuSign.  Impressive service and saves so much time!
Fri, 18 Nov 2011 23:55:45 +0000</description><styleUrl>#hideLabel</styleUrl>
<Point><coordinates>-122.384117,37.612808,0</coordinates></Point></Placemark>
<Placemark><name>tzsfo</name><description>Next stop SEA. (@ Virgin America w/ 2 others) http://t.co/ivNifqcP
Fri, 18 Nov 2011 23:58:37 +0000</description><styleUrl>#hideLabel</styleUrl>
<Point><coordinates>-122.382100,37.617400,0</coordinates></Point></Placemark>
<Placemark><name>zacbloom</name><description>Vacation (@ San Francisco International Airport (SFO) w/ 150 others) http://t.co/4YMsHgrZ
Sat, 19 Nov 2011 00:00:05 +0000</description><styleUrl>#hideLabel</styleUrl>
<Point><coordinates>-122.387900,37.615800,0</coordinates></Point></Placemark>
<Placemark><name>sitar</name><description>Love San Francisco, but happy to be headed home. (@ San Francisco International Airport (SFO) w/ 148 others) http://t.co/hYk15pog
Fri, 18 Nov 2011 23:59:46 +0000</description><styleUrl>#hideLabel</styleUrl>
<Point><coordinates>-122.387900,37.615800,0</coordinates></Point></Placemark>
<Placemark><name>KeliiClyburn</name><description>RT @urstruly_faith: But that's my nigga tho lol
Sat, 19 Nov 2011 00:01:22 +0000</description><styleUrl>#hideLabel</styleUrl>
<Point><coordinates>-122.385549,37.616622,0</coordinates></Point></Placemark>
<Placemark><name>KeliiClyburn</name><description>RT @urstruly_faith: Why Kelii still be tryna game tho with his little pickup lines smh lmao
Sat, 19 Nov 2011 00:01:10 +0000</description><styleUrl>#hideLabel</styleUrl>
<Point><coordinates>-122.385549,37.616622,0</coordinates></Point></Placemark>
<Placemark><name>KeliiClyburn</name><description>RT @woahdereCRiSSY: RT @HelloSquirter: Good Sex is needed in life...
Sat, 19 Nov 2011 00:03:35 +0000</description><styleUrl>#hideLabel</styleUrl>
<Point><coordinates>-122.387592,37.616117,0</coordinates></Point></Placemark>
<Placemark><name>KeliiClyburn</name><description>I go coo coo for coco puffs :) lmao
Sat, 19 Nov 2011 00:05:15 +0000</description><styleUrl>#hideLabel</styleUrl>
<Point><coordinates>-122.387592,37.616117,0</coordinates></Point></Placemark>
<Placemark><name>tzsfo</name><description>@ReneeSchofield we'll see. 69 is on time. We're gonna be about 15 late or so getting out of here.
Sat, 19 Nov 2011 00:10:43 +0000</description><styleUrl>#hideLabel</styleUrl>
<Point><coordinates>-122.381300,37.617300,0</coordinates></Point></Placemark>
<Placemark><name>KeliiClyburn</name><description>I need the itunes from senior year, its songs that I need in my life that I don't got no more :(
Sat, 19 Nov 2011 00:10:36 +0000</description><styleUrl>#hideLabel</styleUrl>
<Point><coordinates>-122.387592,37.616117,0</coordinates></Point></Placemark>
<Placemark><name>tzsfo</name><description>@VirginAmerica ha. Even further north to Alaska in the morning. Brr.
Sat, 19 Nov 2011 00:10:05 +0000</description><styleUrl>#hideLabel</styleUrl>
<Point><coordinates>-122.381200,37.617300,0</coordinates></Point></Placemark>
<Placemark><name>KeliiClyburn</name><description>RT @G_MALY: check out video by @G_MALY - California Dreamin [Official Video] http://t.co/NRfuie6X xx!xx
Sat, 19 Nov 2011 00:11:43 +0000</description><styleUrl>#hideLabel</styleUrl>
<Point><coordinates>-122.387592,37.616117,0</coordinates></Point></Placemark>
<Placemark><name>KeliiClyburn</name><description>When the song &quot;how to love&quot; come on when it shuffled. I really tuen the music up like wayne say lmao
Sat, 19 Nov 2011 00:11:13 +0000</description><styleUrl>#hideLabel</styleUrl>
<Point><coordinates>-122.387592,37.616117,0</coordinates></Point></Placemark>
<Placemark><name>melindabyerley</name><description>so much truth here “@work_matters: Wisdom from Stanford's Jim March on the Numbing Effect of Business Schools http://t.co/qKcZRLAl”
Sat, 19 Nov 2011 00:14:55 +0000</description><styleUrl>#hideLabel</styleUrl>
<Point><coordinates>-122.384117,37.612808,0</coordinates></Point></Placemark>
<Placemark><name>JEFFBM</name><description>42 minutes until I'm out of hear. Now to try and use this time to finish my PMX Report. (@ SFO Terminal 1) http://t.co/AHZMMhiG
Sat, 19 Nov 2011 00:19:07 +0000</description><styleUrl>#hideLabel</styleUrl>
<Point><coordinates>-122.384900,37.614200,0</coordinates></Point></Placemark>
<Placemark><name>melindabyerley</name><description>Read this brilliant essay if you dare (via @nilofer) http://t.co/Gm6D7pSp
Sat, 19 Nov 2011 00:18:58 +0000</description><styleUrl>#hideLabel</styleUrl>
<Point><coordinates>-122.384117,37.612808,0</coordinates></Point></Placemark>
<Placemark><name>wherescaleb</name><description>I'm at San Francisco International Airport (SFO) (SFO Airport, San Francisco) w/ 151 others http://t.co/cbuI76is
Sat, 19 Nov 2011 00:18:23 +0000</description><styleUrl>#hideLabel</styleUrl>
<Point><coordinates>-122.374722,37.618889,0</coordinates></Point></Placemark>
<Placemark><name>maddiefattiee</name><description>4:20!!!!
Sat, 19 Nov 2011 00:20:19 +0000</description><styleUrl>#hideLabel</styleUrl>
<Point><coordinates>-122.381500,37.617500,0</coordinates></Point></Placemark>
<Placemark><name>nerdgirl</name><description>First album I have purchased in a long time. The Wall. Classic and always worth it.
Sat, 19 Nov 2011 00:19:33 +0000</description><styleUrl>#hideLabel</styleUrl>
<Point><coordinates>-122.385115,37.613635,0</coordinates></Point></Placemark>
<Placemark><name>ad_cub</name><description>groom sink!! :D  @ San Francisco http://t.co/KbZxBd5o
Sat, 19 Nov 2011 00:24:09 +0000</description><styleUrl>#hideLabel</styleUrl>
<Point><coordinates>-122.386700,37.618000,0</coordinates></Point></Placemark>
<Placemark><name>joshmarinacci</name><description>@tentwentyseven Bah. That's just a weak derivative of my innovative tripodal human alcohol consumption mount. Not worthy of patenting.
Sat, 19 Nov 2011 00:26:55 +0000</description><styleUrl>#hideLabel</styleUrl>
<Point><coordinates>-122.383900,37.621774,0</coordinates></Point></Placemark>
<Placemark><name>Raykit98</name><description>I'm at San Francisco International Airport (SFO) (SFO Airport, San Francisco) w/ 149 others http://t.co/Mbz0BCPF
Sat, 19 Nov 2011 00:26:54 +0000</description><styleUrl>#hideLabel</styleUrl>
<Point><coordinates>-122.374722,37.618889,0</coordinates></Point></Placemark>
<Placemark><name>maddiefattiee</name><description>I BOARD IN 7 MINUTES!!!!!
Sat, 19 Nov 2011 00:28:41 +0000</description><styleUrl>#hideLabel</styleUrl>
<Point><coordinates>-122.381500,37.617600,0</coordinates></Point></Placemark>
<Placemark><name>johnvirgolino</name><description>Heading to city to see Alan Rickman in &quot;Seminar&quot;
Sat, 19 Nov 2011 00:27:44 +0000</description><styleUrl>#hideLabel</styleUrl>
<Point><coordinates>-122.382833,37.614581,0</coordinates></Point></Placemark>
<Placemark><name>maddiefattiee</name><description>I actually hate flying a lot and nene told me a scary story about one of his flights today
Sat, 19 Nov 2011 00:29:42 +0000</description><styleUrl>#hideLabel</styleUrl>
<Point><coordinates>-122.381500,37.617500,0</coordinates></Point></Placemark>
<Placemark><name>maddiefattiee</name><description>BRADEN WHY DID WE NOT SMOKE BEFORE OUR DAMN FLIGHT stupid stupid stupid
Sat, 19 Nov 2011 00:32:36 +0000</description><styleUrl>#hideLabel</styleUrl>
<Point><coordinates>-122.381500,37.617500,0</coordinates></Point></Placemark>
<Placemark><name>nerdgirl</name><description>@robchandhok Great minds...!
Sat, 19 Nov 2011 00:41:45 +0000</description><styleUrl>#hideLabel</styleUrl>
<Point><coordinates>-122.385115,37.613635,0</coordinates></Point></Placemark>
<Placemark><name>harold_smith</name><description>I've never had an &quot;early day&quot; in my 5 years of working, I'm confused &amp; cold, someone hold me
Sat, 19 Nov 2011 00:49:19 +0000</description><styleUrl>#hideLabel</styleUrl>
<Point><coordinates>-122.383644,37.619308,0</coordinates></Point></Placemark>
<Placemark><name>JEFFBM</name><description>Boarding Southwest flight 1379 to San Diego for a nice long week off. I'll be back in SF next Saturday.
Sat, 19 Nov 2011 00:52:54 +0000</description><styleUrl>#hideLabel</styleUrl>
<Point><coordinates>-122.383600,37.612400,0</coordinates></Point></Placemark>
<Placemark><name>harold_smith</name><description>@ChicoFC I'm confused Chico! First it was leaving work on time now this, don't tell me I'm going to have to get a life now
Sat, 19 Nov 2011 00:52:27 +0000</description><styleUrl>#hideLabel</styleUrl>
<Point><coordinates>-122.383644,37.619308,0</coordinates></Point></Placemark>
<Placemark><name>benkeighran</name><description>I'm at San Francisco International Airport (SFO) (SFO Airport, San Francisco) w/ 146 others http://t.co/nN8BjHns
Sat, 19 Nov 2011 00:51:57 +0000</description><styleUrl>#hideLabel</styleUrl>
<Point><coordinates>-122.374722,37.618889,0</coordinates></Point></Placemark>
<Placemark><name>mogutan88</name><description>I'm at San Francisco International Airport (SFO) (SFO Airport, San Francisco) w/ 145 others http://t.co/w2b8ysvL
Sat, 19 Nov 2011 00:51:51 +0000</description><styleUrl>#hideLabel</styleUrl>
<Point><coordinates>-122.374722,37.618889,0</coordinates></Point></Placemark>
<Placemark><name>harold_smith</name><description>@PerennialChi looks absolutely fantastic
Sat, 19 Nov 2011 00:55:26 +0000</description><styleUrl>#hideLabel</styleUrl>
<Point><coordinates>-122.383644,37.619308,0</coordinates></Point></Placemark>
<Placemark><name>harold_smith</name><description>@ChicoFC I can't cope my latest day next week is 6:30pm woe is me #dayshiftworkerproblems
Sat, 19 Nov 2011 00:55:07 +0000</description><styleUrl>#hideLabel</styleUrl>
<Point><coordinates>-122.383644,37.619308,0</coordinates></Point></Placemark>
<Placemark><name>johnvirgolino</name><description>Opening night for &quot;Seminar&quot; with Alan Rickman. Front row seats!
Sat, 19 Nov 2011 01:04:16 +0000</description><styleUrl>#hideLabel</styleUrl>
<Point><coordinates>-122.382833,37.614581,0</coordinates></Point></Placemark>
<Placemark><name>michaelsb</name><description>I'm at San Francisco International Airport (SFO) (SFO Airport, San Francisco) w/ 149 others http://t.co/fpCKUTSL
Sat, 19 Nov 2011 01:03:47 +0000</description><styleUrl>#hideLabel</styleUrl>
<Point><coordinates>-122.374722,37.618889,0</coordinates></Point></Placemark>
<Placemark><name>triplep220</name><description>I love the airport! It's always exciting to be here! (@ San Francisco International Airport (SFO) w/ 148 others) http://t.co/Qu2XKsYD
Sat, 19 Nov 2011 01:05:50 +0000</description><styleUrl>#hideLabel</styleUrl>
<Point><coordinates>-122.387900,37.615800,0</coordinates></Point></Placemark>
<Placemark><name>Fletchtographer</name><description>@apertura can't speak for the spyder but I have the color munki and it works great with Lion and LED displays.
Sat, 19 Nov 2011 01:07:13 +0000</description><styleUrl>#hideLabel</styleUrl>
<Point><coordinates>-122.385800,37.612100,0</coordinates></Point></Placemark>
<Placemark><name>melindabyerley</name><description>Plushtoys: the moment you know your video game is about to jump the shark.
Sat, 19 Nov 2011 01:12:28 +0000</description><styleUrl>#hideLabel</styleUrl>
<Point><coordinates>-122.384117,37.612808,0</coordinates></Point></Placemark>
<Placemark><name>feKaylius</name><description>mosaic meme
Sat, 19 Nov 2011 01:14:16 +0000</description><styleUrl>#hideLabel</styleUrl>
<Point><coordinates>-122.379700,37.602200,0</coordinates></Point></Placemark>
<Placemark><name>bdoten</name><description>I'm at San Francisco International Airport (SFO) (SFO Airport, San Francisco) w/ 155 others http://t.co/Y2SEkK85
Sat, 19 Nov 2011 01:13:13 +0000</description><styleUrl>#hideLabel</styleUrl>
<Point><coordinates>-122.374722,37.618889,0</coordinates></Point></Placemark>
<Placemark><name>frankmichael</name><description>I find Jeff Smisek's appeal to customers in hemisphere magazine re: airline taxes inappropriate and insulting. #getoverit @unitedairlines
Sat, 19 Nov 2011 01:15:33 +0000</description><styleUrl>#hideLabel</styleUrl>
<Point><coordinates>-122.379400,37.601700,0</coordinates></Point></Placemark>
<Placemark><name>MrkevC</name><description>I'm at San Francisco International Airport (SFO) (SFO Airport, San Francisco) w/ 151 others http://t.co/H5O3D0BZ
Sat, 19 Nov 2011 01:18:23 +0000</description><styleUrl>#hideLabel</styleUrl>
<Point><coordinates>-122.374722,37.618889,0</coordinates></Point></Placemark>
<Placemark><name>Fletchtographer</name><description>BRIAN LOVE NETFLIX! “@NikkiFinke: Netflix Picks Up New Episodes Of ‘Arrested Development’ http://t.co/RohVLaM6”
Sat, 19 Nov 2011 01:18:10 +0000</description><styleUrl>#hideLabel</styleUrl>
<Point><coordinates>-122.385800,37.612500,0</coordinates></Point></Placemark>
<Placemark><name>frankmichael</name><description>@caseymanning um congrats!!
Sat, 19 Nov 2011 01:20:52 +0000</description><styleUrl>#hideLabel</styleUrl>
<Point><coordinates>-122.389900,37.621200,0</coordinates></Point></Placemark>
<Placemark><name>HoneyMana</name><description>Russell Brand!! (@ Matthews Arena w/ 85 others) http://t.co/2FytVrxp
Sat, 19 Nov 2011 01:23:55 +0000</description><styleUrl>#hideLabel</styleUrl>
<Point><coordinates>-122.389434,37.617532,0</coordinates></Point></Placemark>
<Placemark><name>HoneyMana</name><description>I just unlocked the &quot;Campus Explorer&quot; badge on @foursquare! http://t.co/ypYf2l1e
Sat, 19 Nov 2011 01:23:55 +0000</description><styleUrl>#hideLabel</styleUrl>
<Point><coordinates>-122.389434,37.617532,0</coordinates></Point></Placemark>
<Placemark><name>SawyersDesign</name><description>I'm at San Francisco International Airport (SFO) (SFO Airport, San Francisco) w/ 150 others [pic]: http://t.co/DTHPuJqc
Sat, 19 Nov 2011 01:34:48 +0000</description><styleUrl>#hideLabel</styleUrl>
<Point><coordinates>-122.374722,37.618889,0</coordinates></Point></Placemark>
<Placemark><name>DaveCowl</name><description>Confused about whether I am going home or leaving home... (@ San Francisco International Airport (SFO)) http://t.co/MEpy9lhj
Sat, 19 Nov 2011 01:41:54 +0000</description><styleUrl>#hideLabel</styleUrl>
<Point><coordinates>-122.387900,37.615800,0</coordinates></Point></Placemark>
<Placemark><name>takmiyata</name><description>Bye for now. (@ San Francisco International Airport (SFO) w/ 152 others) http://t.co/Yw7jDoAI
Sat, 19 Nov 2011 01:41:02 +0000</description><styleUrl>#hideLabel</styleUrl>
<Point><coordinates>-122.387900,37.615800,0</coordinates></Point></Placemark>
<Placemark><name>meixellent</name><description>@s_virginia #shittyresource
Sat, 19 Nov 2011 01:48:51 +0000</description><styleUrl>#hideLabel</styleUrl>
<Point><coordinates>-122.383900,37.616300,0</coordinates></Point></Placemark>
<Placemark><name>Fletchtographer</name><description>@chrismpeters sounds like my 21 years of @LAKings fandom. I'm convinced I'm a masochist.
Sat, 19 Nov 2011 01:49:48 +0000</description><styleUrl>#hideLabel</styleUrl>
<Point><coordinates>-122.385800,37.612100,0</coordinates></Point></Placemark>
<Placemark><name>melindabyerley</name><description>Pro tip: during holiday season schedule hair appts on Friday so your hair rocks at holiday parties.
Sat, 19 Nov 2011 01:51:42 +0000</description><styleUrl>#hideLabel</styleUrl>
<Point><coordinates>-122.384117,37.612808,0</coordinates></Point></Placemark>
<Placemark><name>Fletchtographer</name><description>@LaurenWW if I only wasn't in SF. And married with kids. lol.
Sat, 19 Nov 2011 01:53:00 +0000</description><styleUrl>#hideLabel</styleUrl>
<Point><coordinates>-122.385800,37.612200,0</coordinates></Point></Placemark>
<Placemark><name>bobbyisaacson</name><description>Off to LA for the wknd for some r&amp;r after a good week of work @youcast @halogenmedia. Hoping for some sun http://t.co/3407wVIg
Sat, 19 Nov 2011 01:52:47 +0000</description><styleUrl>#hideLabel</styleUrl>
<Point><coordinates>-122.387900,37.615800,0</coordinates></Point></Placemark>
<Placemark><name>rurumochii</name><description>@starlyse it's ok. I didn't think it was anything special. Rolls were so so, and I think their noodle dishes were decent.
Sat, 19 Nov 2011 01:54:59 +0000</description><styleUrl>#hideLabel</styleUrl>
<Point><coordinates>-122.382600,37.617900,0</coordinates></Point></Placemark>
<Placemark><name>momofsteel</name><description>Sure iz b z herre in SFO intl airprt!
Sat, 19 Nov 2011 01:58:43 +0000</description><styleUrl>#hideLabel</styleUrl>
<Point><coordinates>-122.391600,37.617200,0</coordinates></Point></Placemark>
<Placemark><name>aandmthompson</name><description>Walked 0.92 miles in 19 mins. Uploaded from LogYourRun for iPhone http://t.co/i8fxnunD
Sat, 19 Nov 2011 02:00:22 +0000</description><styleUrl>#hideLabel</styleUrl>
<Point><coordinates>-122.384865,37.617863,0</coordinates></Point></Placemark>
<Placemark><name>melindabyerley</name><description>Dior Blackout is the wonderbra of mascaras #alittlehope
Sat, 19 Nov 2011 02:02:55 +0000</description><styleUrl>#hideLabel</styleUrl>
<Point><coordinates>-122.384117,37.612808,0</coordinates></Point></Placemark>
<Placemark><name>Daniel_Durham</name><description>I'm at San Francisco International Airport (SFO) (SFO Airport, San Francisco) w/ 146 others http://t.co/GOgQDuFb
Sat, 19 Nov 2011 02:11:28 +0000</description><styleUrl>#hideLabel</styleUrl>
<Point><coordinates>-122.374722,37.618889,0</coordinates></Point></Placemark>
<Placemark><name>karlkovacs</name><description>I'm at San Francisco International Airport (SFO) (SFO Airport, San Francisco) w/ 145 others http://t.co/tCeRi3Mp
Sat, 19 Nov 2011 02:11:18 +0000</description><styleUrl>#hideLabel</styleUrl>
<Point><coordinates>-122.374722,37.618889,0</coordinates></Point></Placemark>
<Placemark><name>inferno10</name><description>Whew, made it! (@ San Francisco International Airport (SFO) w/ 148 others) http://t.co/R2wrfNqR
Sat, 19 Nov 2011 02:12:43 +0000</description><styleUrl>#hideLabel</styleUrl>
<Point><coordinates>-122.387900,37.615800,0</coordinates></Point></Placemark>
<Placemark><name>karlkovacs</name><description>great fish and chips (@ Anchor Brewing Company) http://t.co/8HsOvWbG
Sat, 19 Nov 2011 02:12:09 +0000</description><styleUrl>#hideLabel</styleUrl>
<Point><coordinates>-122.386100,37.618700,0</coordinates></Point></Placemark>
<Placemark><name>tomullan</name><description>Bored in San fran - the only sensible thing to do right now is fly to Utah and go skiing. Airport here I come.  #parkcitymountainresort
Sat, 19 Nov 2011 02:15:35 +0000</description><styleUrl>#hideLabel</styleUrl>
<Point><coordinates>-122.388100,37.620300,0</coordinates></Point></Placemark>
<Placemark><name>menggoh</name><description>Can't wait to get home, cold and wet. (@ San Francisco International Airport (SFO) w/ 144 others) http://t.co/fKl3sziB
Sat, 19 Nov 2011 02:22:36 +0000</description><styleUrl>#hideLabel</styleUrl>
<Point><coordinates>-122.387900,37.615800,0</coordinates></Point></Placemark>
<Placemark><name>NishadGeorge</name><description>Well that flight wasn't nuts or anything.  At least I'm in one piece... (@ San Francisco International Airport (SFO)) http://t.co/QMiH2keo
Sat, 19 Nov 2011 02:24:58 +0000</description><styleUrl>#hideLabel</styleUrl>
<Point><coordinates>-122.387900,37.615800,0</coordinates></Point></Placemark>
<Placemark><name>meixellent</name><description>LA, here we come. PYA.
Sat, 19 Nov 2011 02:23:28 +0000</description><styleUrl>#hideLabel</styleUrl>
<Point><coordinates>-122.394700,37.613800,0</coordinates></Point></Placemark>
<Placemark><name>walruswong</name><description>I'm at San Francisco International Airport (SFO) (SFO Airport, San Francisco) w/ 144 others http://t.co/8IrNoPwZ
Sat, 19 Nov 2011 02:30:26 +0000</description><styleUrl>#hideLabel</styleUrl>
<Point><coordinates>-122.374722,37.618889,0</coordinates></Point></Placemark>
<Placemark><name>smallchou</name><description>Just got my ridiculously expensive, frivolous, splurge, post-IPO lockup gift to myself. Feeling a little guilty already... a $150 golf club.
Sat, 19 Nov 2011 02:32:36 +0000</description><styleUrl>#hideLabel</styleUrl>
<Point><coordinates>-122.396600,37.615500,0</coordinates></Point></Placemark>
<Placemark><name>matt_murphy</name><description>@ktr0w Barack likes em young?
Sat, 19 Nov 2011 02:31:59 +0000</description><styleUrl>#hideLabel</styleUrl>
<Point><coordinates>-122.389200,37.616500,0</coordinates></Point></Placemark>
<Placemark><name>alexmonney</name><description>Also who's listened to the podcast? Would love some feedback so I can twist @GreatWallofChin's arm into doing a second episode.
Sat, 19 Nov 2011 02:31:42 +0000</description><styleUrl>#hideLabel</styleUrl>
<Point><coordinates>-122.387100,37.611700,0</coordinates></Point></Placemark>
<Placemark><name>FratDudeLG</name><description>I'm at San Francisco International Airport (SFO) (SFO Airport, San Francisco) w/ 142 others http://t.co/505iX6lP
Sat, 19 Nov 2011 02:36:04 +0000</description><styleUrl>#hideLabel</styleUrl>
<Point><coordinates>-122.374722,37.618889,0</coordinates></Point></Placemark>
<Placemark><name>SunshineMafia</name><description>Tolerance slowly decreasing.
Sat, 19 Nov 2011 02:39:30 +0000</description><styleUrl>#hideLabel</styleUrl>
<Point><coordinates>-122.387700,37.623600,0</coordinates></Point></Placemark>
<Placemark><name>SunshineMafia</name><description>Grrrrrrrrr smh... Lol this kinda stuff only happens to me. Gotta find the humor in it.
Sat, 19 Nov 2011 02:44:04 +0000</description><styleUrl>#hideLabel</styleUrl>
<Point><coordinates>-122.385800,37.619800,0</coordinates></Point></Placemark>
<Placemark><name>triplep220</name><description>Oh man, I need this dinner. I had a 23 ounce beer on an empty stomachs, and it lit me up.
Sat, 19 Nov 2011 02:43:08 +0000</description><styleUrl>#hideLabel</styleUrl>
<Point><coordinates>-122.391000,37.617500,0</coordinates></Point></Placemark>
<Placemark><name>docgravel</name><description>I'm at San Francisco International Airport (SFO) (SFO Airport, San Francisco) w/ 141 others http://t.co/JCaOjEg4
Sat, 19 Nov 2011 02:46:43 +0000</description><styleUrl>#hideLabel</styleUrl>
<Point><coordinates>-122.374722,37.618889,0</coordinates></Point></Placemark>
<Placemark><name>tobiaspeggs</name><description>Middle seat. Sandwiched between two fatsos, both eating smelly fast food. #Awesome.  (also, obviously, these people don't live in Boulder).
Sat, 19 Nov 2011 02:49:36 +0000</description><styleUrl>#hideLabel</styleUrl>
<Point><coordinates>-122.390100,37.620800,0</coordinates></Point></Placemark>
<Placemark><name>tobiaspeggs</name><description>@avrilmair SOHO shops will have some answers...
Sat, 19 Nov 2011 02:52:09 +0000</description><styleUrl>#hideLabel</styleUrl>
<Point><coordinates>-122.390100,37.620800,0</coordinates></Point></Placemark>
<Placemark><name>docgravel</name><description>Flight was oversold. On standby for the next one.
Sat, 19 Nov 2011 02:54:18 +0000</description><styleUrl>#hideLabel</styleUrl>
<Point><coordinates>-122.392000,37.611300,0</coordinates></Point></Placemark>
<Placemark><name>ggoodale</name><description>Homeward bound (@ Virgin America w/ 3 others) http://t.co/EXlBwUtF
Sat, 19 Nov 2011 02:57:17 +0000</description><styleUrl>#hideLabel</styleUrl>
<Point><coordinates>-122.382100,37.617400,0</coordinates></Point></Placemark>
<Placemark><name>gbvelasquez</name><description>Please board quickly nz007
Sat, 19 Nov 2011 02:56:37 +0000</description><styleUrl>#hideLabel</styleUrl>
<Point><coordinates>-122.390000,37.615400,0</coordinates></Point></Placemark>
<Placemark><name>melindabyerley</name><description>#ilyaz was lucky to have so many friends. I am so sorry for your loss.
Sat, 19 Nov 2011 02:56:17 +0000</description><styleUrl>#hideLabel</styleUrl>
<Point><coordinates>-122.384117,37.612808,0</coordinates></Point></Placemark>
<Placemark><name>meixellent</name><description>Really wish I could skip the safety videos and in flight announcements when I fly.
Sat, 19 Nov 2011 02:57:45 +0000</description><styleUrl>#hideLabel</styleUrl>
<Point><coordinates>-122.380100,37.616400,0</coordinates></Point></Placemark>
<Placemark><name>SunshineMafia</name><description>The baggage handlers took the strap off my bag. :(
Sat, 19 Nov 2011 03:05:01 +0000</description><styleUrl>#hideLabel</styleUrl>
<Point><coordinates>-122.386800,37.617900,0</coordinates></Point></Placemark>
<Placemark><name>triplep220</name><description>Who doesn't need extra strength udder balm? http://t.co/q4nCFGDh
Sat, 19 Nov 2011 03:04:36 +0000</description><styleUrl>#hideLabel</styleUrl>
<Point><coordinates>-122.390500,37.619300,0</coordinates></Point></Placemark>
<Placemark><name>vinniepham</name><description>@secupp - That would be a great parlay bet. GB win and Smoke win. We could be rich.
Sat, 19 Nov 2011 03:06:11 +0000</description><styleUrl>#hideLabel</styleUrl>
<Point><coordinates>-122.389125,37.612475,0</coordinates></Point></Placemark>
<Placemark><name>sigit_prayoga</name><description>Am gonna miss you,  America! (@ San Francisco International Airport (SFO) w/ 130 others) http://t.co/b4Eiuvnm
Sat, 19 Nov 2011 03:11:00 +0000</description><styleUrl>#hideLabel</styleUrl>
<Point><coordinates>-122.387900,37.615800,0</coordinates></Point></Placemark>
<Placemark><name>jbletsch</name><description>I'm at San Francisco International Airport (SFO) (SFO Airport, San Francisco) w/ 132 others http://t.co/v2sq0fUk
Sat, 19 Nov 2011 03:14:01 +0000</description><styleUrl>#hideLabel</styleUrl>
<Point><coordinates>-122.374722,37.618889,0</coordinates></Point></Placemark>
<Placemark><name>brently49</name><description>Thanksgiving! – at SFO San Francisco International http://t.co/TomGFdbu
Sat, 19 Nov 2011 03:13:41 +0000</description><styleUrl>#hideLabel</styleUrl>
<Point><coordinates>-122.386200,37.616400,0</coordinates></Point></Placemark>
<Placemark><name>SunshineMafia</name><description>AND it's $9 one way on Bart??? Wtf? Nothing is less than $7.30 one way.. Even the next stop.
Sat, 19 Nov 2011 03:17:16 +0000</description><styleUrl>#hideLabel</styleUrl>
<Point><coordinates>-122.395100,37.618800,0</coordinates></Point></Placemark>
<Placemark><name>stevenaventi</name><description>Mmmmm still has that new terminal smell too! (@ SFO Terminal 2 w/ 2 others) http://t.co/2EG2Yeja
Sat, 19 Nov 2011 03:18:31 +0000</description><styleUrl>#hideLabel</styleUrl>
<Point><coordinates>-122.382500,37.617100,0</coordinates></Point></Placemark>
<Placemark><name>gotwong415</name><description>I'm at San Francisco International Airport (SFO) (SFO Airport, San Francisco) w/ 128 others http://t.co/brMzEbZY
Sat, 19 Nov 2011 03:17:35 +0000</description><styleUrl>#hideLabel</styleUrl>
<Point><coordinates>-122.374722,37.618889,0</coordinates></Point></Placemark>
<Placemark><name>jian_</name><description>Smells like the holidays
Sat, 19 Nov 2011 03:23:17 +0000</description><styleUrl>#hideLabel</styleUrl>
<Point><coordinates>-122.393122,37.608833,0</coordinates></Point></Placemark>
<Placemark><name>johnvirgolino</name><description>@Irelynkiss yup. At the Golden Theatre in NYC. The play was great. Cast was amazing!
Sat, 19 Nov 2011 03:26:28 +0000</description><styleUrl>#hideLabel</styleUrl>
<Point><coordinates>-122.382833,37.614581,0</coordinates></Point></Placemark>
<Placemark><name>FratDudeLG</name><description>Ooooh! Pretty! (@ SFO Terminal 2 w/ 3 others) http://t.co/DNHJOw1z
Sat, 19 Nov 2011 03:26:17 +0000</description><styleUrl>#hideLabel</styleUrl>
<Point><coordinates>-122.382500,37.617100,0</coordinates></Point></Placemark>
<Placemark><name>SunshineMafia</name><description>Lol I'm a stop complaining. If God gave me the resources I need then I need to just be grateful.
Sat, 19 Nov 2011 03:29:00 +0000</description><styleUrl>#hideLabel</styleUrl>
<Point><coordinates>-122.395100,37.618600,0</coordinates></Point></Placemark>
<Placemark><name>Edottojr</name><description>@Meat_Bucket I'll be at seatac at 9:30! I'll be the one with the bag slumping to my car.
Sat, 19 Nov 2011 03:33:14 +0000</description><styleUrl>#hideLabel</styleUrl>
<Point><coordinates>-122.383100,37.615200,0</coordinates></Point></Placemark>
<Placemark><name>poisoniivy</name><description>Bagel's cousin found my apple in my purse. Hence extra long security for me. http://t.co/uErN8GAq
Sat, 19 Nov 2011 03:34:02 +0000</description><styleUrl>#hideLabel</styleUrl>
<Point><coordinates>-122.387900,37.615800,0</coordinates></Point></Placemark>
<Placemark><name>topix_sf</name><description>Parking changes could confuse people flying out of San Jose airport: Renate Kiehl, of San Mateo, waits for her f... http://t.co/gIfo058r
Sat, 19 Nov 2011 03:36:30 +0000</description><styleUrl>#hideLabel</styleUrl>
<Point><coordinates>-122.390000,37.615200,0</coordinates></Point></Placemark>
<Placemark><name>tgwilson</name><description>Ahhh.  Red eyes. Back in Columbus at 8:40 AM Sat. morning. Ohio came STRONG to #ACCELERATE w/ the @mymo/@tgwilson t... http://t.co/EgeheVUy
Sat, 19 Nov 2011 03:39:23 +0000</description><styleUrl>#hideLabel</styleUrl>
<Point><coordinates>-122.387900,37.615800,0</coordinates></Point></Placemark>
<Placemark><name>AlaynaSK</name><description>I'm back y'all. (@ San Francisco International Airport (SFO) w/ 135 others) http://t.co/1gB0TVTc
Sat, 19 Nov 2011 03:41:42 +0000</description><styleUrl>#hideLabel</styleUrl>
<Point><coordinates>-122.387900,37.615800,0</coordinates></Point></Placemark>
<Placemark><name>Annette_Andrews</name><description>Wondering if you're the same and whose been with you. Is your heart still mine? I wanna cry sometimes.. #imissyou #myfavoriteSong #aaliyah
Sat, 19 Nov 2011 03:43:44 +0000</description><styleUrl>#hideLabel</styleUrl>
<Point><coordinates>-122.384100,37.612800,0</coordinates></Point></Placemark>
<Placemark><name>stevenaventi</name><description>Grilled steak and cheese sandwich mmmm (@ Napa Farms Market) [pic]: http://t.co/KnXRT26J
Sat, 19 Nov 2011 03:48:05 +0000</description><styleUrl>#hideLabel</styleUrl>
<Point><coordinates>-122.383500,37.617000,0</coordinates></Point></Placemark>
<Placemark><name>kingbobrocks</name><description>I'm at San Francisco International Airport (SFO) (SFO Airport, San Francisco) w/ 144 others http://t.co/h3NOY7Bl
Sat, 19 Nov 2011 03:49:24 +0000</description><styleUrl>#hideLabel</styleUrl>
<Point><coordinates>-122.374722,37.618889,0</coordinates></Point></Placemark>
<Placemark><name>susiewee</name><description>I'm at San Francisco International Airport (SFO) (SFO Airport, San Francisco) w/ 136 others http://t.co/FWuvloci
Sat, 19 Nov 2011 03:56:55 +0000</description><styleUrl>#hideLabel</styleUrl>
<Point><coordinates>-122.374722,37.618889,0</coordinates></Point></Placemark>
<Placemark><name>Silvio_Chiba</name><description>I'm at San Francisco International Airport (SFO) (SFO Airport, San Francisco) w/ 139 others http://t.co/6FbikXG3
Sat, 19 Nov 2011 04:03:24 +0000</description><styleUrl>#hideLabel</styleUrl>
<Point><coordinates>-122.374722,37.618889,0</coordinates></Point></Placemark>
<Placemark><name>bgranke</name><description>Coming hi (@ San Francisco International Airport (SFO) w/ @kingbobrocks) http://t.co/VXiSUNlI
Sat, 19 Nov 2011 04:05:18 +0000</description><styleUrl>#hideLabel</styleUrl>
<Point><coordinates>-122.387900,37.615800,0</coordinates></Point></Placemark>
<Placemark><name>Kozee</name><description>I love my indigenous elders     @ San Francisco International Airport (SFO) http://t.co/pdzYhgNh
Sat, 19 Nov 2011 04:07:58 +0000</description><styleUrl>#hideLabel</styleUrl>
<Point><coordinates>-122.387900,37.615800,0</coordinates></Point></Placemark>
<Placemark><name>techmatchmaker</name><description>Boarding a flight to Medford, OR - it's snowing! (@ San Francisco International Airport (SFO) w/ 140 others) [pic]: http://t.co/fgF5P5od
Sat, 19 Nov 2011 04:06:32 +0000</description><styleUrl>#hideLabel</styleUrl>
<Point><coordinates>-122.387900,37.615800,0</coordinates></Point></Placemark>
<Placemark><name>jennyinthemix</name><description>Take me home tonight! (@ Virgin America w/ 4 others) http://t.co/LJalU9JM
Sat, 19 Nov 2011 04:09:33 +0000</description><styleUrl>#hideLabel</styleUrl>
<Point><coordinates>-122.382100,37.617400,0</coordinates></Point></Placemark>
<Placemark><name>zhree1</name><description>I'm at San Francisco International Airport (SFO) (SFO Airport, San Francisco) w/ 133 others http://t.co/Pin5Q5SB
Sat, 19 Nov 2011 04:11:52 +0000</description><styleUrl>#hideLabel</styleUrl>
<Point><coordinates>-122.374722,37.618889,0</coordinates></Point></Placemark>
<Placemark><name>ricowyder</name><description>Flying JetBlue the first time... Really... (@ San Francisco International Airport (SFO) w/ 135 others) http://t.co/8NiozRpK
Sat, 19 Nov 2011 04:13:28 +0000</description><styleUrl>#hideLabel</styleUrl>
<Point><coordinates>-122.387900,37.615800,0</coordinates></Point></Placemark>
<Placemark><name>Chris_F</name><description>&quot;Baby, I'm gonna mount you like a disk image.&quot; LOLz
Sat, 19 Nov 2011 04:16:55 +0000</description><styleUrl>#hideLabel</styleUrl>
<Point><coordinates>-122.389700,37.617800,0</coordinates></Point></Placemark>
<Placemark><name>nerdgirl</name><description>@locationsfound what the joe conti is going on?!?!!
Sat, 19 Nov 2011 04:22:33 +0000</description><styleUrl>#hideLabel</styleUrl>
<Point><coordinates>-122.385115,37.613635,0</coordinates></Point></Placemark>
<Placemark><name>lynchseattle</name><description>@poornima @lyndit oh man it sounds awesome. I know it will be deeeeelish! /cc @blynch23
Sat, 19 Nov 2011 04:34:41 +0000</description><styleUrl>#hideLabel</styleUrl>
<Point><coordinates>-122.388932,37.613935,0</coordinates></Point></Placemark>
<Placemark><name>lynchseattle</name><description>@dens I dislike parking tickets. Thankfully I have gotten better at avoiding them in recent months.
Sat, 19 Nov 2011 04:36:46 +0000</description><styleUrl>#hideLabel</styleUrl>
<Point><coordinates>-122.388932,37.613935,0</coordinates></Point></Placemark>
<Placemark><name>vinniepham</name><description>“@ErinAndrews: Okla St/Iowa St NOW!!!! For all of u late to the party..” OVERTIME!!
Sat, 19 Nov 2011 04:38:32 +0000</description><styleUrl>#hideLabel</styleUrl>
<Point><coordinates>-122.389125,37.612475,0</coordinates></Point></Placemark>
<Placemark><name>Chris_F</name><description>Airport bartender just pwned some asshole. And for that, I raise my glass. http://t.co/PAge89Nw
Sat, 19 Nov 2011 04:39:42 +0000</description><styleUrl>#hideLabel</styleUrl>
<Point><coordinates>-122.389700,37.617800,0</coordinates></Point></Placemark>
<Placemark><name>docgravel</name><description>The flight I am on standby for is delayed and oversold. Not looking good for me.
Sat, 19 Nov 2011 04:42:17 +0000</description><styleUrl>#hideLabel</styleUrl>
<Point><coordinates>-122.384100,37.606400,0</coordinates></Point></Placemark>
<Placemark><name>ataraxia_status</name><description>@Dee_Dennis fuck you! Go get more shitty ribbon tattoos. &lt;/3
Sat, 19 Nov 2011 04:41:49 +0000</description><styleUrl>#hideLabel</styleUrl>
<Point><coordinates>-122.388000,37.618200,0</coordinates></Point></Placemark>
<Placemark><name>docgravel</name><description>I need 2 people to take the $400 vouchers for a 2 hour later flight and then a no-show.
Sat, 19 Nov 2011 04:49:28 +0000</description><styleUrl>#hideLabel</styleUrl>
<Point><coordinates>-122.384100,37.606400,0</coordinates></Point></Placemark>
<Placemark><name>mincebeast</name><description>I just unlocked the &quot;Zoetrope&quot; badge on @foursquare! #FilmBuff http://t.co/2PUNUxbI
Sat, 19 Nov 2011 04:59:55 +0000</description><styleUrl>#hideLabel</styleUrl>
<Point><coordinates>-122.389525,37.615410,0</coordinates></Point></Placemark>
<Placemark><name>mattsalazar</name><description>Had a great time hammering it out with the Buzz Monkeys in Eugene but its also nice to back home. http://t.co/y5SfXdCY
Sat, 19 Nov 2011 05:03:03 +0000</description><styleUrl>#hideLabel</styleUrl>
<Point><coordinates>-122.387900,37.615800,0</coordinates></Point></Placemark>
<Placemark><name>ataraxia_status</name><description>@Hollyatcha one time I had my 14th birthday party there…




Nobody came.
Sat, 19 Nov 2011 05:02:42 +0000</description><styleUrl>#hideLabel</styleUrl>
<Point><coordinates>-122.392000,37.618000,0</coordinates></Point></Placemark>
<Placemark><name>matt_murphy</name><description>@KremlinGremlin I'm in the city now. Let's get dinner. Monday RT?
Sat, 19 Nov 2011 05:05:04 +0000</description><styleUrl>#hideLabel</styleUrl>
<Point><coordinates>-122.391100,37.610100,0</coordinates></Point></Placemark>
<Placemark><name>docgravel</name><description>Once again, they didn't even let all the passengers on. Probably have to fly out in the morning.
Sat, 19 Nov 2011 05:03:47 +0000</description><styleUrl>#hideLabel</styleUrl>
<Point><coordinates>-122.384100,37.606400,0</coordinates></Point></Placemark>
<Placemark><name>djmarkfarina</name><description>Landed in Tucson!
Sat, 19 Nov 2011 05:03:38 +0000</description><styleUrl>#hideLabel</styleUrl>
<Point><coordinates>-122.395500,37.613500,0</coordinates></Point></Placemark>
<Placemark><name>oreth</name><description>First class, first course  @ Virgin America http://t.co/2WRP7mYF
Sat, 19 Nov 2011 05:06:38 +0000</description><styleUrl>#hideLabel</styleUrl>
<Point><coordinates>-122.384400,37.609400,0</coordinates></Point></Placemark>
<Placemark><name>Belbey</name><description>Less than 24 hours later! (@ San Francisco International Airport (SFO) w/ 136 others) http://t.co/EYRWu71T
Sat, 19 Nov 2011 05:07:11 +0000</description><styleUrl>#hideLabel</styleUrl>
<Point><coordinates>-122.387900,37.615800,0</coordinates></Point></Placemark>
<Placemark><name>tinafurt</name><description>En route to Montreal. Poutine, don't let me (@ San Francisco International Airport (SFO) w/ 138 others) http://t.co/YT7PxpWF
Sat, 19 Nov 2011 05:10:07 +0000</description><styleUrl>#hideLabel</styleUrl>
<Point><coordinates>-122.387900,37.615800,0</coordinates></Point></Placemark>
<Placemark><name>mattyblair</name><description>Madddd early, thanks SuperShuttle. (@ San Francisco International Airport (SFO) w/ 139 others) http://t.co/R8eQYtnj
Sat, 19 Nov 2011 05:13:16 +0000</description><styleUrl>#hideLabel</styleUrl>
<Point><coordinates>-122.387900,37.615800,0</coordinates></Point></Placemark>
<Placemark><name>ataraxia_status</name><description>@Hollyatcha fuck birthdays
Sat, 19 Nov 2011 05:17:06 +0000</description><styleUrl>#hideLabel</styleUrl>
<Point><coordinates>-122.395000,37.618200,0</coordinates></Point></Placemark>
<Placemark><name>docgravel</name><description>Now I get to try again at 6am.
Sat, 19 Nov 2011 05:21:13 +0000</description><styleUrl>#hideLabel</styleUrl>
<Point><coordinates>-122.387200,37.615600,0</coordinates></Point></Placemark>
<Placemark><name>Snowflake24</name><description>I'm at San Francisco International Airport (SFO) (SFO Airport, San Francisco) w/ 138 others http://t.co/mJLXKtCv
Sat, 19 Nov 2011 05:20:42 +0000</description><styleUrl>#hideLabel</styleUrl>
<Point><coordinates>-122.374722,37.618889,0</coordinates></Point></Placemark>
<Placemark><name>ataraxia_status</name><description>@Dee_Dennis bows on your legs or whatever. Idk. How's the iPhone stuff goin
Sat, 19 Nov 2011 05:22:25 +0000</description><styleUrl>#hideLabel</styleUrl>
<Point><coordinates>-122.395000,37.618200,0</coordinates></Point></Placemark>
<Placemark><name>DewanTarek</name><description>Longest flight ever! – at San Francisco International Airport http://t.co/oKNxLLBE
Sat, 19 Nov 2011 05:25:59 +0000</description><styleUrl>#hideLabel</styleUrl>
<Point><coordinates>-122.385000,37.614400,0</coordinates></Point></Placemark>
<Placemark><name>BrLawrenceLC</name><description>I'm at San Francisco International Airport (SFO) (SFO Airport, San Francisco) w/ 139 others http://t.co/dfD7jkA6
Sat, 19 Nov 2011 05:28:21 +0000</description><styleUrl>#hideLabel</styleUrl>
<Point><coordinates>-122.374722,37.618889,0</coordinates></Point></Placemark>
<Placemark><name>artidz</name><description>Good bye San Francisco... Just for this year ;) (@ San Francisco International Airport (SFO) w/ 139 others) http://t.co/bzCpCmLK
Sat, 19 Nov 2011 05:30:55 +0000</description><styleUrl>#hideLabel</styleUrl>
<Point><coordinates>-122.387900,37.615800,0</coordinates></Point></Placemark>
<Placemark><name>mikemu</name><description>ATM Skimming Device Found At Eastern Bank In Taunton « CBS Boston: http://t.co/4yuR41GB via @AddThis
Sat, 19 Nov 2011 05:30:35 +0000</description><styleUrl>#hideLabel</styleUrl>
<Point><coordinates>-122.387970,37.616364,0</coordinates></Point></Placemark>
<Placemark><name>ataraxia_status</name><description>@jaronbrass is guest disabled?
Sat, 19 Nov 2011 05:35:40 +0000</description><styleUrl>#hideLabel</styleUrl>
<Point><coordinates>-122.395000,37.617800,0</coordinates></Point></Placemark>