<?xml version="1.0" encoding="UTF-8"?><kml xmlns="http://www.opengis.net/kml/2.2"><Document>
<Style id="hideLabel"><LabelStyle><scale>0</scale></LabelStyle></Style>
<Placemark><name>thewelljeremy</name><description>@dwaynebond Awesome! Blessings to you, your wife, &amp; family!
Fri, 18 Nov 2011 16:35:41 +0000</description><styleUrl>#hideLabel</styleUrl>
<Point><coordinates>-84.445175,33.640820,0</coordinates></Point></Placemark>
<Placemark><name>c2thefitz</name><description>Just landed in ATL, saw the Brewers' airplane #mustknowimhere
Fri, 18 Nov 2011 16:38:12 +0000</description><styleUrl>#hideLabel</styleUrl>
<Point><coordinates>-84.435400,33.637400,0</coordinates></Point></Placemark>
<Placemark><name>jeannebopp</name><description>@DeltaAssist strike 2: no one on our flight clarified that duty free liquor would need to be moved to checked baggage.
Fri, 18 Nov 2011 16:41:39 +0000</description><styleUrl>#hideLabel</styleUrl>
<Point><coordinates>-84.426400,33.640800,0</coordinates></Point></Placemark>
<Placemark><name>eddy_1984</name><description>@9to5mac what about his clone from Pirates of Silicon Valley? He was like a holographic image of steve in that movie!
Fri, 18 Nov 2011 16:42:10 +0000</description><styleUrl>#hideLabel</styleUrl>
<Point><coordinates>-84.432300,33.642300,0</coordinates></Point></Placemark>
<Placemark><name>DanCitizen</name><description>I'm at Hartsfield-Jackson Atlanta International Airport (ATL) (6000 N Terminal Pkwy., Atlanta) w/ 160 others http://t.co/zfnJHtIn
Fri, 18 Nov 2011 16:43:19 +0000</description><styleUrl>#hideLabel</styleUrl>
<Point><coordinates>-84.426944,33.640278,0</coordinates></Point></Placemark>
<Placemark><name>jordanbrowneyes</name><description>Minutes of returning to South, I hear a love song bout a fight incurred after insulting another's pick-up truck.
Fri, 18 Nov 2011 16:43:12 +0000</description><styleUrl>#hideLabel</styleUrl>
<Point><coordinates>-84.432700,33.641600,0</coordinates></Point></Placemark>
<Placemark><name>jeannebopp</name><description>@DeltaAssist the subway Ads are fantastic, but the reality of flying with delta is late flights and bad communication
Fri, 18 Nov 2011 16:44:33 +0000</description><styleUrl>#hideLabel</styleUrl>
<Point><coordinates>-84.426400,33.640800,0</coordinates></Point></Placemark>
<Placemark><name>jeannebopp</name><description>@DeltaAssist the delta communication on this trip has been mediocre at best. The delta efforts at rebranding are sparkly and great..
Fri, 18 Nov 2011 16:43:56 +0000</description><styleUrl>#hideLabel</styleUrl>
<Point><coordinates>-84.426400,33.640800,0</coordinates></Point></Placemark>
<Placemark><name>jeannebopp</name><description>@DeltaAssist save your company, innovate your airline and set the standard, stop creating miserable and average experiences.
Fri, 18 Nov 2011 16:44:58 +0000</description><styleUrl>#hideLabel</styleUrl>
<Point><coordinates>-84.426400,33.640800,0</coordinates></Point></Placemark>
<Placemark><name>bricbain</name><description>@Hereewego at least u get out early!
Fri, 18 Nov 2011 16:46:01 +0000</description><styleUrl>#hideLabel</styleUrl>
<Point><coordinates>-84.438500,33.642000,0</coordinates></Point></Placemark>
<Placemark><name>jeannebopp</name><description>@DeltaAssist look to google and apple for how to do this. Otherwise I plan to take my business elsewhere whenever possible.
Fri, 18 Nov 2011 16:45:30 +0000</description><styleUrl>#hideLabel</styleUrl>
<Point><coordinates>-84.426400,33.640800,0</coordinates></Point></Placemark>
<Placemark><name>ttoelke</name><description>I'm at Hartsfield-Jackson Atlanta International Airport (ATL) (6000 N Terminal Pkwy., Atlanta) w/ 155 others http://t.co/zQQ9IX2l
Fri, 18 Nov 2011 16:47:26 +0000</description><styleUrl>#hideLabel</styleUrl>
<Point><coordinates>-84.426944,33.640278,0</coordinates></Point></Placemark>
<Placemark><name>jeannebopp</name><description>@DeltaAssist I will say your team did check a second small bag for free, which is the least they can do.
Fri, 18 Nov 2011 16:50:06 +0000</description><styleUrl>#hideLabel</styleUrl>
<Point><coordinates>-84.426400,33.640800,0</coordinates></Point></Placemark>
<Placemark><name>Bre_didWHATTTT</name><description>Just landed
Fri, 18 Nov 2011 16:49:53 +0000</description><styleUrl>#hideLabel</styleUrl>
<Point><coordinates>-84.434300,33.638000,0</coordinates></Point></Placemark>
<Placemark><name>farnellnewton</name><description>The Funky Drummer - Lil John Roberts  @ Hartsfield-Jackson Atlanta International Airport (ATL) http://t.co/kr61mnJ5
Fri, 18 Nov 2011 16:53:10 +0000</description><styleUrl>#hideLabel</styleUrl>
<Point><coordinates>-84.436100,33.640700,0</coordinates></Point></Placemark>
<Placemark><name>eddy_1984</name><description>@_andedithsays @gilmi Mera ya q se supone este trabajando :P Working Hard... and my battery going down jajajaja :P
Fri, 18 Nov 2011 16:53:34 +0000</description><styleUrl>#hideLabel</styleUrl>
<Point><coordinates>-84.432600,33.642400,0</coordinates></Point></Placemark>
<Placemark><name>ilivetotravel</name><description>One hr before flight: #3 w all 5 seats still available. Dont like the trend... #Delta #DM
Fri, 18 Nov 2011 16:55:29 +0000</description><styleUrl>#hideLabel</styleUrl>
<Point><coordinates>-84.431917,33.637119,0</coordinates></Point></Placemark>
<Placemark><name>sungotta</name><description>@EshaLUV1 not sure what they are call it look like a track jacket
Fri, 18 Nov 2011 16:56:19 +0000</description><styleUrl>#hideLabel</styleUrl>
<Point><coordinates>-84.413300,33.634300,0</coordinates></Point></Placemark>
<Placemark><name>ilivetotravel</name><description>#Delta offers premium drinks at The Luxury Bar in its Sky Clubs - here is the cocktail menu http://t.co/IKo4wqcx
Fri, 18 Nov 2011 16:59:11 +0000</description><styleUrl>#hideLabel</styleUrl>
<Point><coordinates>-84.431917,33.637119,0</coordinates></Point></Placemark>
<Placemark><name>skburt688</name><description>I'm here!!!!!!!! @ColumbiaAirport get to see @rachez07 in a few min!!! #SCYall #gamecocknation
Fri, 18 Nov 2011 16:58:52 +0000</description><styleUrl>#hideLabel</styleUrl>
<Point><coordinates>-84.429000,33.641200,0</coordinates></Point></Placemark>
<Placemark><name>ilivetotravel</name><description>@whereishawkins I dont know if to drink it up at the Sky Club or pace myself! The horror!
Fri, 18 Nov 2011 17:00:48 +0000</description><styleUrl>#hideLabel</styleUrl>
<Point><coordinates>-84.431917,33.637119,0</coordinates></Point></Placemark>
<Placemark><name>jordanbrowneyes</name><description>It's funny, this time last year I was coming home from Miami. This year Maine.
Fri, 18 Nov 2011 17:00:36 +0000</description><styleUrl>#hideLabel</styleUrl>
<Point><coordinates>-84.432700,33.641600,0</coordinates></Point></Placemark>
<Placemark><name>djasides</name><description>Undeniable - A Sides by @djasides via #soundcloud http://t.co/EzYXSOE2
Fri, 18 Nov 2011 17:02:27 +0000</description><styleUrl>#hideLabel</styleUrl>
<Point><coordinates>-84.436836,33.642666,0</coordinates></Point></Placemark>
<Placemark><name>ilivetotravel</name><description>@whereishawkins as we say in spanish: la luz de adelante es la que alumbra (sorta take advantage of things now, dont wait)!!!
Fri, 18 Nov 2011 17:03:11 +0000</description><styleUrl>#hideLabel</styleUrl>
<Point><coordinates>-84.431917,33.637119,0</coordinates></Point></Placemark>
<Placemark><name>djasides</name><description>Warrior Groove - A Sides by @djasides via #soundcloud http://t.co/mvGOxlKr
Fri, 18 Nov 2011 17:04:30 +0000</description><styleUrl>#hideLabel</styleUrl>
<Point><coordinates>-84.436836,33.642666,0</coordinates></Point></Placemark>
<Placemark><name>Top_Cookie</name><description>My twin sister announced that she wants to be a red. -_- @purplexlioness @_CandiceMichell @JaeCoCo @LovingDEE_
Fri, 18 Nov 2011 17:05:02 +0000</description><styleUrl>#hideLabel</styleUrl>
<Point><coordinates>-84.429310,33.641029,0</coordinates></Point></Placemark>
<Placemark><name>djasides</name><description>Get Started (A Sides Remix) - Mark de Clive Lowe Ft Omar &amp; Sheila E by @djasides via #soundcloud http://t.co/xCrZquhf
Fri, 18 Nov 2011 17:04:57 +0000</description><styleUrl>#hideLabel</styleUrl>
<Point><coordinates>-84.436836,33.642666,0</coordinates></Point></Placemark>
<Placemark><name>usaussie</name><description>New Blog Post: Go Links: Paying it (the data) Forward http://t.co/2PSgFgOS (via @oitdesign)
Fri, 18 Nov 2011 17:05:55 +0000</description><styleUrl>#hideLabel</styleUrl>
<Point><coordinates>-84.437940,33.640451,0</coordinates></Point></Placemark>
<Placemark><name>ExML</name><description>Watching The Thing with the kids. They dig it. http://t.co/v0ooknCM
Fri, 18 Nov 2011 17:05:34 +0000</description><styleUrl>#hideLabel</styleUrl>
<Point><coordinates>-84.432655,33.641953,0</coordinates></Point></Placemark>
<Placemark><name>SusieQ1658</name><description>I'm at Hartsfield-Jackson Atlanta International Airport (ATL) (6000 N Terminal Pkwy., Atlanta) w/ 146 others http://t.co/R89wRjT5
Fri, 18 Nov 2011 17:06:33 +0000</description><styleUrl>#hideLabel</styleUrl>
<Point><coordinates>-84.426944,33.640278,0</coordinates></Point></Placemark>
<Placemark><name>Top_Cookie</name><description>My twin sister announced that she wants to be a red. -_- @purplexlioness @_CandiceMichell @JaeCoCo @LovingDEE_  @R_rated12 @
Fri, 18 Nov 2011 17:06:27 +0000</description><styleUrl>#hideLabel</styleUrl>
<Point><coordinates>-84.429310,33.641029,0</coordinates></Point></Placemark>
<Placemark><name>JoseRusso</name><description>Gate change, have to go there
Fri, 18 Nov 2011 17:08:42 +0000</description><styleUrl>#hideLabel</styleUrl>
<Point><coordinates>-84.441700,33.641400,0</coordinates></Point></Placemark>
<Placemark><name>Brandi_Lindsey</name><description>Wishing I was flying away today (@ Hartsfield-Jackson Atlanta International Airport (ATL) w/ 148 others) http://t.co/5BE3dqjz
Fri, 18 Nov 2011 17:09:09 +0000</description><styleUrl>#hideLabel</styleUrl>
<Point><coordinates>-84.436100,33.640700,0</coordinates></Point></Placemark>
<Placemark><name>JoseRusso</name><description>@ProLango Ask questions if possible; all you can. You'll never know the whole spectrum of a position until you get hired and start working.
Fri, 18 Nov 2011 17:11:25 +0000</description><styleUrl>#hideLabel</styleUrl>
<Point><coordinates>-84.439100,33.638200,0</coordinates></Point></Placemark>
<Placemark><name>ilivetotravel</name><description>@KyraTX who knows, for all my status, id think they'd call it an hr b4 flight! #Delta
Fri, 18 Nov 2011 17:10:43 +0000</description><styleUrl>#hideLabel</styleUrl>
<Point><coordinates>-84.431917,33.637119,0</coordinates></Point></Placemark>
<Placemark><name>ilivetotravel</name><description>New data pt: 2 unclaimed first class seats &amp; 5 unassigned.  Suspense builds! #Delta #DM
Fri, 18 Nov 2011 17:12:51 +0000</description><styleUrl>#hideLabel</styleUrl>
<Point><coordinates>-84.431917,33.637119,0</coordinates></Point></Placemark>
<Placemark><name>AbbyTegnelia</name><description>85 degrees in #costarica and it took me three days to brave the &quot;cold&quot; pool water. How the heck am I going to go back to winter?
Fri, 18 Nov 2011 17:12:42 +0000</description><styleUrl>#hideLabel</styleUrl>
<Point><coordinates>-84.438494,33.643150,0</coordinates></Point></Placemark>
<Placemark><name>JenBeres</name><description>Oh you know, just flying go (@ Hartsfield-Jackson Atlanta International Airport (ATL) w/ 142 others) http://t.co/0Tr5aGem
Fri, 18 Nov 2011 17:16:02 +0000</description><styleUrl>#hideLabel</styleUrl>
<Point><coordinates>-84.436100,33.640700,0</coordinates></Point></Placemark>
<Placemark><name>ilivetotravel</name><description>I made it, folks! Unusual this cloae to flight departure!  4C, baby
Fri, 18 Nov 2011 17:17:56 +0000</description><styleUrl>#hideLabel</styleUrl>
<Point><coordinates>-84.431917,33.637119,0</coordinates></Point></Placemark>
<Placemark><name>Top_Cookie</name><description>@R_rated12 im excited for her. She didn't announce I did!
Fri, 18 Nov 2011 17:22:45 +0000</description><styleUrl>#hideLabel</styleUrl>
<Point><coordinates>-84.429310,33.641029,0</coordinates></Point></Placemark>
<Placemark><name>REALbyNIGHT</name><description>Drinking kombucha makes me feel healthy and by healthy I mean in going to shit myself
Fri, 18 Nov 2011 17:23:55 +0000</description><styleUrl>#hideLabel</styleUrl>
<Point><coordinates>-84.437721,33.640450,0</coordinates></Point></Placemark>
<Placemark><name>REALbyNIGHT</name><description>@breadchastick03 kind of now just imagine meet putting up lighting and audio around it
Fri, 18 Nov 2011 17:24:41 +0000</description><styleUrl>#hideLabel</styleUrl>
<Point><coordinates>-84.437721,33.640450,0</coordinates></Point></Placemark>
<Placemark><name>ralphdarula</name><description>IDK, its pretty dark outside today might can't find u RT @Stevemo09: I'm going to spend all 3 hours of my layover in ATL jiving @ralphdarula
Fri, 18 Nov 2011 17:26:03 +0000</description><styleUrl>#hideLabel</styleUrl>
<Point><coordinates>-84.437996,33.634472,0</coordinates></Point></Placemark>
<Placemark><name>AbbyTegnelia</name><description>@KyleHepp @AndiPerullo @emilyinchile we will pre-game w you on Skype!
Fri, 18 Nov 2011 17:25:44 +0000</description><styleUrl>#hideLabel</styleUrl>
<Point><coordinates>-84.438494,33.643150,0</coordinates></Point></Placemark>
<Placemark><name>deandeguara</name><description>Great article on Secretly Incredible Leadership http://t.co/9B2TClGd
Fri, 18 Nov 2011 17:25:36 +0000</description><styleUrl>#hideLabel</styleUrl>
<Point><coordinates>-84.439285,33.639191,0</coordinates></Point></Placemark>
<Placemark><name>REALbyNIGHT</name><description>@yourbabyblanket where can I get a copy of your first novel
Fri, 18 Nov 2011 17:27:33 +0000</description><styleUrl>#hideLabel</styleUrl>
<Point><coordinates>-84.437721,33.640450,0</coordinates></Point></Placemark>
<Placemark><name>Top_Cookie</name><description>@R_rated12 lmao I couldn't help it.
Fri, 18 Nov 2011 17:29:09 +0000</description><styleUrl>#hideLabel</styleUrl>
<Point><coordinates>-84.429310,33.641029,0</coordinates></Point></Placemark>
<Placemark><name>jeannebopp</name><description>@clarapineda I speak Spanish now. Thought you should know. Gracias and si and such.
Fri, 18 Nov 2011 17:30:13 +0000</description><styleUrl>#hideLabel</styleUrl>
<Point><coordinates>-84.435700,33.641900,0</coordinates></Point></Placemark>
<Placemark><name>REALbyNIGHT</name><description>I been listing to #thisisourscience non stop all week, one if the better albums of 2011
Fri, 18 Nov 2011 17:29:59 +0000</description><styleUrl>#hideLabel</styleUrl>
<Point><coordinates>-84.437721,33.640450,0</coordinates></Point></Placemark>
<Placemark><name>jillmcfarland</name><description>I'm at Hartsfield-Jackson Atlanta International Airport (ATL) (6000 N Terminal Pkwy., Atlanta) w/ 139 others http://t.co/fEqe2xXA
Fri, 18 Nov 2011 17:31:14 +0000</description><styleUrl>#hideLabel</styleUrl>
<Point><coordinates>-84.426944,33.640278,0</coordinates></Point></Placemark>
<Placemark><name>REALbyNIGHT</name><description>@breadchastick03 knowing me I would pattern those things into a graphic scene of dolphin rape to scare #thechildren
Fri, 18 Nov 2011 17:31:01 +0000</description><styleUrl>#hideLabel</styleUrl>
<Point><coordinates>-84.437721,33.640450,0</coordinates></Point></Placemark>
<Placemark><name>newfashiongirl</name><description>I'm at Hartsfield-Jackson Atlanta International Airport (ATL) (6000 N Terminal Pkwy., Atlanta) w/ 139 others http://t.co/jOzNLftg
Fri, 18 Nov 2011 17:30:50 +0000</description><styleUrl>#hideLabel</styleUrl>
<Point><coordinates>-84.426944,33.640278,0</coordinates></Point></Placemark>
<Placemark><name>Top_Cookie</name><description>@JaeCoCo I know I got too excited!
Fri, 18 Nov 2011 17:31:38 +0000</description><styleUrl>#hideLabel</styleUrl>
<Point><coordinates>-84.429310,33.641029,0</coordinates></Point></Placemark>
<Placemark><name>TCrago</name><description>I'm at Hartsfield-Jackson Atlanta International Airport (ATL) (6000 N Terminal Pkwy., Atlanta) w/ 141 others http://t.co/F3TZttXp
Fri, 18 Nov 2011 17:31:26 +0000</description><styleUrl>#hideLabel</styleUrl>
<Point><coordinates>-84.426944,33.640278,0</coordinates></Point></Placemark>
<Placemark><name>wolfehr</name><description>Reality Check: An endorsement for fairness in dealing With Ron Paul: http://t.co/a5bSlJg9
Fri, 18 Nov 2011 17:33:04 +0000</description><styleUrl>#hideLabel</styleUrl>
<Point><coordinates>-84.439200,33.639530,0</coordinates></Point></Placemark>
<Placemark><name>jeannebopp</name><description>@clarapineda mucho gracias you know. Mucho. We should come visit you next?
Fri, 18 Nov 2011 17:33:04 +0000</description><styleUrl>#hideLabel</styleUrl>
<Point><coordinates>-84.435900,33.642400,0</coordinates></Point></Placemark>
<Placemark><name>Top_Cookie</name><description>which is quicker to orlando the turnpike or 95?
Fri, 18 Nov 2011 17:32:49 +0000</description><styleUrl>#hideLabel</styleUrl>
<Point><coordinates>-84.429310,33.641029,0</coordinates></Point></Placemark>
<Placemark><name>REALbyNIGHT</name><description>@kgarber87 your dead to me, btw what are you doing this weekend
Fri, 18 Nov 2011 17:32:27 +0000</description><styleUrl>#hideLabel</styleUrl>
<Point><coordinates>-84.437721,33.640450,0</coordinates></Point></Placemark>
<Placemark><name>REALbyNIGHT</name><description>@KGarber87 sounds good
Fri, 18 Nov 2011 17:34:53 +0000</description><styleUrl>#hideLabel</styleUrl>
<Point><coordinates>-84.437721,33.640450,0</coordinates></Point></Placemark>
<Placemark><name>Top_Cookie</name><description>@macbookshawdy how do you know.
Fri, 18 Nov 2011 17:36:13 +0000</description><styleUrl>#hideLabel</styleUrl>
<Point><coordinates>-84.429310,33.641029,0</coordinates></Point></Placemark>
<Placemark><name>Top_Cookie</name><description>@Xklusive_nupe13 I was told to stay on 75 and it will take me straight to the turnpike
Fri, 18 Nov 2011 17:35:47 +0000</description><styleUrl>#hideLabel</styleUrl>
<Point><coordinates>-84.429310,33.641029,0</coordinates></Point></Placemark>
<Placemark><name>REALbyNIGHT</name><description>@youth_depraved its really my favorite thing he's done yet
Fri, 18 Nov 2011 17:36:55 +0000</description><styleUrl>#hideLabel</styleUrl>
<Point><coordinates>-84.437721,33.640450,0</coordinates></Point></Placemark>
<Placemark><name>tweetshiva</name><description>Creative!! What say you @dens? (@ Among The Clouds) http://t.co/Ro1Xz8gS
Fri, 18 Nov 2011 17:36:47 +0000</description><styleUrl>#hideLabel</styleUrl>
<Point><coordinates>-84.431100,33.639800,0</coordinates></Point></Placemark>
<Placemark><name>Kelly_Adrienne</name><description>@1RealMoFo yall won't let Drake be great cause he's an emo dude...lol and not constantly talking about his 'swag'
Fri, 18 Nov 2011 17:38:08 +0000</description><styleUrl>#hideLabel</styleUrl>
<Point><coordinates>-84.406115,33.637355,0</coordinates></Point></Placemark>
<Placemark><name>csburrell</name><description>On a weekend getaway! #mindbodyspirit (@ Hartsfield-Jackson Atlanta International Airport (ATL) w/ @zumbacee) http://t.co/5QS64fFI
Fri, 18 Nov 2011 17:37:58 +0000</description><styleUrl>#hideLabel</styleUrl>
<Point><coordinates>-84.436100,33.640700,0</coordinates></Point></Placemark>
<Placemark><name>Kelly_Adrienne</name><description>@1RealMoFo what makes him not authentic? I like him cause he's honest about his background, he never did drugs/sold and doesnt glorify it
Fri, 18 Nov 2011 17:37:32 +0000</description><styleUrl>#hideLabel</styleUrl>
<Point><coordinates>-84.406115,33.637355,0</coordinates></Point></Placemark>
<Placemark><name>REALbyNIGHT</name><description>@breadchastick03 I'm scared of racoons but with good reason the live in my garage and dreams but mostly in the garage
Fri, 18 Nov 2011 17:38:45 +0000</description><styleUrl>#hideLabel</styleUrl>
<Point><coordinates>-84.437721,33.640450,0</coordinates></Point></Placemark>
<Placemark><name>jeannebopp</name><description>@clarapineda I mean I AMMM at the airport still..
Fri, 18 Nov 2011 17:39:46 +0000</description><styleUrl>#hideLabel</styleUrl>
<Point><coordinates>-84.435900,33.642200,0</coordinates></Point></Placemark>
<Placemark><name>REALbyNIGHT</name><description>@yourbabyblanket awesome, I really look forward to reading it #yougoglencoco
Fri, 18 Nov 2011 17:39:35 +0000</description><styleUrl>#hideLabel</styleUrl>
<Point><coordinates>-84.437721,33.640450,0</coordinates></Point></Placemark>
<Placemark><name>jordanbrowneyes</name><description>RT @NaddieJ &quot;isn't it good to be home :)&quot; Heck yeah! Tired of northern folk making fun of way I talk! #whasamattayou
Fri, 18 Nov 2011 17:41:36 +0000</description><styleUrl>#hideLabel</styleUrl>
<Point><coordinates>-84.438900,33.650300,0</coordinates></Point></Placemark>
<Placemark><name>twood2010</name><description>About to take flight bitch
Fri, 18 Nov 2011 17:41:23 +0000</description><styleUrl>#hideLabel</styleUrl>
<Point><coordinates>-84.444800,33.640700,0</coordinates></Point></Placemark>
<Placemark><name>twood2010</name><description>Her ass wetter then her pussy
Fri, 18 Nov 2011 17:41:03 +0000</description><styleUrl>#hideLabel</styleUrl>
<Point><coordinates>-84.444900,33.640800,0</coordinates></Point></Placemark>
<Placemark><name>twood2010</name><description>Who baby that is
Fri, 18 Nov 2011 17:42:37 +0000</description><styleUrl>#hideLabel</styleUrl>
<Point><coordinates>-84.445200,33.640800,0</coordinates></Point></Placemark>
<Placemark><name>AbbyTegnelia</name><description>@StayAdventurous @dtravelsround she'd better be! Especially if I don't go back haha
Fri, 18 Nov 2011 17:42:03 +0000</description><styleUrl>#hideLabel</styleUrl>
<Point><coordinates>-84.438494,33.643150,0</coordinates></Point></Placemark>
<Placemark><name>twood2010</name><description>Who babe that is
Fri, 18 Nov 2011 17:41:57 +0000</description><styleUrl>#hideLabel</styleUrl>
<Point><coordinates>-84.444900,33.640900,0</coordinates></Point></Placemark>
<Placemark><name>REALbyNIGHT</name><description>@breadchastick03 @maxstaar dolphins are the statutory rapists of the animal kingdom
Fri, 18 Nov 2011 17:41:56 +0000</description><styleUrl>#hideLabel</styleUrl>
<Point><coordinates>-84.437721,33.640450,0</coordinates></Point></Placemark>
<Placemark><name>Bryan_Edwards</name><description>Back in America. It's all so different than when I left Wednesday ...
Fri, 18 Nov 2011 17:44:23 +0000</description><styleUrl>#hideLabel</styleUrl>
<Point><coordinates>-84.428500,33.640500,0</coordinates></Point></Placemark>
<Placemark><name>mechuckT</name><description>ATL I miss u so much I'm happy being in the airport!!!
Fri, 18 Nov 2011 17:44:45 +0000</description><styleUrl>#hideLabel</styleUrl>
<Point><coordinates>-84.442100,33.643000,0</coordinates></Point></Placemark>
<Placemark><name>twood2010</name><description>@_One_OfA_Kind what it do fool
Fri, 18 Nov 2011 17:44:36 +0000</description><styleUrl>#hideLabel</styleUrl>
<Point><coordinates>-84.444900,33.640800,0</coordinates></Point></Placemark>
<Placemark><name>twood2010</name><description>Thinking the same thing you thinking ,
Fri, 18 Nov 2011 17:45:30 +0000</description><styleUrl>#hideLabel</styleUrl>
<Point><coordinates>-84.445100,33.640800,0</coordinates></Point></Placemark>
<Placemark><name>twood2010</name><description>The end Bout to be at u later
Fri, 18 Nov 2011 17:46:43 +0000</description><styleUrl>#hideLabel</styleUrl>
<Point><coordinates>-84.444900,33.640900,0</coordinates></Point></Placemark>
<Placemark><name>REALbyNIGHT</name><description>@breadchastick03 now we just need to educate the public on the sea otter menace. Those sneaky bastards. @maxstaar
Fri, 18 Nov 2011 17:46:21 +0000</description><styleUrl>#hideLabel</styleUrl>
<Point><coordinates>-84.437721,33.640450,0</coordinates></Point></Placemark>
<Placemark><name>twood2010</name><description>Something I can't do pay to cash my check
Fri, 18 Nov 2011 17:46:12 +0000</description><styleUrl>#hideLabel</styleUrl>
<Point><coordinates>-84.445200,33.640800,0</coordinates></Point></Placemark>
<Placemark><name>Byg_Tymer</name><description>Hour layover in Atlanta before heading to Louisiana! (@ Hartsfield-Jackson Atlanta International Airport (ATL)) http://t.co/C226fNjc
Fri, 18 Nov 2011 17:49:20 +0000</description><styleUrl>#hideLabel</styleUrl>
<Point><coordinates>-84.436100,33.640700,0</coordinates></Point></Placemark>
<Placemark><name>TCrago</name><description>I'm at Hartsfield-Jackson Atlanta International Airport (ATL) (6000 N Terminal Pkwy., Atlanta) w/ 141 others http://t.co/614YrCEV
Fri, 18 Nov 2011 17:49:15 +0000</description><styleUrl>#hideLabel</styleUrl>
<Point><coordinates>-84.426944,33.640278,0</coordinates></Point></Placemark>
<Placemark><name>Top_Cookie</name><description>@macbookshawdy yeah I have been
Fri, 18 Nov 2011 17:48:58 +0000</description><styleUrl>#hideLabel</styleUrl>
<Point><coordinates>-84.429310,33.641029,0</coordinates></Point></Placemark>
<Placemark><name>ralphdarula</name><description>@EastAtlantaLife @Stevemo09 yall niggas mus be Cornbread and Earl
Fri, 18 Nov 2011 17:55:01 +0000</description><styleUrl>#hideLabel</styleUrl>
<Point><coordinates>-84.437996,33.634472,0</coordinates></Point></Placemark>
<Placemark><name>dvinegrace11</name><description>I'm officially jet lagged
Fri, 18 Nov 2011 17:56:36 +0000</description><styleUrl>#hideLabel</styleUrl>
<Point><coordinates>-84.434400,33.654800,0</coordinates></Point></Placemark>
<Placemark><name>LaurenShea</name><description>Pedestrians of Auburn: if not at crosswalk, car trumps you...everytimf.
Fri, 18 Nov 2011 17:58:02 +0000</description><styleUrl>#hideLabel</styleUrl>
<Point><coordinates>-84.432571,33.644703,0</coordinates></Point></Placemark>
<Placemark><name>twood2010</name><description>@iamscrap_ follow back
Fri, 18 Nov 2011 17:59:09 +0000</description><styleUrl>#hideLabel</styleUrl>
<Point><coordinates>-84.443400,33.641600,0</coordinates></Point></Placemark>
<Placemark><name>thomasgetchius</name><description>I'm at Hartsfield-Jackson Atlanta International Airport (ATL) (6000 N Terminal Pkwy., Atlanta) w/ 143 others http://t.co/aRixlcQh
Fri, 18 Nov 2011 17:58:36 +0000</description><styleUrl>#hideLabel</styleUrl>
<Point><coordinates>-84.426944,33.640278,0</coordinates></Point></Placemark>
<Placemark><name>Zoogerjen2000</name><description>What up Georgia? #sjuatsoa
Fri, 18 Nov 2011 17:58:29 +0000</description><styleUrl>#hideLabel</styleUrl>
<Point><coordinates>-84.440000,33.639700,0</coordinates></Point></Placemark>
<Placemark><name>tryalex</name><description>I'm at Hartsfield-Jackson Atlanta International Airport (ATL) (6000 N Terminal Pkwy., Atlanta) w/ 141 others http://t.co/rO1j6PfM
Fri, 18 Nov 2011 18:00:18 +0000</description><styleUrl>#hideLabel</styleUrl>
<Point><coordinates>-84.426944,33.640278,0</coordinates></Point></Placemark>
<Placemark><name>vannshane</name><description>Verizon, AT&amp;T Under Pressure Over Conflict Minerals http://t.co/LssZKGUY
Fri, 18 Nov 2011 18:06:03 +0000</description><styleUrl>#hideLabel</styleUrl>
<Point><coordinates>-84.425766,33.642169,0</coordinates></Point></Placemark>
<Placemark><name>zgwarnki</name><description>I'm at Hartsfield-Jackson Atlanta International Airport (ATL) (6000 N Terminal Pkwy., Atlanta) w/ 146 others http://t.co/94zlA4Mx
Fri, 18 Nov 2011 18:05:28 +0000</description><styleUrl>#hideLabel</styleUrl>
<Point><coordinates>-84.426944,33.640278,0</coordinates></Point></Placemark>
<Placemark><name>jwalkermobile</name><description>@LarryBuckalew Very unhappy with my Westbay...
Fri, 18 Nov 2011 18:08:12 +0000</description><styleUrl>#hideLabel</styleUrl>
<Point><coordinates>-84.429536,33.637821,0</coordinates></Point></Placemark>
<Placemark><name>LiberallyJan</name><description>RT @vannshane: Verizon, AT&amp;T Under Pressure Over Conflict Minerals http://t.co/LssZKGUY
Fri, 18 Nov 2011 18:08:03 +0000</description><styleUrl>#hideLabel</styleUrl>
<Point><coordinates>-84.425766,33.642169,0</coordinates></Point></Placemark>
<Placemark><name>brenda21</name><description>I'm at Hartsfield-Jackson Atlanta International Airport (ATL) (6000 N Terminal Pkwy., Atlanta) w/ 141 others http://t.co/bEhD82mx
Fri, 18 Nov 2011 18:10:56 +0000</description><styleUrl>#hideLabel</styleUrl>
<Point><coordinates>-84.426944,33.640278,0</coordinates></Point></Placemark>
<Placemark><name>SIGGY100X35</name><description>http://t.co/zGwZ9vkk
Fri, 18 Nov 2011 18:10:17 +0000</description><styleUrl>#hideLabel</styleUrl>
<Point><coordinates>-84.440267,33.647163,0</coordinates></Point></Placemark>
<Placemark><name>IAmTeeTee</name><description>Leave it up to some stupid people to make stupid decisions
Fri, 18 Nov 2011 18:12:47 +0000</description><styleUrl>#hideLabel</styleUrl>
<Point><coordinates>-84.445203,33.640227,0</coordinates></Point></Placemark>
<Placemark><name>dani3l3</name><description>@scottw time to get yourself a windows phone :-)
Fri, 18 Nov 2011 18:12:54 +0000</description><styleUrl>#hideLabel</styleUrl>
<Point><coordinates>-84.442600,33.639500,0</coordinates></Point></Placemark>
<Placemark><name>cnorman78</name><description>I'm at Hartsfield-Jackson Atlanta International Airport (ATL) (6000 N Terminal Pkwy., Atlanta) w/ 151 others http://t.co/HNHncIGw
Fri, 18 Nov 2011 18:14:52 +0000</description><styleUrl>#hideLabel</styleUrl>
<Point><coordinates>-84.426944,33.640278,0</coordinates></Point></Placemark>
<Placemark><name>pauladmurphy</name><description>Nashville, here I come! (@ Hartsfield-Jackson Atlanta International Airport (ATL) w/ 150 others) http://t.co/dUxgc323
Fri, 18 Nov 2011 18:14:39 +0000</description><styleUrl>#hideLabel</styleUrl>
<Point><coordinates>-84.436100,33.640700,0</coordinates></Point></Placemark>
<Placemark><name>stevienarde</name><description>I'm at Hartsfield-Jackson Atlanta International Airport (ATL) (6000 N Terminal Pkwy., Atlanta) w/ 148 others http://t.co/WqgV1qHB
Fri, 18 Nov 2011 18:17:28 +0000</description><styleUrl>#hideLabel</styleUrl>
<Point><coordinates>-84.426944,33.640278,0</coordinates></Point></Placemark>
<Placemark><name>bryceacurtis</name><description>Using the restroom in ATL airport reminded me of the lady cleaning the urinal next to the one I was using in Taipei. #StrangeTravelMoment
Fri, 18 Nov 2011 18:19:09 +0000</description><styleUrl>#hideLabel</styleUrl>
<Point><coordinates>-84.432500,33.639800,0</coordinates></Point></Placemark>
<Placemark><name>Hashim305</name><description>Not there yet... (@ Hartsfield-Jackson Atlanta International Airport (ATL) w/ 155 others) http://t.co/zsYuOpQt
Fri, 18 Nov 2011 18:19:19 +0000</description><styleUrl>#hideLabel</styleUrl>
<Point><coordinates>-84.436100,33.640700,0</coordinates></Point></Placemark>
<Placemark><name>Bryan_Edwards</name><description>“@karenjarrett: Big thank you @Bryan_Edwards and Chris!!!! GREAT JOB!!!!”  thanks! You made our job easy Karen!
Fri, 18 Nov 2011 18:20:36 +0000</description><styleUrl>#hideLabel</styleUrl>
<Point><coordinates>-84.430600,33.640600,0</coordinates></Point></Placemark>
<Placemark><name>kimdivine</name><description>@kristyhanson have I got a story for you...
Fri, 18 Nov 2011 18:22:31 +0000</description><styleUrl>#hideLabel</styleUrl>
<Point><coordinates>-84.439209,33.638218,0</coordinates></Point></Placemark>
<Placemark><name>kimdivine</name><description>@oolyum thank you! no win but all good :)
Fri, 18 Nov 2011 18:22:12 +0000</description><styleUrl>#hideLabel</styleUrl>
<Point><coordinates>-84.439209,33.638218,0</coordinates></Point></Placemark>
<Placemark><name>IAmTeeTee</name><description>Who does really good logos? BoiRevolution needs a Logo made! Get at Us!
Fri, 18 Nov 2011 18:22:03 +0000</description><styleUrl>#hideLabel</styleUrl>
<Point><coordinates>-84.445203,33.640227,0</coordinates></Point></Placemark>
<Placemark><name>Top_Cookie</name><description>@MarreMama lol you knew what I meant
Fri, 18 Nov 2011 18:21:49 +0000</description><styleUrl>#hideLabel</styleUrl>
<Point><coordinates>-84.429310,33.641029,0</coordinates></Point></Placemark>
<Placemark><name>KiemieLuvsU</name><description>I'm at Hartsfield-Jackson Atlanta International Airport (ATL) (6000 N Terminal Pkwy., Atlanta) w/ 155 others http://t.co/vVzoe9me
Fri, 18 Nov 2011 18:23:21 +0000</description><styleUrl>#hideLabel</styleUrl>
<Point><coordinates>-84.426944,33.640278,0</coordinates></Point></Placemark>
<Placemark><name>kimdivine</name><description>@roycekokami thank you so much for the FF fun :) k
Fri, 18 Nov 2011 18:22:55 +0000</description><styleUrl>#hideLabel</styleUrl>
<Point><coordinates>-84.439209,33.638218,0</coordinates></Point></Placemark>
<Placemark><name>DreDay_EveryDay</name><description>Sunset park what time is it
Fri, 18 Nov 2011 18:23:59 +0000</description><styleUrl>#hideLabel</styleUrl>
<Point><coordinates>-84.438785,33.641601,0</coordinates></Point></Placemark>
<Placemark><name>folohme2success</name><description>I'm at Hartsfield-Jackson Atlanta International Airport (ATL) (6000 N Terminal Pkwy., Atlanta) w/ 153 others http://t.co/Yo5ogYTg
Fri, 18 Nov 2011 18:25:50 +0000</description><styleUrl>#hideLabel</styleUrl>
<Point><coordinates>-84.426944,33.640278,0</coordinates></Point></Placemark>
<Placemark><name>marmar444166</name><description>Boarding the plane! #nervous #excited
Fri, 18 Nov 2011 18:25:17 +0000</description><styleUrl>#hideLabel</styleUrl>
<Point><coordinates>-84.421400,33.635100,0</coordinates></Point></Placemark>
<Placemark><name>CoachCola71</name><description>Finally home. (@ Hartsfield-Jackson Atlanta International Airport (ATL) w/ 161 others) http://t.co/3NkkYEKu
Fri, 18 Nov 2011 18:29:38 +0000</description><styleUrl>#hideLabel</styleUrl>
<Point><coordinates>-84.436100,33.640700,0</coordinates></Point></Placemark>
<Placemark><name>michellecblair</name><description>I'm at Hartsfield-Jackson Atlanta International Airport (ATL) (6000 N Terminal Pkwy., Atlanta) w/ 160 others http://t.co/vkEP7YJo
Fri, 18 Nov 2011 18:31:46 +0000</description><styleUrl>#hideLabel</styleUrl>
<Point><coordinates>-84.426944,33.640278,0</coordinates></Point></Placemark>
<Placemark><name>MsCMarie</name><description>RT @allymisslove: Good morning, I encourage you this friday to lend a word/hand to motivate someone. #PositiveMovement
Fri, 18 Nov 2011 18:34:31 +0000</description><styleUrl>#hideLabel</styleUrl>
<Point><coordinates>-84.423941,33.644393,0</coordinates></Point></Placemark>
<Placemark><name>MVanaken</name><description>I'm at Hartsfield-Jackson Atlanta International Airport (ATL) (6000 N Terminal Pkwy., Atlanta) w/ 167 others http://t.co/FGEvHTub
Fri, 18 Nov 2011 18:34:20 +0000</description><styleUrl>#hideLabel</styleUrl>
<Point><coordinates>-84.426944,33.640278,0</coordinates></Point></Placemark>
<Placemark><name>mechuckT</name><description>@courtholton dope!!! I'll let u know if we come down 4 new years.  That's our anniversary
Fri, 18 Nov 2011 18:34:14 +0000</description><styleUrl>#hideLabel</styleUrl>
<Point><coordinates>-84.441700,33.642200,0</coordinates></Point></Placemark>
<Placemark><name>realballer20</name><description>Just landed in atl happy i dont miss skool but i miss people i fuck wit no homo
Fri, 18 Nov 2011 18:34:06 +0000</description><styleUrl>#hideLabel</styleUrl>
<Point><coordinates>-84.445400,33.641100,0</coordinates></Point></Placemark>
<Placemark><name>Manny_Navarro</name><description>@proCanes Barry has been doing #Dolphins and has put Buzz on hiatus until the new year I believe
Fri, 18 Nov 2011 18:35:02 +0000</description><styleUrl>#hideLabel</styleUrl>
<Point><coordinates>-84.425588,33.640652,0</coordinates></Point></Placemark>
<Placemark><name>dmbakerii</name><description>I've decided that Double Breasted Coats are for D-bags. #UnlessYoureaShipCaptain
Fri, 18 Nov 2011 18:36:27 +0000</description><styleUrl>#hideLabel</styleUrl>
<Point><coordinates>-84.439300,33.637700,0</coordinates></Point></Placemark>
<Placemark><name>RichAssBastard</name><description>@gEtMoney_gut lmao happy bout wat dude ???
Fri, 18 Nov 2011 18:36:15 +0000</description><styleUrl>#hideLabel</styleUrl>
<Point><coordinates>-84.435000,33.642900,0</coordinates></Point></Placemark>
<Placemark><name>sambarnhouse</name><description>.@CNN is hosting yet another #GOP debate, future solidifying their fast track to #TeaNN. #tcot #p2 #scarrrry
Fri, 18 Nov 2011 18:36:00 +0000</description><styleUrl>#hideLabel</styleUrl>
<Point><coordinates>-84.432600,33.641800,0</coordinates></Point></Placemark>
<Placemark><name>lisadphotos</name><description>I'm at Hartsfield-Jackson Atlanta International Airport (ATL) (6000 N Terminal Pkwy., Atlanta) w/ 172 others http://t.co/9CUG75Qm
Fri, 18 Nov 2011 18:36:52 +0000</description><styleUrl>#hideLabel</styleUrl>
<Point><coordinates>-84.426944,33.640278,0</coordinates></Point></Placemark>
<Placemark><name>KurtScobieMusic</name><description>I'm at Hartsfield-Jackson Atlanta International Airport (ATL) (6000 N Terminal Pkwy., Atlanta) w/ 170 others http://t.co/abl4npLb
Fri, 18 Nov 2011 18:36:50 +0000</description><styleUrl>#hideLabel</styleUrl>
<Point><coordinates>-84.426944,33.640278,0</coordinates></Point></Placemark>
<Placemark><name>RichAssBastard</name><description>RT: @Tayta_DAstrolic: S/O 2 my dog @RichAssBastard...... congrats on yo graduation #Wrd
#salute
Fri, 18 Nov 2011 18:36:50 +0000</description><styleUrl>#hideLabel</styleUrl>
<Point><coordinates>-84.435000,33.642900,0</coordinates></Point></Placemark>
<Placemark><name>AbbyTegnelia</name><description>@DTravelsRound @StayAdventurous I have to go back and pick up those darn Costa Rican street dogs of mine haha
Fri, 18 Nov 2011 18:38:20 +0000</description><styleUrl>#hideLabel</styleUrl>
<Point><coordinates>-84.438494,33.643150,0</coordinates></Point></Placemark>
<Placemark><name>DatNiggaBillyHo</name><description>I'm at Hartsfield-Jackson Atlanta International Airport (ATL) (6000 N Terminal Pkwy., Atlanta) w/ 174 others http://t.co/hRVVpBbT
Fri, 18 Nov 2011 18:40:34 +0000</description><styleUrl>#hideLabel</styleUrl>
<Point><coordinates>-84.426944,33.640278,0</coordinates></Point></Placemark>
<Placemark><name>mechuckT</name><description>@courtholton i know, thanks y I picked it haha
Fri, 18 Nov 2011 18:42:00 +0000</description><styleUrl>#hideLabel</styleUrl>
<Point><coordinates>-84.439200,33.639400,0</coordinates></Point></Placemark>
<Placemark><name>bryceacurtis</name><description>There's a lady working at Moe's who should win the friendliest person award. #RandomLadyAward
Fri, 18 Nov 2011 18:46:34 +0000</description><styleUrl>#hideLabel</styleUrl>
<Point><coordinates>-84.432700,33.639000,0</coordinates></Point></Placemark>
<Placemark><name>FreshlyUnshaven</name><description>back in ATL for the next 4 hours (@ Concourse E) http://t.co/B5lYF8SD
Fri, 18 Nov 2011 18:46:11 +0000</description><styleUrl>#hideLabel</styleUrl>
<Point><coordinates>-84.425600,33.640600,0</coordinates></Point></Placemark>
<Placemark><name>MsCMarie</name><description>@ShantMarashlian how tall is that tmobile girl???
Fri, 18 Nov 2011 18:48:32 +0000</description><styleUrl>#hideLabel</styleUrl>
<Point><coordinates>-84.423941,33.644393,0</coordinates></Point></Placemark>
<Placemark><name>thewelljeremy</name><description>Just left my daughter's preschool w/ a bunch of kids. Now at Costco w/ a bunch of adults. Take a guess which group is better at lining up.
Fri, 18 Nov 2011 18:48:54 +0000</description><styleUrl>#hideLabel</styleUrl>
<Point><coordinates>-84.445175,33.640820,0</coordinates></Point></Placemark>
<Placemark><name>dvinegrace11</name><description>Stuck in Atlanta! Flight home delayed .. Something about air traffic?!? #delay
Fri, 18 Nov 2011 18:51:00 +0000</description><styleUrl>#hideLabel</styleUrl>
<Point><coordinates>-84.439200,33.641300,0</coordinates></Point></Placemark>
<Placemark><name>kim_okeefe</name><description>I'm at Hartsfield-Jackson Atlanta International Airport (ATL) (6000 N Terminal Pkwy., Atlanta) w/ 181 others http://t.co/GVu6I897
Fri, 18 Nov 2011 18:51:28 +0000</description><styleUrl>#hideLabel</styleUrl>
<Point><coordinates>-84.426944,33.640278,0</coordinates></Point></Placemark>
<Placemark><name>jeannebopp</name><description>@DeltaAssist my issue isn't time, it was communication. Atlanta is your hub airport and your flight crew couldn't fill us in on policy?
Fri, 18 Nov 2011 18:51:17 +0000</description><styleUrl>#hideLabel</styleUrl>
<Point><coordinates>-84.435800,33.638300,0</coordinates></Point></Placemark>
<Placemark><name>keithtreco</name><description>I'm at Hartsfield-Jackson Atlanta International Airport (ATL) (6000 N Terminal Pkwy., Atlanta) w/ 185 others http://t.co/9Kyib2Xg
Fri, 18 Nov 2011 18:53:19 +0000</description><styleUrl>#hideLabel</styleUrl>
<Point><coordinates>-84.426944,33.640278,0</coordinates></Point></Placemark>
<Placemark><name>thewelljeremy</name><description>Don't you just love the feeling of being next?
Fri, 18 Nov 2011 18:53:08 +0000</description><styleUrl>#hideLabel</styleUrl>
<Point><coordinates>-84.445175,33.640820,0</coordinates></Point></Placemark>
<Placemark><name>FreshlyUnshaven</name><description>it's probably just as wack as McDonald's, but it's damn tasty! (@ Panda Express) http://t.co/ZPikOsZ5
Fri, 18 Nov 2011 18:54:34 +0000</description><styleUrl>#hideLabel</styleUrl>
<Point><coordinates>-84.425800,33.640900,0</coordinates></Point></Placemark>
<Placemark><name>sambarnhouse</name><description>.@Delta #FlyDelta app for the #Android OS now includes baggage tracking. #Awesome!!
Fri, 18 Nov 2011 18:54:33 +0000</description><styleUrl>#hideLabel</styleUrl>
<Point><coordinates>-84.432700,33.642000,0</coordinates></Point></Placemark>
<Placemark><name>ColleenPaige</name><description>So tired. Not in a good mood.
Fri, 18 Nov 2011 18:59:31 +0000</description><styleUrl>#hideLabel</styleUrl>
<Point><coordinates>-84.441900,33.643000,0</coordinates></Point></Placemark>
<Placemark><name>jolietogo</name><description>Reminder: Stop by The Clique for &quot;Wine Down to the Holidays&quot; Take a break from the stress of this time of the... http://t.co/u5LF7lAl
Fri, 18 Nov 2011 19:01:34 +0000</description><styleUrl>#hideLabel</styleUrl>
<Point><coordinates>-84.433109,33.640289,0</coordinates></Point></Placemark>
<Placemark><name>JamesAls0p</name><description>Hey boo kitties! New avi and new background! What do you think?
Fri, 18 Nov 2011 19:05:27 +0000</description><styleUrl>#hideLabel</styleUrl>
<Point><coordinates>-84.415796,33.627697,0</coordinates></Point></Placemark>
<Placemark><name>JamesAls0p</name><description>My sister @KemaButta holds such a special place in my heart.
Fri, 18 Nov 2011 19:06:05 +0000</description><styleUrl>#hideLabel</styleUrl>
<Point><coordinates>-84.415796,33.627697,0</coordinates></Point></Placemark>
<Placemark><name>MariaProvenzano</name><description>RT @MsCMarie: RT @allymisslove: Good morning, I encourage you this friday to lend a word/hand to motivate someone. #PositiveMovement
Fri, 18 Nov 2011 19:07:23 +0000</description><styleUrl>#hideLabel</styleUrl>
<Point><coordinates>-84.423941,33.644393,0</coordinates></Point></Placemark>
<Placemark><name>jerrybeers</name><description>ATL has Moe's. I'm so excited! (@ Hartsfield-Jackson Atlanta International Airport (ATL) w/ 189 others) http://t.co/QcyxOQnj
Fri, 18 Nov 2011 19:11:10 +0000</description><styleUrl>#hideLabel</styleUrl>
<Point><coordinates>-84.436100,33.640700,0</coordinates></Point></Placemark>
<Placemark><name>JamesAls0p</name><description>@TYAMINAJ not as cute as you BIRTHDAY GIRL! HAPPY BIRTHDAY BITCHNASTY!!!! LOVE YOU!
Fri, 18 Nov 2011 19:14:30 +0000</description><styleUrl>#hideLabel</styleUrl>
<Point><coordinates>-84.415796,33.627697,0</coordinates></Point></Placemark>
<Placemark><name>mikemabe</name><description>I'm at Hartsfield-Jackson Atlanta International Airport (ATL) (6000 N Terminal Pkwy., Atlanta) w/ 188 others http://t.co/TJSDavKU
Fri, 18 Nov 2011 19:15:16 +0000</description><styleUrl>#hideLabel</styleUrl>
<Point><coordinates>-84.426944,33.640278,0</coordinates></Point></Placemark>
<Placemark><name>ColleenPaige</name><description>I love when neither of my parents answer my phone call especially when they should be expecting it.
Fri, 18 Nov 2011 19:16:33 +0000</description><styleUrl>#hideLabel</styleUrl>
<Point><coordinates>-84.432400,33.648800,0</coordinates></Point></Placemark>
<Placemark><name>mmasko</name><description>Getting on the plane in ATL. #FPPIX
Fri, 18 Nov 2011 19:17:43 +0000</description><styleUrl>#hideLabel</styleUrl>
<Point><coordinates>-84.437900,33.640400,0</coordinates></Point></Placemark>
<Placemark><name>Amber_M_Johnson</name><description>I'm at Hartsfield-Jackson Atlanta International Airport (ATL) (6000 N Terminal Pkwy., Atlanta) w/ 186 others http://t.co/uBabIbkU
Fri, 18 Nov 2011 19:17:27 +0000</description><styleUrl>#hideLabel</styleUrl>
<Point><coordinates>-84.426944,33.640278,0</coordinates></Point></Placemark>
<Placemark><name>AlissaCz</name><description>Wooohooo!!! @Oregonian: Skier, snowboarder alert: Timberline is open today, Meadows opens tomorrow: http://t.co/JyZwFS3k
Fri, 18 Nov 2011 19:19:25 +0000</description><styleUrl>#hideLabel</styleUrl>
<Point><coordinates>-84.444800,33.641000,0</coordinates></Point></Placemark>
<Placemark><name>abeelam</name><description>The junkiest 2 lockers in the NFL @FRANKWALKER41 and Tony Romo.. Making my property value go down! http://t.co/FAeAPXYn
Fri, 18 Nov 2011 19:19:01 +0000</description><styleUrl>#hideLabel</styleUrl>
<Point><coordinates>-84.432764,33.640601,0</coordinates></Point></Placemark>
<Placemark><name>T_Sully11</name><description>RT @abeelam: The junkiest 2 lockers in the NFL @FRANKWALKER41 and Tony Romo.. Making my property value go down! http://t.co/FAeAPXYn
Fri, 18 Nov 2011 19:21:22 +0000</description><styleUrl>#hideLabel</styleUrl>
<Point><coordinates>-84.432764,33.640601,0</coordinates></Point></Placemark>
<Placemark><name>jdude988</name><description>RT @abeelam: The junkiest 2 lockers in the NFL @FRANKWALKER41 and Tony Romo.. Making my property value go down! http://t.co/FAeAPXYn
Fri, 18 Nov 2011 19:22:22 +0000</description><styleUrl>#hideLabel</styleUrl>
<Point><coordinates>-84.432764,33.640601,0</coordinates></Point></Placemark>
<Placemark><name>DallasFTW</name><description>RT @abeelam: The junkiest 2 lockers in the NFL @FRANKWALKER41 and Tony Romo.. Making my property value go down! http://t.co/FAeAPXYn
Fri, 18 Nov 2011 19:22:07 +0000</description><styleUrl>#hideLabel</styleUrl>
<Point><coordinates>-84.432764,33.640601,0</coordinates></Point></Placemark>
<Placemark><name>jeannebopp</name><description>@DeltaAssist so it's too much to ask that delta flight crews perhaps also make efforts to communicate?
Fri, 18 Nov 2011 19:22:02 +0000</description><styleUrl>#hideLabel</styleUrl>
<Point><coordinates>-84.436300,33.638100,0</coordinates></Point></Placemark>
<Placemark><name>dallascowboys</name><description>RT @abeelam: The junkiest 2 lockers in the NFL @FRANKWALKER41 and Tony Romo.. Making my property value go down! http://t.co/FAeAPXYn
Fri, 18 Nov 2011 19:21:45 +0000</description><styleUrl>#hideLabel</styleUrl>
<Point><coordinates>-84.432764,33.640601,0</coordinates></Point></Placemark>
<Placemark><name>sototallyunhip</name><description>I am a fan of this airport. Doesn't hurt that I met some of my favorite people here, either. http://t.co/9rBNSwTr
Fri, 18 Nov 2011 19:21:34 +0000</description><styleUrl>#hideLabel</styleUrl>
<Point><coordinates>-84.436100,33.640700,0</coordinates></Point></Placemark>
<Placemark><name>missjesstexas</name><description>RT @abeelam: The junkiest 2 lockers in the NFL @FRANKWALKER41 and Tony Romo.. Making my property value go down! http://t.co/FAeAPXYn
Fri, 18 Nov 2011 19:23:06 +0000</description><styleUrl>#hideLabel</styleUrl>
<Point><coordinates>-84.432764,33.640601,0</coordinates></Point></Placemark>
<Placemark><name>csodalatosselme</name><description>RT @abeelam: The junkiest 2 lockers in the NFL @FRANKWALKER41 and Tony Romo.. Making my property value go down! http://t.co/FAeAPXYn
Fri, 18 Nov 2011 19:22:38 +0000</description><styleUrl>#hideLabel</styleUrl>
<Point><coordinates>-84.432764,33.640601,0</coordinates></Point></Placemark>
<Placemark><name>Stunna_Vell</name><description>RT @abeelam: The junkiest 2 lockers in the NFL @FRANKWALKER41 and Tony Romo.. Making my property value go down! http://t.co/FAeAPXYn
Fri, 18 Nov 2011 19:22:33 +0000</description><styleUrl>#hideLabel</styleUrl>
<Point><coordinates>-84.432764,33.640601,0</coordinates></Point></Placemark>
<Placemark><name>TEXASDOGSHOP</name><description>RT @abeelam: The junkiest 2 lockers in the NFL @FRANKWALKER41 and Tony Romo.. Making my property value go down! http://t.co/FAeAPXYn
Fri, 18 Nov 2011 19:22:25 +0000</description><styleUrl>#hideLabel</styleUrl>
<Point><coordinates>-84.432764,33.640601,0</coordinates></Point></Placemark>
<Placemark><name>DFWvolleyball</name><description>RT @abeelam: The junkiest 2 lockers in the NFL @FRANKWALKER41 and Tony Romo.. Making my property value go down! http://t.co/FAeAPXYn
Fri, 18 Nov 2011 19:23:59 +0000</description><styleUrl>#hideLabel</styleUrl>
<Point><coordinates>-84.432764,33.640601,0</coordinates></Point></Placemark>
<Placemark><name>MHutchinsBIZ</name><description>In Atlanta this weekend looking at a listing. Nice to add some more biz to the pipeline as the year closes out
Fri, 18 Nov 2011 19:23:57 +0000</description><styleUrl>#hideLabel</styleUrl>
<Point><coordinates>-84.413603,33.627356,0</coordinates></Point></Placemark>
<Placemark><name>micman907</name><description>RT @abeelam: The junkiest 2 lockers in the NFL @FRANKWALKER41 and Tony Romo.. Making my property value go down! http://t.co/FAeAPXYn
Fri, 18 Nov 2011 19:23:29 +0000</description><styleUrl>#hideLabel</styleUrl>
<Point><coordinates>-84.432764,33.640601,0</coordinates></Point></Placemark>
<Placemark><name>iamcheeto</name><description>RT @abeelam: The junkiest 2 lockers in the NFL @FRANKWALKER41 and Tony Romo.. Making my property value go down! http://t.co/FAeAPXYn
Fri, 18 Nov 2011 19:23:26 +0000</description><styleUrl>#hideLabel</styleUrl>
<Point><coordinates>-84.432764,33.640601,0</coordinates></Point></Placemark>
<Placemark><name>hunnytrees</name><description>RT @abeelam: The junkiest 2 lockers in the NFL @FRANKWALKER41 and Tony Romo.. Making my property value go down! http://t.co/FAeAPXYn
Fri, 18 Nov 2011 19:24:54 +0000</description><styleUrl>#hideLabel</styleUrl>
<Point><coordinates>-84.432764,33.640601,0</coordinates></Point></Placemark>
<Placemark><name>BrothaTech</name><description>Going back home for just a couple of weeks. (@ Hartsfield-Jackson Atlanta International Airport (ATL) w/ 195 others) http://t.co/3hXEmnAc
Fri, 18 Nov 2011 19:24:47 +0000</description><styleUrl>#hideLabel</styleUrl>
<Point><coordinates>-84.436100,33.640700,0</coordinates></Point></Placemark>
<Placemark><name>FatMason</name><description>RT @abeelam: The junkiest 2 lockers in the NFL @FRANKWALKER41 and Tony Romo.. Making my property value go down! http://t.co/FAeAPXYn
Fri, 18 Nov 2011 19:24:40 +0000</description><styleUrl>#hideLabel</styleUrl>
<Point><coordinates>-84.432764,33.640601,0</coordinates></Point></Placemark>
<Placemark><name>sharemywords</name><description>RT @abeelam: The junkiest 2 lockers in the NFL @FRANKWALKER41 and Tony Romo.. Making my property value go down! http://t.co/FAeAPXYn
Fri, 18 Nov 2011 19:24:34 +0000</description><styleUrl>#hideLabel</styleUrl>
<Point><coordinates>-84.432764,33.640601,0</coordinates></Point></Placemark>
<Placemark><name>kevingarnettjr</name><description>RT @abeelam: The junkiest 2 lockers in the NFL @FRANKWALKER41 and Tony Romo.. Making my property value go down! http://t.co/FAeAPXYn
Fri, 18 Nov 2011 19:24:09 +0000</description><styleUrl>#hideLabel</styleUrl>
<Point><coordinates>-84.432764,33.640601,0</coordinates></Point></Placemark>
<Placemark><name>SportsCenter</name><description>RT @abeelam: The junkiest 2 lockers in the NFL @FRANKWALKER41 and Tony Romo.. Making my property value go down! http://t.co/FAeAPXYn
Fri, 18 Nov 2011 19:25:23 +0000</description><styleUrl>#hideLabel</styleUrl>
<Point><coordinates>-84.432764,33.640601,0</coordinates></Point></Placemark>
<Placemark><name>joey_camp</name><description>I'm at Hartsfield-Jackson Atlanta International Airport (ATL) (6000 N Terminal Pkwy., Atlanta) w/ 193 others http://t.co/mMCCyUGx
Fri, 18 Nov 2011 19:25:14 +0000</description><styleUrl>#hideLabel</styleUrl>
<Point><coordinates>-84.426944,33.640278,0</coordinates></Point></Placemark>
<Placemark><name>LyricGoHard</name><description>RT @abeelam: The junkiest 2 lockers in the NFL @FRANKWALKER41 and Tony Romo.. Making my property value go down! http://t.co/FAeAPXYn
Fri, 18 Nov 2011 19:25:09 +0000</description><styleUrl>#hideLabel</styleUrl>
<Point><coordinates>-84.432764,33.640601,0</coordinates></Point></Placemark>
<Placemark><name>KErvin88</name><description>RT @abeelam: The junkiest 2 lockers in the NFL @FRANKWALKER41 and Tony Romo.. Making my property value go down! http://t.co/FAeAPXYn
Fri, 18 Nov 2011 19:25:09 +0000</description><styleUrl>#hideLabel</styleUrl>
<Point><coordinates>-84.432764,33.640601,0</coordinates></Point></Placemark>
<Placemark><name>WFielderII</name><description>RT @abeelam: The junkiest 2 lockers in the NFL @FRANKWALKER41 and Tony Romo.. Making my property value go down! http://t.co/FAeAPXYn
Fri, 18 Nov 2011 19:26:37 +0000</description><styleUrl>#hideLabel</styleUrl>
<Point><coordinates>-84.432764,33.640601,0</coordinates></Point></Placemark>
<Placemark><name>CZ_1992</name><description>RT @abeelam: The junkiest 2 lockers in the NFL @FRANKWALKER41 and Tony Romo.. Making my property value go down! http://t.co/FAeAPXYn
Fri, 18 Nov 2011 19:26:17 +0000</description><styleUrl>#hideLabel</styleUrl>
<Point><coordinates>-84.432764,33.640601,0</coordinates></Point></Placemark>
<Placemark><name>tweets_by_ian</name><description>RT @abeelam: The junkiest 2 lockers in the NFL @FRANKWALKER41 and Tony Romo.. Making my property value go down! http://t.co/FAeAPXYn
Fri, 18 Nov 2011 19:26:14 +0000</description><styleUrl>#hideLabel</styleUrl>
<Point><coordinates>-84.432764,33.640601,0</coordinates></Point></Placemark>
<Placemark><name>June_Swagg</name><description>RT @abeelam: The junkiest 2 lockers in the NFL @FRANKWALKER41 and Tony Romo.. Making my property value go down! http://t.co/FAeAPXYn
Fri, 18 Nov 2011 19:26:09 +0000</description><styleUrl>#hideLabel</styleUrl>
<Point><coordinates>-84.432764,33.640601,0</coordinates></Point></Placemark>
<Placemark><name>KyleJamesBS</name><description>RT @abeelam: The junkiest 2 lockers in the NFL @FRANKWALKER41 and Tony Romo.. Making my property value go down! http://t.co/FAeAPXYn
Fri, 18 Nov 2011 19:26:04 +0000</description><styleUrl>#hideLabel</styleUrl>
<Point><coordinates>-84.432764,33.640601,0</coordinates></Point></Placemark>
<Placemark><name>KillThaVirqinss</name><description>RT @abeelam: The junkiest 2 lockers in the NFL @FRANKWALKER41 and Tony Romo.. Making my property value go down! http://t.co/FAeAPXYn
Fri, 18 Nov 2011 19:25:56 +0000</description><styleUrl>#hideLabel</styleUrl>
<Point><coordinates>-84.432764,33.640601,0</coordinates></Point></Placemark>
<Placemark><name>CaseyB100</name><description>RT @abeelam: The junkiest 2 lockers in the NFL @FRANKWALKER41 and Tony Romo.. Making my property value go down! http://t.co/FAeAPXYn
Fri, 18 Nov 2011 19:25:56 +0000</description><styleUrl>#hideLabel</styleUrl>
<Point><coordinates>-84.432764,33.640601,0</coordinates></Point></Placemark>
<Placemark><name>ImQuiteFrank</name><description>RT @abeelam: The junkiest 2 lockers in the NFL @FRANKWALKER41 and Tony Romo.. Making my property value go down! http://t.co/FAeAPXYn
Fri, 18 Nov 2011 19:27:32 +0000</description><styleUrl>#hideLabel</styleUrl>
<Point><coordinates>-84.432764,33.640601,0</coordinates></Point></Placemark>
<Placemark><name>ktday</name><description>I'm at Hartsfield-Jackson Atlanta International Airport (ATL) (6000 N Terminal Pkwy., Atlanta) w/ 197 others http://t.co/DxARZDRt
Fri, 18 Nov 2011 19:27:23 +0000</description><styleUrl>#hideLabel</styleUrl>
<Point><coordinates>-84.426944,33.640278,0</coordinates></Point></Placemark>
<Placemark><name>PrincessMoni_</name><description>RT @abeelam: The junkiest 2 lockers in the NFL @FRANKWALKER41 and Tony Romo.. Making my property value go down! http://t.co/FAeAPXYn
Fri, 18 Nov 2011 19:27:20 +0000</description><styleUrl>#hideLabel</styleUrl>
<Point><coordinates>-84.432764,33.640601,0</coordinates></Point></Placemark>
<Placemark><name>D0c_j_6</name><description>RT @abeelam: The junkiest 2 lockers in the NFL @FRANKWALKER41 and Tony Romo.. Making my property value go down! http://t.co/FAeAPXYn
Fri, 18 Nov 2011 19:27:07 +0000</description><styleUrl>#hideLabel</styleUrl>
<Point><coordinates>-84.432764,33.640601,0</coordinates></Point></Placemark>
<Placemark><name>Team_GoHam59</name><description>RT @abeelam: The junkiest 2 lockers in the NFL @FRANKWALKER41 and Tony Romo.. Making my property value go down! http://t.co/FAeAPXYn
Fri, 18 Nov 2011 19:26:59 +0000</description><styleUrl>#hideLabel</styleUrl>
<Point><coordinates>-84.432764,33.640601,0</coordinates></Point></Placemark>
<Placemark><name>red_sieben</name><description>RT @abeelam: The junkiest 2 lockers in the NFL @FRANKWALKER41 and Tony Romo.. Making my property value go down! http://t.co/FAeAPXYn
Fri, 18 Nov 2011 19:26:49 +0000</description><styleUrl>#hideLabel</styleUrl>
<Point><coordinates>-84.432764,33.640601,0</coordinates></Point></Placemark>
<Placemark><name>ChristinS83</name><description>RT @abeelam: The junkiest 2 lockers in the NFL @FRANKWALKER41 and Tony Romo.. Making my property value go down! http://t.co/FAeAPXYn
Fri, 18 Nov 2011 19:28:25 +0000</description><styleUrl>#hideLabel</styleUrl>
<Point><coordinates>-84.432764,33.640601,0</coordinates></Point></Placemark>
<Placemark><name>Lowkey_Bre</name><description>RT @abeelam: The junkiest 2 lockers in the NFL @FRANKWALKER41 and Tony Romo.. Making my property value go down! http://t.co/FAeAPXYn
Fri, 18 Nov 2011 19:28:14 +0000</description><styleUrl>#hideLabel</styleUrl>
<Point><coordinates>-84.432764,33.640601,0</coordinates></Point></Placemark>
<Placemark><name>colinr812</name><description>RT @abeelam: The junkiest 2 lockers in the NFL @FRANKWALKER41 and Tony Romo.. Making my property value go down! http://t.co/FAeAPXYn
Fri, 18 Nov 2011 19:28:09 +0000</description><styleUrl>#hideLabel</styleUrl>
<Point><coordinates>-84.432764,33.640601,0</coordinates></Point></Placemark>
<Placemark><name>mmasko</name><description>On the plane. Introductions made. See you in MSP! #FPPIX
Fri, 18 Nov 2011 19:28:07 +0000</description><styleUrl>#hideLabel</styleUrl>
<Point><coordinates>-84.436400,33.641100,0</coordinates></Point></Placemark>
<Placemark><name>JL_LaDouceur</name><description>RT @abeelam: The junkiest 2 lockers in the NFL @FRANKWALKER41 and Tony Romo.. Making my property value go down! http://t.co/FAeAPXYn
Fri, 18 Nov 2011 19:27:57 +0000</description><styleUrl>#hideLabel</styleUrl>
<Point><coordinates>-84.432764,33.640601,0</coordinates></Point></Placemark>
<Placemark><name>ralphdarula</name><description>Black Friday arrived a week early this year. @Stevemo09 just landed
Fri, 18 Nov 2011 19:27:56 +0000</description><styleUrl>#hideLabel</styleUrl>
<Point><coordinates>-84.437996,33.634472,0</coordinates></Point></Placemark>
<Placemark><name>DaddySweetJones</name><description>RT @abeelam: The junkiest 2 lockers in the NFL @FRANKWALKER41 and Tony Romo.. Making my property value go down! http://t.co/FAeAPXYn
Fri, 18 Nov 2011 19:27:35 +0000</description><styleUrl>#hideLabel</styleUrl>
<Point><coordinates>-84.432764,33.640601,0</coordinates></Point></Placemark>
<Placemark><name>MODELNY</name><description>RT @abeelam: The junkiest 2 lockers in the NFL @FRANKWALKER41 and Tony Romo.. Making my property value go down! http://t.co/FAeAPXYn
Fri, 18 Nov 2011 19:29:05 +0000</description><styleUrl>#hideLabel</styleUrl>
<Point><coordinates>-84.432764,33.640601,0</coordinates></Point></Placemark>
<Placemark><name>LandonMc</name><description>RT @abeelam: The junkiest 2 lockers in the NFL @FRANKWALKER41 and Tony Romo.. Making my property value go down! http://t.co/FAeAPXYn
Fri, 18 Nov 2011 19:29:00 +0000</description><styleUrl>#hideLabel</styleUrl>
<Point><coordinates>-84.432764,33.640601,0</coordinates></Point></Placemark>
<Placemark><name>c20nHD</name><description>RT @abeelam: The junkiest 2 lockers in the NFL @FRANKWALKER41 and Tony Romo.. Making my property value go down! http://t.co/FAeAPXYn
Fri, 18 Nov 2011 19:28:49 +0000</description><styleUrl>#hideLabel</styleUrl>
<Point><coordinates>-84.432764,33.640601,0</coordinates></Point></Placemark>
<Placemark><name>EmABeck</name><description>RT @abeelam: The junkiest 2 lockers in the NFL @FRANKWALKER41 and Tony Romo.. Making my property value go down! http://t.co/FAeAPXYn
Fri, 18 Nov 2011 19:29:44 +0000</description><styleUrl>#hideLabel</styleUrl>
<Point><coordinates>-84.432764,33.640601,0</coordinates></Point></Placemark>
<Placemark><name>PaulDFlint</name><description>RT @abeelam: The junkiest 2 lockers in the NFL @FRANKWALKER41 and Tony Romo.. Making my property value go down! http://t.co/FAeAPXYn
Fri, 18 Nov 2011 19:29:23 +0000</description><styleUrl>#hideLabel</styleUrl>
<Point><coordinates>-84.432764,33.640601,0</coordinates></Point></Placemark>
<Placemark><name>StephArmenda13</name><description>RT @abeelam: The junkiest 2 lockers in the NFL @FRANKWALKER41 and Tony Romo.. Making my property value go down! http://t.co/FAeAPXYn
Fri, 18 Nov 2011 19:29:21 +0000</description><styleUrl>#hideLabel</styleUrl>
<Point><coordinates>-84.432764,33.640601,0</coordinates></Point></Placemark>
<Placemark><name>Fernandro420</name><description>RT @abeelam: The junkiest 2 lockers in the NFL @FRANKWALKER41 and Tony Romo.. Making my property value go down! http://t.co/FAeAPXYn
Fri, 18 Nov 2011 19:29:20 +0000</description><styleUrl>#hideLabel</styleUrl>
<Point><coordinates>-84.432764,33.640601,0</coordinates></Point></Placemark>
<Placemark><name>LizBrowder</name><description>RT @abeelam: The junkiest 2 lockers in the NFL @FRANKWALKER41 and Tony Romo.. Making my property value go down! http://t.co/FAeAPXYn
Fri, 18 Nov 2011 19:30:44 +0000</description><styleUrl>#hideLabel</styleUrl>
<Point><coordinates>-84.432764,33.640601,0</coordinates></Point></Placemark>
<Placemark><name>Let_Me_B_Frank</name><description>RT @abeelam: The junkiest 2 lockers in the NFL @FRANKWALKER41 and Tony Romo.. Making my property value go down! http://t.co/FAeAPXYn
Fri, 18 Nov 2011 19:30:31 +0000</description><styleUrl>#hideLabel</styleUrl>
<Point><coordinates>-84.432764,33.640601,0</coordinates></Point></Placemark>
<Placemark><name>lakeworthmonstr</name><description>RT @abeelam: The junkiest 2 lockers in the NFL @FRANKWALKER41 and Tony Romo.. Making my property value go down! http://t.co/FAeAPXYn
Fri, 18 Nov 2011 19:30:13 +0000</description><styleUrl>#hideLabel</styleUrl>
<Point><coordinates>-84.432764,33.640601,0</coordinates></Point></Placemark>
<Placemark><name>TENECHERRY</name><description>RT @abeelam: The junkiest 2 lockers in the NFL @FRANKWALKER41 and Tony Romo.. Making my property value go down! http://t.co/FAeAPXYn
Fri, 18 Nov 2011 19:31:53 +0000</description><styleUrl>#hideLabel</styleUrl>
<Point><coordinates>-84.432764,33.640601,0</coordinates></Point></Placemark>
<Placemark><name>TheRealMike1ee</name><description>RT @abeelam: The junkiest 2 lockers in the NFL @FRANKWALKER41 and Tony Romo.. Making my property value go down! http://t.co/FAeAPXYn
Fri, 18 Nov 2011 19:31:48 +0000</description><styleUrl>#hideLabel</styleUrl>
<Point><coordinates>-84.432764,33.640601,0</coordinates></Point></Placemark>
<Placemark><name>ChrisMorgushers</name><description>RT @abeelam: The junkiest 2 lockers in the NFL @FRANKWALKER41 and Tony Romo.. Making my property value go down! http://t.co/FAeAPXYn
Fri, 18 Nov 2011 19:32:40 +0000</description><styleUrl>#hideLabel</styleUrl>
<Point><coordinates>-84.432764,33.640601,0</coordinates></Point></Placemark>
<Placemark><name>RELLROAD</name><description>RT @abeelam: The junkiest 2 lockers in the NFL @FRANKWALKER41 and Tony Romo.. Making my property value go down! http://t.co/FAeAPXYn
Fri, 18 Nov 2011 19:32:15 +0000</description><styleUrl>#hideLabel</styleUrl>
<Point><coordinates>-84.432764,33.640601,0</coordinates></Point></Placemark>
<Placemark><name>cookvisuals</name><description>RT @abeelam: The junkiest 2 lockers in the NFL @FRANKWALKER41 and Tony Romo.. Making my property value go down! http://t.co/FAeAPXYn
Fri, 18 Nov 2011 19:35:08 +0000</description><styleUrl>#hideLabel</styleUrl>
<Point><coordinates>-84.432764,33.640601,0</coordinates></Point></Placemark>
<Placemark><name>SportyTechGirl</name><description>RT @abeelam: The junkiest 2 lockers in the NFL @FRANKWALKER41 and Tony Romo.. Making my property value go down! http://t.co/FAeAPXYn
Fri, 18 Nov 2011 19:34:29 +0000</description><styleUrl>#hideLabel</styleUrl>
<Point><coordinates>-84.432764,33.640601,0</coordinates></Point></Placemark>
<Placemark><name>merRONamo</name><description>RT @abeelam: The junkiest 2 lockers in the NFL @FRANKWALKER41 and Tony Romo.. Making my property value go down! http://t.co/FAeAPXYn
Fri, 18 Nov 2011 19:35:30 +0000</description><styleUrl>#hideLabel</styleUrl>
<Point><coordinates>-84.432764,33.640601,0</coordinates></Point></Placemark>
<Placemark><name>Charyssae</name><description>What's gooood Atlanta :) home of the sexiest boys alive !
Fri, 18 Nov 2011 19:36:44 +0000</description><styleUrl>#hideLabel</styleUrl>
<Point><coordinates>-84.417000,33.629500,0</coordinates></Point></Placemark>
<Placemark><name>Top_Cookie</name><description>This is too cute! The joiners @_CandiceMichell  http://t.co/WofsUdAX
Fri, 18 Nov 2011 19:37:54 +0000</description><styleUrl>#hideLabel</styleUrl>
<Point><coordinates>-84.429310,33.641029,0</coordinates></Point></Placemark>
<Placemark><name>BrothaTech</name><description>Delta's baggage check-in process is mad weird. Can't wait for Southwest to officially hit ATL
Fri, 18 Nov 2011 19:37:22 +0000</description><styleUrl>#hideLabel</styleUrl>
<Point><coordinates>-84.444700,33.640200,0</coordinates></Point></Placemark>
<Placemark><name>NicoleInControl</name><description>RT @abeelam: The junkiest 2 lockers in the NFL @FRANKWALKER41 and Tony Romo.. Making my property value go down! http://t.co/FAeAPXYn
Fri, 18 Nov 2011 19:37:13 +0000</description><styleUrl>#hideLabel</styleUrl>
<Point><coordinates>-84.432764,33.640601,0</coordinates></Point></Placemark>
<Placemark><name>RickyB0813</name><description>RT @abeelam: The junkiest 2 lockers in the NFL @FRANKWALKER41 and Tony Romo.. Making my property value go down! http://t.co/FAeAPXYn
Fri, 18 Nov 2011 19:38:43 +0000</description><styleUrl>#hideLabel</styleUrl>
<Point><coordinates>-84.432764,33.640601,0</coordinates></Point></Placemark>
<Placemark><name>RealTonyboyyy</name><description>RT @abeelam: The junkiest 2 lockers in the NFL @FRANKWALKER41 and Tony Romo.. Making my property value go down! http://t.co/FAeAPXYn
Fri, 18 Nov 2011 19:38:25 +0000</description><styleUrl>#hideLabel</styleUrl>
<Point><coordinates>-84.432764,33.640601,0</coordinates></Point></Placemark>
<Placemark><name>Charyssae</name><description>@Jus_Chris I sorry :(
Fri, 18 Nov 2011 19:38:19 +0000</description><styleUrl>#hideLabel</styleUrl>
<Point><coordinates>-84.447300,33.641100,0</coordinates></Point></Placemark>
<Placemark><name>usaussie</name><description>attempting to learn how to do some bash scripting with arguments. Yeah...on a friday afternoon. S. M. R. T. SMART!
Fri, 18 Nov 2011 19:39:38 +0000</description><styleUrl>#hideLabel</styleUrl>
<Point><coordinates>-84.437940,33.640451,0</coordinates></Point></Placemark>
<Placemark><name>Riffin82</name><description>RT @abeelam: The junkiest 2 lockers in the NFL @FRANKWALKER41 and Tony Romo.. Making my property value go down! http://t.co/FAeAPXYn
Fri, 18 Nov 2011 19:39:15 +0000</description><styleUrl>#hideLabel</styleUrl>
<Point><coordinates>-84.432764,33.640601,0</coordinates></Point></Placemark>
<Placemark><name>ashley_snapped</name><description>RT @abeelam: The junkiest 2 lockers in the NFL @FRANKWALKER41 and Tony Romo.. Making my property value go down! http://t.co/FAeAPXYn
Fri, 18 Nov 2011 19:39:02 +0000</description><styleUrl>#hideLabel</styleUrl>
<Point><coordinates>-84.432764,33.640601,0</coordinates></Point></Placemark>
<Placemark><name>ash10mcbaa</name><description>RT @abeelam: The junkiest 2 lockers in the NFL @FRANKWALKER41 and Tony Romo.. Making my property value go down! http://t.co/FAeAPXYn
Fri, 18 Nov 2011 19:39:02 +0000</description><styleUrl>#hideLabel</styleUrl>
<Point><coordinates>-84.432764,33.640601,0</coordinates></Point></Placemark>
<Placemark><name>RoadWarrior99</name><description>RT @abeelam: The junkiest 2 lockers in the NFL @FRANKWALKER41 and Tony Romo.. Making my property value go down! http://t.co/FAeAPXYn
Fri, 18 Nov 2011 19:40:13 +0000</description><styleUrl>#hideLabel</styleUrl>
<Point><coordinates>-84.432764,33.640601,0</coordinates></Point></Placemark>
<Placemark><name>Erik_Kynard</name><description>-_-.....
Fri, 18 Nov 2011 19:40:39 +0000</description><styleUrl>#hideLabel</styleUrl>
<Point><coordinates>-84.439600,33.650900,0</coordinates></Point></Placemark>
<Placemark><name>JackHammer345</name><description>RT @abeelam: The junkiest 2 lockers in the NFL @FRANKWALKER41 and Tony Romo.. Making my property value go down! http://t.co/FAeAPXYn
Fri, 18 Nov 2011 19:43:03 +0000</description><styleUrl>#hideLabel</styleUrl>
<Point><coordinates>-84.432764,33.640601,0</coordinates></Point></Placemark>
<Placemark><name>ErikClarkRHU</name><description>RT @abeelam: The junkiest 2 lockers in the NFL @FRANKWALKER41 and Tony Romo.. Making my property value go down! http://t.co/FAeAPXYn
Fri, 18 Nov 2011 19:42:54 +0000</description><styleUrl>#hideLabel</styleUrl>
<Point><coordinates>-84.432764,33.640601,0</coordinates></Point></Placemark>
<Placemark><name>STPATLANTA</name><description>RT @abeelam: The junkiest 2 lockers in the NFL @FRANKWALKER41 and Tony Romo.. Making my property value go down! http://t.co/FAeAPXYn
Fri, 18 Nov 2011 19:43:51 +0000</description><styleUrl>#hideLabel</styleUrl>
<Point><coordinates>-84.432764,33.640601,0</coordinates></Point></Placemark>
<Placemark><name>daymonz21</name><description>RT @abeelam: The junkiest 2 lockers in the NFL @FRANKWALKER41 and Tony Romo.. Making my property value go down! http://t.co/FAeAPXYn
Fri, 18 Nov 2011 19:45:00 +0000</description><styleUrl>#hideLabel</styleUrl>
<Point><coordinates>-84.432764,33.640601,0</coordinates></Point></Placemark>
<Placemark><name>SmAshy_B</name><description>RT @abeelam: The junkiest 2 lockers in the NFL @FRANKWALKER41 and Tony Romo.. Making my property value go down! http://t.co/FAeAPXYn
Fri, 18 Nov 2011 19:44:19 +0000</description><styleUrl>#hideLabel</styleUrl>
<Point><coordinates>-84.432764,33.640601,0</coordinates></Point></Placemark>
<Placemark><name>Nathan_W_S</name><description>RT @abeelam: The junkiest 2 lockers in the NFL @FRANKWALKER41 and Tony Romo.. Making my property value go down! http://t.co/FAeAPXYn
Fri, 18 Nov 2011 19:45:38 +0000</description><styleUrl>#hideLabel</styleUrl>
<Point><coordinates>-84.432764,33.640601,0</coordinates></Point></Placemark>
<Placemark><name>Hashim305</name><description>#MileHighTweet (@ Gogo Mile High Club) http://t.co/yrGW1njs
Fri, 18 Nov 2011 19:46:27 +0000</description><styleUrl>#hideLabel</styleUrl>
<Point><coordinates>-84.437000,33.641000,0</coordinates></Point></Placemark>
<Placemark><name>toddarcher</name><description>RT @abeelam: The junkiest 2 lockers in the NFL @FRANKWALKER41 and Tony Romo.. Making my property value go down! http://t.co/FAeAPXYn
Fri, 18 Nov 2011 19:47:16 +0000</description><styleUrl>#hideLabel</styleUrl>
<Point><coordinates>-84.432764,33.640601,0</coordinates></Point></Placemark>
<Placemark><name>vannshane</name><description>Floods, Drought, Disasters Make Water Risky for Business http://t.co/IbWOyQm6
Fri, 18 Nov 2011 19:48:01 +0000</description><styleUrl>#hideLabel</styleUrl>
<Point><coordinates>-84.425766,33.642169,0</coordinates></Point></Placemark>
<Placemark><name>YupSize15</name><description>RT @abeelam: The junkiest 2 lockers in the NFL @FRANKWALKER41 and Tony Romo.. Making my property value go down! http://t.co/FAeAPXYn
Fri, 18 Nov 2011 19:49:25 +0000</description><styleUrl>#hideLabel</styleUrl>
<Point><coordinates>-84.432764,33.640601,0</coordinates></Point></Placemark>
<Placemark><name>c_k_reyes</name><description>RT @abeelam: The junkiest 2 lockers in the NFL @FRANKWALKER41 and Tony Romo.. Making my property value go down! http://t.co/FAeAPXYn
Fri, 18 Nov 2011 19:49:11 +0000</description><styleUrl>#hideLabel</styleUrl>
<Point><coordinates>-84.432764,33.640601,0</coordinates></Point></Placemark>
<Placemark><name>LightsOutHuffer</name><description>RT @abeelam: The junkiest 2 lockers in the NFL @FRANKWALKER41 and Tony Romo.. Making my property value go down! http://t.co/FAeAPXYn
Fri, 18 Nov 2011 19:49:04 +0000</description><styleUrl>#hideLabel</styleUrl>
<Point><coordinates>-84.432764,33.640601,0</coordinates></Point></Placemark>
<Placemark><name>jeffreybmullins</name><description>It was great spending time with my team in Austin but I'm pooped and want to get home. Lazy weekend please? http://t.co/4B9hjJOC
Fri, 18 Nov 2011 19:48:40 +0000</description><styleUrl>#hideLabel</styleUrl>
<Point><coordinates>-84.436100,33.640700,0</coordinates></Point></Placemark>
<Placemark><name>ilivetotravel</name><description>Loving the trash bins at the #Atlanta airport - the little doors sense u r approaching so u dont have to push them open! #thelittlethings
Fri, 18 Nov 2011 19:50:05 +0000</description><styleUrl>#hideLabel</styleUrl>
<Point><coordinates>-84.431917,33.637119,0</coordinates></Point></Placemark>
<Placemark><name>Mrfelipegomez</name><description>#ThingsYouShouldStopDoingInYour30scashing checks at the local We Cash Checks
Fri, 18 Nov 2011 19:49:58 +0000</description><styleUrl>#hideLabel</styleUrl>
<Point><coordinates>-84.422500,33.656200,0</coordinates></Point></Placemark>
<Placemark><name>BugattiBmac</name><description>RT @abeelam: The junkiest 2 lockers in the NFL @FRANKWALKER41 and Tony Romo.. Making my property value go down! http://t.co/FAeAPXYn
Fri, 18 Nov 2011 19:49:43 +0000</description><styleUrl>#hideLabel</styleUrl>
<Point><coordinates>-84.432764,33.640601,0</coordinates></Point></Placemark>
<Placemark><name>Mrfelipegomez</name><description>#ThingsYouShouldStopDoingInYour30swear gold teeth.
Fri, 18 Nov 2011 19:51:01 +0000</description><styleUrl>#hideLabel</styleUrl>
<Point><coordinates>-84.422400,33.656200,0</coordinates></Point></Placemark>
<Placemark><name>giaco1025</name><description>RT @abeelam: The junkiest 2 lockers in the NFL @FRANKWALKER41 and Tony Romo.. Making my property value go down! http://t.co/FAeAPXYn
Fri, 18 Nov 2011 19:50:54 +0000</description><styleUrl>#hideLabel</styleUrl>
<Point><coordinates>-84.432764,33.640601,0</coordinates></Point></Placemark>
<Placemark><name>ilivetotravel</name><description>Ive got no idea a dialect of WHAT language that girl who just exited the train was talking... #justsayin #ATL
Fri, 18 Nov 2011 19:51:24 +0000</description><styleUrl>#hideLabel</styleUrl>
<Point><coordinates>-84.431917,33.637119,0</coordinates></Point></Placemark>
<Placemark><name>hrhays</name><description>I'm at Hartsfield-Jackson Atlanta International Airport (ATL) (6000 N Terminal Pkwy., Atlanta) w/ 203 others http://t.co/LrfgT4MP
Fri, 18 Nov 2011 19:52:34 +0000</description><styleUrl>#hideLabel</styleUrl>
<Point><coordinates>-84.426944,33.640278,0</coordinates></Point></Placemark>
<Placemark><name>FFBjunkE</name><description>RT @abeelam: The junkiest 2 lockers in the NFL @FRANKWALKER41 and Tony Romo.. Making my property value go down! http://t.co/FAeAPXYn
Fri, 18 Nov 2011 19:52:30 +0000</description><styleUrl>#hideLabel</styleUrl>
<Point><coordinates>-84.432764,33.640601,0</coordinates></Point></Placemark>
<Placemark><name>lindsay_unruh</name><description>@wyattredding @gale_face I have... Guess you all know who the favorite is.
Fri, 18 Nov 2011 19:52:20 +0000</description><styleUrl>#hideLabel</styleUrl>
<Point><coordinates>-84.424700,33.639300,0</coordinates></Point></Placemark>
<Placemark><name>DaddysMijita</name><description>RT @abeelam: The junkiest 2 lockers in the NFL @FRANKWALKER41 and Tony Romo.. Making my property value go down! http://t.co/FAeAPXYn
Fri, 18 Nov 2011 19:53:47 +0000</description><styleUrl>#hideLabel</styleUrl>
<Point><coordinates>-84.432764,33.640601,0</coordinates></Point></Placemark>
<Placemark><name>TheDeanieWeenie</name><description>I'm just sittin out here watching airplanes. #StartBreak
Fri, 18 Nov 2011 19:53:18 +0000</description><styleUrl>#hideLabel</styleUrl>
<Point><coordinates>-84.443900,33.642200,0</coordinates></Point></Placemark>
<Placemark><name>SteveAdrian</name><description>RT @abeelam: The junkiest 2 lockers in the NFL @FRANKWALKER41 and Tony Romo.. Making my property value go down! http://t.co/FAeAPXYn
Fri, 18 Nov 2011 19:53:11 +0000</description><styleUrl>#hideLabel</styleUrl>
<Point><coordinates>-84.432764,33.640601,0</coordinates></Point></Placemark>
<Placemark><name>RonaldGAdams</name><description>I'm at Hartsfield-Jackson Atlanta International Airport (ATL) (6000 N Terminal Pkwy., Atlanta) w/ 201 others http://t.co/XsPHvhdF
Fri, 18 Nov 2011 19:55:28 +0000</description><styleUrl>#hideLabel</styleUrl>
<Point><coordinates>-84.426944,33.640278,0</coordinates></Point></Placemark>
<Placemark><name>terrimcculloch</name><description>I'm at Hartsfield-Jackson Atlanta International Airport (ATL) (6000 N Terminal Pkwy., Atlanta) w/ 201 others http://t.co/I97AQDEl
Fri, 18 Nov 2011 19:54:52 +0000</description><styleUrl>#hideLabel</styleUrl>
<Point><coordinates>-84.426944,33.640278,0</coordinates></Point></Placemark>
<Placemark><name>cptnmarv</name><description>RT @abeelam: The junkiest 2 lockers in the NFL @FRANKWALKER41 and Tony Romo.. Making my property value go down! http://t.co/FAeAPXYn
Fri, 18 Nov 2011 19:56:17 +0000</description><styleUrl>#hideLabel</styleUrl>
<Point><coordinates>-84.432764,33.640601,0</coordinates></Point></Placemark>
<Placemark><name>terribleomens19</name><description>RT @abeelam: The junkiest 2 lockers in the NFL @FRANKWALKER41 and Tony Romo.. Making my property value go down! http://t.co/FAeAPXYn
Fri, 18 Nov 2011 19:56:30 +0000</description><styleUrl>#hideLabel</styleUrl>
<Point><coordinates>-84.432764,33.640601,0</coordinates></Point></Placemark>
<Placemark><name>unifiedpayments</name><description>Smith %26 Wollensky steakhouse waiters busted%C2%A0in %24600%2C000 credit card scam %C2%A0 - NY Daily News http%3A%2F%2Fnydn.us%2FvfweDy
Fri, 18 Nov 2011 19:57:22 +0000</description><styleUrl>#hideLabel</styleUrl>
<Point><coordinates>-84.428400,33.642400,0</coordinates></Point></Placemark>
<Placemark><name>rickythiot</name><description>RT @abeelam: The junkiest 2 lockers in the NFL @FRANKWALKER41 and Tony Romo.. Making my property value go down! http://t.co/FAeAPXYn
Fri, 18 Nov 2011 19:59:06 +0000</description><styleUrl>#hideLabel</styleUrl>
<Point><coordinates>-84.432764,33.640601,0</coordinates></Point></Placemark>
<Placemark><name>JoeTrahan</name><description>RT @abeelam: The junkiest 2 lockers in the NFL @FRANKWALKER41 and Tony Romo.. Making my property value go down! http://t.co/FAeAPXYn
Fri, 18 Nov 2011 19:59:33 +0000</description><styleUrl>#hideLabel</styleUrl>
<Point><coordinates>-84.432764,33.640601,0</coordinates></Point></Placemark>
<Placemark><name>ilivetotravel</name><description>@MalloryOnTravel @LolaDiMarco til we meet, lets keep practicing!
Fri, 18 Nov 2011 19:59:17 +0000</description><styleUrl>#hideLabel</styleUrl>
<Point><coordinates>-84.431917,33.637119,0</coordinates></Point></Placemark>
<Placemark><name>twood2010</name><description>Back at it
Fri, 18 Nov 2011 19:59:16 +0000</description><styleUrl>#hideLabel</styleUrl>
<Point><coordinates>-84.431100,33.653400,0</coordinates></Point></Placemark>
<Placemark><name>johnny2428</name><description>RT @abeelam: The junkiest 2 lockers in the NFL @FRANKWALKER41 and Tony Romo.. Making my property value go down! http://t.co/FAeAPXYn
Fri, 18 Nov 2011 20:00:33 +0000</description><styleUrl>#hideLabel</styleUrl>
<Point><coordinates>-84.432764,33.640601,0</coordinates></Point></Placemark>
<Placemark><name>CaptainCreed</name><description>RT @abeelam: The junkiest 2 lockers in the NFL @FRANKWALKER41 and Tony Romo.. Making my property value go down! http://t.co/FAeAPXYn
Fri, 18 Nov 2011 20:00:21 +0000</description><styleUrl>#hideLabel</styleUrl>
<Point><coordinates>-84.432764,33.640601,0</coordinates></Point></Placemark>
<Placemark><name>youngmad</name><description>Home! :-) (@ Hartsfield-Jackson Atlanta International Airport (ATL) w/ 197 others) http://t.co/y39uGhlH
Fri, 18 Nov 2011 20:06:34 +0000</description><styleUrl>#hideLabel</styleUrl>
<Point><coordinates>-84.436100,33.640700,0</coordinates></Point></Placemark>
<Placemark><name>cathey_insley</name><description>RT @abeelam: The junkiest 2 lockers in the NFL @FRANKWALKER41 and Tony Romo.. Making my property value go down! http://t.co/FAeAPXYn
Fri, 18 Nov 2011 20:06:15 +0000</description><styleUrl>#hideLabel</styleUrl>
<Point><coordinates>-84.432764,33.640601,0</coordinates></Point></Placemark>
<Placemark><name>lindsay_unruh</name><description>Hey @kencripp8 you think we should take @Anna11Armstrong to this concert!? It's her favorite person. #goRod http://t.co/3phx8cEU
Fri, 18 Nov 2011 20:05:44 +0000</description><styleUrl>#hideLabel</styleUrl>
<Point><coordinates>-84.425800,33.639700,0</coordinates></Point></Placemark>
<Placemark><name>Charyssae</name><description>Boarding already greesh
Fri, 18 Nov 2011 20:07:37 +0000</description><styleUrl>#hideLabel</styleUrl>
<Point><coordinates>-84.439600,33.646700,0</coordinates></Point></Placemark>
<Placemark><name>Charyssae</name><description>Byeeee
Fri, 18 Nov 2011 20:07:28 +0000</description><styleUrl>#hideLabel</styleUrl>
<Point><coordinates>-84.440100,33.647000,0</coordinates></Point></Placemark>
<Placemark><name>D_AllenRose</name><description>I'm at Hartsfield-Jackson Atlanta International Airport (ATL) (6000 N Terminal Pkwy., Atlanta) w/ 199 others http://t.co/5ArKlzfA
Fri, 18 Nov 2011 20:08:04 +0000</description><styleUrl>#hideLabel</styleUrl>
<Point><coordinates>-84.426944,33.640278,0</coordinates></Point></Placemark>
<Placemark><name>BeauDodson</name><description>#tristatewx #paducah #metropolis Saturday will be windy - then rain chances increase - latest blog update http://t.co/H9yhnLCc
Fri, 18 Nov 2011 20:07:41 +0000</description><styleUrl>#hideLabel</styleUrl>
<Point><coordinates>-84.428864,33.644545,0</coordinates></Point></Placemark>
<Placemark><name>Cboddotcom</name><description>RT @abeelam: The junkiest 2 lockers in the NFL @FRANKWALKER41 and Tony Romo.. Making my property value go down! http://t.co/FAeAPXYn
Fri, 18 Nov 2011 20:11:53 +0000</description><styleUrl>#hideLabel</styleUrl>
<Point><coordinates>-84.432764,33.640601,0</coordinates></Point></Placemark>
<Placemark><name>ExML</name><description>Apparently I taught @jreese4605 how to &quot;judge and hate.&quot;
Fri, 18 Nov 2011 20:13:10 +0000</description><styleUrl>#hideLabel</styleUrl>
<Point><coordinates>-84.432655,33.641953,0</coordinates></Point></Placemark>
<Placemark><name>abielak11</name><description>RT @abeelam: The junkiest 2 lockers in the NFL @FRANKWALKER41 and Tony Romo.. Making my property value go down! http://t.co/FAeAPXYn
Fri, 18 Nov 2011 20:14:11 +0000</description><styleUrl>#hideLabel</styleUrl>
<Point><coordinates>-84.432764,33.640601,0</coordinates></Point></Placemark>
<Placemark><name>MrTwisterChaser</name><description>RT @BeauDodson: #tristatewx #paducah #metropolis Saturday will be windy - then rain chances increase - latest blog update http://t.co/H9yhnLCc
Fri, 18 Nov 2011 20:14:06 +0000</description><styleUrl>#hideLabel</styleUrl>
<Point><coordinates>-84.428864,33.644545,0</coordinates></Point></Placemark>
<Placemark><name>SBFlipCoins</name><description>RT @abeelam: The junkiest 2 lockers in the NFL @FRANKWALKER41 and Tony Romo.. Making my property value go down! http://t.co/FAeAPXYn
Fri, 18 Nov 2011 20:16:13 +0000</description><styleUrl>#hideLabel</styleUrl>
<Point><coordinates>-84.432764,33.640601,0</coordinates></Point></Placemark>
<Placemark><name>JHamilton24</name><description>RT @abeelam: The junkiest 2 lockers in the NFL @FRANKWALKER41 and Tony Romo.. Making my property value go down! http://t.co/FAeAPXYn
Fri, 18 Nov 2011 20:19:32 +0000</description><styleUrl>#hideLabel</styleUrl>
<Point><coordinates>-84.432764,33.640601,0</coordinates></Point></Placemark>
<Placemark><name>DJXtreme4DBT</name><description>I'm at Hartsfield-Jackson Atlanta International Airport (ATL) (6000 N Terminal Pkwy., Atlanta) w/ 208 others http://t.co/Yw8kC1dd
Fri, 18 Nov 2011 20:20:20 +0000</description><styleUrl>#hideLabel</styleUrl>
<Point><coordinates>-84.426944,33.640278,0</coordinates></Point></Placemark>
<Placemark><name>jimburress</name><description>Today is #HJIA's busiest travel day of the Tgiving season. And drivers will see more company on highways: http://t.co/07NK4pUF
Fri, 18 Nov 2011 20:20:20 +0000</description><styleUrl>#hideLabel</styleUrl>
<Point><coordinates>-84.439156,33.641541,0</coordinates></Point></Placemark>
<Placemark><name>Kelly_Adrienne</name><description>Living overseas is great but its hard when I can't be there for my friends and family when in need.
Fri, 18 Nov 2011 20:20:09 +0000</description><styleUrl>#hideLabel</styleUrl>
<Point><coordinates>-84.406115,33.637355,0</coordinates></Point></Placemark>
<Placemark><name>laudidas</name><description>RT @abeelam: The junkiest 2 lockers in the NFL @FRANKWALKER41 and Tony Romo.. Making my property value go down! http://t.co/FAeAPXYn
Fri, 18 Nov 2011 20:19:57 +0000</description><styleUrl>#hideLabel</styleUrl>
<Point><coordinates>-84.432764,33.640601,0</coordinates></Point></Placemark>
<Placemark><name>madisonheim</name><description>Cannot contain my excitement! #fireabdicereunite ⛄
Fri, 18 Nov 2011 20:19:56 +0000</description><styleUrl>#hideLabel</styleUrl>
<Point><coordinates>-84.437600,33.641200,0</coordinates></Point></Placemark>
<Placemark><name>PES625</name><description>Boarding for our flight home...see you soon Ohio (@ Gate C4) http://t.co/d2wRrD9l
Fri, 18 Nov 2011 20:22:13 +0000</description><styleUrl>#hideLabel</styleUrl>
<Point><coordinates>-84.432800,33.638100,0</coordinates></Point></Placemark>
<Placemark><name>LouE_Belt</name><description>RT @abeelam: The junkiest 2 lockers in the NFL @FRANKWALKER41 and Tony Romo.. Making my property value go down! http://t.co/FAeAPXYn
Fri, 18 Nov 2011 20:21:55 +0000</description><styleUrl>#hideLabel</styleUrl>
<Point><coordinates>-84.432764,33.640601,0</coordinates></Point></Placemark>
<Placemark><name>thatdudebender</name><description>RT @abeelam: The junkiest 2 lockers in the NFL @FRANKWALKER41 and Tony Romo.. Making my property value go down! http://t.co/FAeAPXYn
Fri, 18 Nov 2011 20:22:33 +0000</description><styleUrl>#hideLabel</styleUrl>
<Point><coordinates>-84.432764,33.640601,0</coordinates></Point></Placemark>
<Placemark><name>e_man</name><description>RT @abeelam: The junkiest 2 lockers in the NFL @FRANKWALKER41 and Tony Romo.. Making my property value go down! http://t.co/FAeAPXYn
Fri, 18 Nov 2011 20:24:12 +0000</description><styleUrl>#hideLabel</styleUrl>
<Point><coordinates>-84.432764,33.640601,0</coordinates></Point></Placemark>
<Placemark><name>FredGangsta1206</name><description>I swear I just walked 3 miles in this airport... no wonder its one of the worlds biggest airport!!
Fri, 18 Nov 2011 20:23:57 +0000</description><styleUrl>#hideLabel</styleUrl>
<Point><coordinates>-84.429500,33.641100,0</coordinates></Point></Placemark>
<Placemark><name>mleafblad</name><description>I am wearing a penn state sweatshirt that I got from a thrift store years ago. #badtaste #awkwa
Fri, 18 Nov 2011 20:23:45 +0000</description><styleUrl>#hideLabel</styleUrl>
<Point><coordinates>-84.439404,33.640856,0</coordinates></Point></Placemark>
<Placemark><name>FredGangsta1206</name><description>@Kckboyz_supaman aye cuz I need a favor...
Fri, 18 Nov 2011 20:25:33 +0000</description><styleUrl>#hideLabel</styleUrl>
<Point><coordinates>-84.429500,33.641100,0</coordinates></Point></Placemark>
<Placemark><name>GunnerMachete</name><description>RT @abeelam: The junkiest 2 lockers in the NFL @FRANKWALKER41 and Tony Romo.. Making my property value go down! http://t.co/FAeAPXYn
Fri, 18 Nov 2011 20:25:15 +0000</description><styleUrl>#hideLabel</styleUrl>
<Point><coordinates>-84.432764,33.640601,0</coordinates></Point></Placemark>
<Placemark><name>djjusj</name><description>RT @abeelam: The junkiest 2 lockers in the NFL @FRANKWALKER41 and Tony Romo.. Making my property value go down! http://t.co/FAeAPXYn
Fri, 18 Nov 2011 20:28:29 +0000</description><styleUrl>#hideLabel</styleUrl>
<Point><coordinates>-84.432764,33.640601,0</coordinates></Point></Placemark>
<Placemark><name>FredGangsta1206</name><description>couple more hours till I touchdown in da boot...
Fri, 18 Nov 2011 20:28:25 +0000</description><styleUrl>#hideLabel</styleUrl>
<Point><coordinates>-84.429500,33.641100,0</coordinates></Point></Placemark>
<Placemark><name>jimburress</name><description>DeKalb Smoking Ban Could Reappear Next Year:  http://t.co/iPUar320
Fri, 18 Nov 2011 20:30:32 +0000</description><styleUrl>#hideLabel</styleUrl>
<Point><coordinates>-84.439156,33.641541,0</coordinates></Point></Placemark>
<Placemark><name>JAYdedSpartan</name><description>Detroit to Philly, via Atlanta... Yep, that's how I roll. (@ Last Call Bar) http://t.co/ns6IbaKL
Fri, 18 Nov 2011 20:32:35 +0000</description><styleUrl>#hideLabel</styleUrl>
<Point><coordinates>-84.432700,33.638200,0</coordinates></Point></Placemark>
<Placemark><name>nothingbutakid</name><description>RT @abeelam: The junkiest 2 lockers in the NFL @FRANKWALKER41 and Tony Romo.. Making my property value go down! http://t.co/FAeAPXYn
Fri, 18 Nov 2011 20:33:19 +0000</description><styleUrl>#hideLabel</styleUrl>
<Point><coordinates>-84.432764,33.640601,0</coordinates></Point></Placemark>
<Placemark><name>LisaMSanders</name><description>I'm at Hartsfield-Jackson Atlanta International Airport (ATL) (6000 N Terminal Pkwy., Atlanta) w/ 218 others http://t.co/JJxLdFyb
Fri, 18 Nov 2011 20:35:24 +0000</description><styleUrl>#hideLabel</styleUrl>
<Point><coordinates>-84.426944,33.640278,0</coordinates></Point></Placemark>
<Placemark><name>kleckmister</name><description>Gainesville bound with @JamesPerez2. #justtryingtosurvive
Fri, 18 Nov 2011 20:35:27 +0000</description><styleUrl>#hideLabel</styleUrl>
<Point><coordinates>-84.438700,33.640200,0</coordinates></Point></Placemark>
<Placemark><name>billgaffney</name><description>Study iPad Owners Drive 88 Percent Of Worldwide Web Traffic From Tablets http://t.co/Xlnu0hrU
Fri, 18 Nov 2011 20:37:07 +0000</description><styleUrl>#hideLabel</styleUrl>
<Point><coordinates>-84.438770,33.638680,0</coordinates></Point></Placemark>
<Placemark><name>jimburress</name><description>As long as they run backwards! MT: @waberosescott I just told @denisohayer , instead of horses Georgia should consider opossums 4 racing
Fri, 18 Nov 2011 20:36:39 +0000</description><styleUrl>#hideLabel</styleUrl>
<Point><coordinates>-84.439156,33.641541,0</coordinates></Point></Placemark>
<Placemark><name>madisonheim</name><description>Done with my first quarter of collage, on my way to Chicago to see one my favorite people, loving life.
Fri, 18 Nov 2011 20:38:42 +0000</description><styleUrl>#hideLabel</styleUrl>
<Point><coordinates>-84.430300,33.642700,0</coordinates></Point></Placemark>
<Placemark><name>NBCphotogJR</name><description>RT @abeelam: The junkiest 2 lockers in the NFL @FRANKWALKER41 and Tony Romo.. Making my property value go down! http://t.co/FAeAPXYn
Fri, 18 Nov 2011 20:39:23 +0000</description><styleUrl>#hideLabel</styleUrl>
<Point><coordinates>-84.432764,33.640601,0</coordinates></Point></Placemark>
<Placemark><name>billgaffney</name><description>Infographic: Financial Times' New Mobile Audience http://t.co/F8vOeCBb
Fri, 18 Nov 2011 20:39:19 +0000</description><styleUrl>#hideLabel</styleUrl>
<Point><coordinates>-84.438770,33.638680,0</coordinates></Point></Placemark>
<Placemark><name>Margebo23</name><description>Pit stop! Next up, Disney World! (@ Hartsfield-Jackson Atlanta International Airport (ATL) w/ 220 others) http://t.co/YZKO2HH9
Fri, 18 Nov 2011 20:38:56 +0000</description><styleUrl>#hideLabel</styleUrl>
<Point><coordinates>-84.436100,33.640700,0</coordinates></Point></Placemark>
<Placemark><name>BrothaTech</name><description>First #BlackBerry Store i've ever seen  @ Hartsfield-Jackson Atlanta International Airport (ATL) http://t.co/PgkdHCjp
Fri, 18 Nov 2011 20:39:47 +0000</description><styleUrl>#hideLabel</styleUrl>
<Point><coordinates>-84.436100,33.640700,0</coordinates></Point></Placemark>
<Placemark><name>jobrieniii</name><description>I'm at Hartsfield-Jackson Atlanta International Airport (ATL) (6000 N Terminal Pkwy., Atlanta) w/ 221 others http://t.co/WB0JSPZ3
Fri, 18 Nov 2011 20:41:47 +0000</description><styleUrl>#hideLabel</styleUrl>
<Point><coordinates>-84.426944,33.640278,0</coordinates></Point></Placemark>
<Placemark><name>skyclasses</name><description>RT @abeelam: The junkiest 2 lockers in the NFL @FRANKWALKER41 and Tony Romo.. Making my property value go down! http://t.co/FAeAPXYn
Fri, 18 Nov 2011 20:43:35 +0000</description><styleUrl>#hideLabel</styleUrl>
<Point><coordinates>-84.432764,33.640601,0</coordinates></Point></Placemark>
<Placemark><name>jerrod_hill</name><description>RT @abeelam: The junkiest 2 lockers in the NFL @FRANKWALKER41 and Tony Romo.. Making my property value go down! http://t.co/FAeAPXYn
Fri, 18 Nov 2011 20:44:59 +0000</description><styleUrl>#hideLabel</styleUrl>
<Point><coordinates>-84.432764,33.640601,0</coordinates></Point></Placemark>
<Placemark><name>santa_CLAUD_</name><description>@dontHASSELme miss you boooo
Fri, 18 Nov 2011 20:46:35 +0000</description><styleUrl>#hideLabel</styleUrl>
<Point><coordinates>-84.440925,33.650108,0</coordinates></Point></Placemark>
<Placemark><name>BoiseSportNtwrk</name><description>RT @abeelam: The junkiest 2 lockers in the NFL @FRANKWALKER41 and Tony Romo.. Making my property value go down! http://t.co/FAeAPXYn
Fri, 18 Nov 2011 20:48:59 +0000</description><styleUrl>#hideLabel</styleUrl>
<Point><coordinates>-84.432764,33.640601,0</coordinates></Point></Placemark>
<Placemark><name>atkinsontshirt</name><description>I'm at Hartsfield-Jackson Atlanta International Airport (ATL) (6000 N Terminal Pkwy., Atlanta) w/ 223 others http://t.co/ROfh63Nu
Fri, 18 Nov 2011 20:49:37 +0000</description><styleUrl>#hideLabel</styleUrl>
<Point><coordinates>-84.426944,33.640278,0</coordinates></Point></Placemark>
<Placemark><name>wolfehr</name><description>Ron Paul can win the Iowa caucus - Opinion - Al Jazeera English http://t.co/O571QNn8 via @ajenglish
Fri, 18 Nov 2011 20:51:48 +0000</description><styleUrl>#hideLabel</styleUrl>
<Point><coordinates>-84.439200,33.639530,0</coordinates></Point></Placemark>
<Placemark><name>hawkt</name><description>@jonathanbowden ha! down to grab a burger anytime. #makeminextracrunchy
Fri, 18 Nov 2011 20:51:10 +0000</description><styleUrl>#hideLabel</styleUrl>
<Point><coordinates>-84.436000,33.638800,0</coordinates></Point></Placemark>
<Placemark><name>hawkt</name><description>something about weaving through a busy terminal on friday afternoon makes me feel like i'm playing a bikeless version of PAPERBOY
Fri, 18 Nov 2011 20:52:23 +0000</description><styleUrl>#hideLabel</styleUrl>
<Point><coordinates>-84.432700,33.641800,0</coordinates></Point></Placemark>
<Placemark><name>Top_Cookie</name><description>Ga has spoiled me cuz our toll is .50 cent!!! 2.50 for the toll in Florida! Smh
Fri, 18 Nov 2011 20:53:29 +0000</description><styleUrl>#hideLabel</styleUrl>
<Point><coordinates>-84.429310,33.641029,0</coordinates></Point></Placemark>
<Placemark><name>seansimmonds</name><description>“@MizzCryz: @seansimmonds hey did u see the pic i posted of you”(yes and it's hilarious!! I look like I'm 12!! Ur killin me lol!!)
Fri, 18 Nov 2011 20:53:26 +0000</description><styleUrl>#hideLabel</styleUrl>
<Point><coordinates>-84.429001,33.635056,0</coordinates></Point></Placemark>
<Placemark><name>TeeDeMandingo</name><description>RT @abeelam: The junkiest 2 lockers in the NFL @FRANKWALKER41 and Tony Romo.. Making my property value go down! http://t.co/FAeAPXYn
Fri, 18 Nov 2011 20:53:12 +0000</description><styleUrl>#hideLabel</styleUrl>
<Point><coordinates>-84.432764,33.640601,0</coordinates></Point></Placemark>
<Placemark><name>CaptainPanache</name><description>RT @abeelam: The junkiest 2 lockers in the NFL @FRANKWALKER41 and Tony Romo.. Making my property value go down! http://t.co/FAeAPXYn
Fri, 18 Nov 2011 20:52:55 +0000</description><styleUrl>#hideLabel</styleUrl>
<Point><coordinates>-84.432764,33.640601,0</coordinates></Point></Placemark>
<Placemark><name>SmittySmallcoat</name><description>NEW MUSIC!!!!!!!!!!! #GetItUp #LuvaLandShizz #GoFLIZZY Please RT And Share With A Friend Or Friends......LUVA!!!!!!!!!! http://t.co/mUq70lUv
Fri, 18 Nov 2011 20:54:15 +0000</description><styleUrl>#hideLabel</styleUrl>
<Point><coordinates>-84.440404,33.651821,0</coordinates></Point></Placemark>
<Placemark><name>SmittySmallcoat</name><description>Bend It by kluvthebeatmaestro via #soundcloud http://t.co/NRPwKftC #GetItUp #LuvaLandShizz #GoFLIZZY RT This!!!
Fri, 18 Nov 2011 20:55:48 +0000</description><styleUrl>#hideLabel</styleUrl>
<Point><coordinates>-84.440404,33.651821,0</coordinates></Point></Placemark>
<Placemark><name>MoeSphar</name><description>RT @abeelam: The junkiest 2 lockers in the NFL @FRANKWALKER41 and Tony Romo.. Making my property value go down! http://t.co/FAeAPXYn
Fri, 18 Nov 2011 20:55:47 +0000</description><styleUrl>#hideLabel</styleUrl>
<Point><coordinates>-84.432764,33.640601,0</coordinates></Point></Placemark>
<Placemark><name>seansimmonds</name><description>What's good yall!!
Fri, 18 Nov 2011 20:55:42 +0000</description><styleUrl>#hideLabel</styleUrl>
<Point><coordinates>-84.429001,33.635056,0</coordinates></Point></Placemark>
<Placemark><name>SmittySmallcoat</name><description>Borroughs(Snippet) by kluvthebeatmaestro via #soundcloud http://t.co/fumxIQCq NEW MUSIC!!! #GetItUp #LuvaLandShizz #GoFLIZZY Please RT This!
Fri, 18 Nov 2011 20:56:57 +0000</description><styleUrl>#hideLabel</styleUrl>
<Point><coordinates>-84.440404,33.651821,0</coordinates></Point></Placemark>
<Placemark><name>santa_CLAUD_</name><description>@dontHASSELme that's impossible...
Fri, 18 Nov 2011 20:56:41 +0000</description><styleUrl>#hideLabel</styleUrl>
<Point><coordinates>-84.440925,33.650108,0</coordinates></Point></Placemark>
<Placemark><name>_MikeBishop</name><description>Layover (@ Hartsfield-Jackson Atlanta International Airport (ATL) w/ 216 others) http://t.co/k7luOQDd
Fri, 18 Nov 2011 20:56:21 +0000</description><styleUrl>#hideLabel</styleUrl>
<Point><coordinates>-84.436100,33.640700,0</coordinates></Point></Placemark>
<Placemark><name>beccai</name><description>I'm at Hartsfield-Jackson Atlanta International Airport (ATL) (6000 N Terminal Pkwy., Atlanta) w/ 219 others http://t.co/IKrMpQ05
Fri, 18 Nov 2011 20:57:22 +0000</description><styleUrl>#hideLabel</styleUrl>
<Point><coordinates>-84.426944,33.640278,0</coordinates></Point></Placemark>
<Placemark><name>usaussie</name><description>I have failed at my attempts to set up passwordless SSH logins between...well...pretty much everywhere. Time to quit. #mustBeFriday
Fri, 18 Nov 2011 20:58:09 +0000</description><styleUrl>#hideLabel</styleUrl>
<Point><coordinates>-84.437940,33.640451,0</coordinates></Point></Placemark>